user_vec,shop_vec,dist_score,distance [m],cosθ,oaiso_score,id,shop_name,URL,genre,oaiso_genre,lat,lng,address
"0,1,0,1,0,0,0,1,0","0.0,3.0,0.0,3.0,0.0,0.0,0.0,3.0,0.0",0.8416281097236237,47.51156708291291,1.0,1.3070339992046727,58559,絆,https://tabelog.com/tokyo/A1301/A130101/13108776/,ダイニングバー,バー・お酒,35.67174444,139.7637833,東京都中央区銀座4-6-18ギンザアクトビル6F
"0,1,0,1,0,0,0,1,0","0.0,3.0,0.0,3.0,0.0,0.0,0.0,3.0,0.0",0.8165954543412399,55.021363697628026,1.0,1.2910569840447694,63664,築地寿司清 銀座四丁目店,https://tabelog.com/tokyo/A1301/A130101/13014906/,寿司,高級和食,35.67175694,139.7637003,東京都中央区銀座4-6-18ギンザアクトビル4F
"0,1,0,1,0,0,0,1,0","0.0,3.0,0.0,3.0,0.0,0.0,0.0,3.0,0.0",0.7921881578165496,62.34355265503513,1.0,1.2757594120306457,59559,寿司田 銀座松屋Ｂ１店,https://tabelog.com/tokyo/A1301/A130101/13094987/,寿司,高級和食,35.67228194,139.7645369,東京都中央区銀座3-6-1松屋銀座B1F
"0,1,0,1,0,0,0,1,0","0.0,3.0,0.0,3.0,0.0,0.0,0.0,3.0,0.0",0.7614809446701218,71.55571659896344,1.0,1.2569221253107532,62824,新潟加島屋 銀座三越店,https://tabelog.com/tokyo/A1301/A130101/13166643/,郷土料理（その他）,高級和食,35.67134421,139.7636957,東京都中央区銀座4-6-16銀座三越B2F
"0,1,0,1,0,0,0,1,0","0.0,3.0,0.0,3.0,0.0,0.0,0.0,3.0,0.0",0.7572986575421673,72.81040273734982,1.0,1.2543927840653297,59836,宮川本廛 銀座松屋店,https://tabelog.com/tokyo/A1301/A130101/13002495/,うなぎ,高級和食,35.67235833,139.7646156,東京都中央区銀座3-6-1松屋銀座本店8F
"0,1,0,1,0,0,0,1,0","0.0,3.0,0.0,3.0,0.0,0.0,0.0,3.0,0.0",0.7564096492142697,73.0771052357191,1.0,1.2538562746281787,61238,すし田 乾山 銀座松屋店,https://tabelog.com/tokyo/A1301/A130101/13025337/,寿司,高級和食,35.67236056,139.7646167,東京都中央区銀座3-6-1松屋銀座本店8F
"0,1,0,1,0,0,0,1,0","0.0,3.0,0.0,3.0,0.0,0.0,0.0,3.0,0.0",0.7564096492142697,73.0771052357191,1.0,1.2538562746281787,61847,上野精養軒松屋 松屋銀座店,https://tabelog.com/tokyo/A1301/A130101/13014925/,洋食、シチュー、フレンチ,洋食・西洋料理,35.67236056,139.7646167,東京都中央区銀座3-6-1松屋銀座本店8F
"0,1,0,1,0,0,0,1,0","0.0,3.0,0.0,3.0,0.0,0.0,0.0,3.0,0.0",0.6955423643360793,91.33729069917621,1.0,1.2181047494309443,58385,ショットバー ギンザアンドレ,https://tabelog.com/tokyo/A1301/A130101/13119830/,バー,バー・お酒,35.67150822,139.7652716,東京都中央区銀座3丁目8-13銀座三丁目ビルディング　1Ｆ
"0,1,0,1,0,0,0,1,0","0.0,3.0,0.0,3.0,0.0,0.0,0.0,3.0,0.0",0.6810106600840762,95.69680197477716,1.0,1.2098659095735151,61112,居酒屋 いさば2号,https://tabelog.com/tokyo/A1301/A130101/13094653/,魚介料理・海鮮料理、かに,居酒屋,35.67092778,139.7646194,東京都中央区銀座4-8-12コチワビルB1F
"0,1,0,1,0,0,0,1,0","0.0,3.0,0.0,3.0,3.0,0.0,0.0,3.0,0.0",0.8645487015799421,40.63538952601738,0.816496580928,1.1891640442219191,59482,トミー＆ケイ,https://tabelog.com/tokyo/A1301/A130102/13163090/,串揚げ・串かつ、割烹・小料理,高級和食,35.67161923,139.7647263,東京都中央区銀座3-7-13成田屋ビル2F
"0,1,0,1,0,0,0,1,0","0.0,3.0,0.0,3.0,0.0,0.0,0.0,3.0,0.0",0.6191755526614048,114.24733420157857,1.0,1.1761710611188987,63027,ワインの酒場。ディプント 銀座三丁目店,https://tabelog.com/tokyo/A1301/A130101/13104889/,ダイニングバー、イタリアン、ワインバー,バー・お酒,35.67165861,139.7655647,東京都中央区銀座3‐9‐18東銀座ビル1F
"0,1,0,1,0,0,0,1,0","0.0,3.0,0.0,3.0,0.0,0.0,0.0,3.0,0.0",0.5612534892204946,131.62395323385164,1.0,1.1467368831437228,64142,モッド,https://tabelog.com/tokyo/A1301/A130101/13007713/,バー,バー・お酒,35.67262167,139.7633192,東京都中央区銀座3-4-12文祥堂ビル1F
"0,1,0,1,0,0,0,1,0","0.0,2.0,0.0,3.0,0.0,0.0,0.0,3.0,0.0",0.5507545608809378,134.77363173571865,1.0,1.1416350495369152,59402,江戸前がってん寿司 銀座店,https://tabelog.com/tokyo/A1301/A130101/13152778/,居酒屋、寿司、天ぷら,高級和食,35.67281444,139.7635864,東京都中央区銀座3-4-7銀座サニービル1F
"0,1,0,1,0,0,0,1,0","0.0,2.0,0.0,3.0,0.0,0.0,3.0,3.0,0.0",0.7918520931993999,62.44437204018003,0.816496580928,1.1374077563349643,61011,勘太屋 銀座松屋,https://tabelog.com/tokyo/A1301/A130101/13131000/,寿司,高級和食,35.67227694,139.7645567,東京都中央区銀座3-6-1松屋銀座B1F
"0,1,0,1,0,0,0,1,0","0.0,3.0,0.0,3.0,0.0,0.0,0.0,3.0,0.0",0.4954712071382294,151.35863785853118,1.0,1.1160160021715702,59547,竹葉亭 銀座店,https://tabelog.com/tokyo/A1301/A130101/13002552/,うなぎ、割烹・小料理、懐石・会席料理,高級和食,35.67074889,139.763175,東京都中央区銀座5-8-3
"0,1,0,1,0,0,0,1,0","0.0,3.0,0.0,3.0,0.0,0.0,0.0,0.0,3.0",0.8490146062272752,45.29561813181745,0.707106781187,1.1049098612951442,59928,蔵ノ灯,https://tabelog.com/tokyo/A1301/A130101/13139118/,居酒屋,居酒屋,35.67173556,139.7638081,東京都中央区銀座4-6-18ギンザアクトビル6F-B
"0,1,0,1,0,0,0,1,0","0.0,3.0,0.0,3.0,3.0,0.0,0.0,3.0,0.0",0.7270084704799651,81.89745885601047,0.816496580928,1.0932556804408953,59843,御座候,https://tabelog.com/tokyo/A1301/A130101/13081819/,お好み焼き、もんじゃ焼き,Ｂ級和食,35.67109563,139.7647218,東京都中央区銀座4-8-13銀座蟹睦会館ビル　1F
"0,1,0,1,0,0,0,1,0","0.0,3.0,0.0,3.0,3.0,0.0,0.0,3.0,0.0",0.7240929111210513,82.77212666368459,0.816496580928,1.091319023293567,59016,Bar Quina,https://tabelog.com/tokyo/A1301/A130101/13090914/,バー,バー・お酒,35.67226917,139.7649669,東京都中央区銀座3-7-20徳永ビル　Ｂ１Ｆ
"0,1,0,1,0,0,0,1,0","0.0,3.0,0.0,3.0,0.0,0.0,3.0,3.0,0.0",0.7120575532647534,86.38273402057398,0.816496580928,1.083370954857132,63800,武ちゃん,https://tabelog.com/tokyo/A1301/A130101/13007710/,焼鳥,Ｂ級和食,35.67102372,139.7646453,東京都中央区銀座4-8-13銀座蟹睦会館ビル　1Ｆ
"0,1,0,1,0,0,0,1,0","0.0,3.0,0.0,3.0,0.0,0.0,0.0,3.0,0.0",0.4165464628422862,175.03606114731414,1.0,1.0832871067756784,61329,よしの,https://tabelog.com/tokyo/A1301/A130101/13078237/,居酒屋,居酒屋,35.67034167,139.7634417,東京都中央区銀座5-9-5
"0,1,0,1,0,0,0,1,0","0.0,3.0,0.0,3.0,0.0,0.0,0.0,3.0,0.0",0.39855761785538607,180.43271464338417,1.0,1.0764981071746293,64289,shiokara,https://tabelog.com/tokyo/A1301/A130101/13002280/,バー、割烹・小料理,高級和食,35.673075,139.7654669,東京都中央区銀座2-7-7銀座ロビービル　Ｂ１Ｆ
"0,1,0,1,0,0,0,1,0","0.0,3.0,0.0,3.0,0.0,0.0,0.0,3.0,0.0",0.38424850413060757,184.72544876081773,1.0,1.0712828351684767,59448,築地玉寿司 コア銀座店,https://tabelog.com/tokyo/A1301/A130101/13007811/,寿司、魚介料理・海鮮料理,高級和食,35.67061139,139.7628217,東京都中央区銀座5-8-20銀座コアB2F
"0,1,0,1,0,0,0,1,0","0.0,3.0,0.0,3.0,3.0,0.0,0.0,3.0,0.0",0.6841410919621815,94.75767241134552,0.816496580928,1.0652303508527499,63786,バー・エバンス,https://tabelog.com/tokyo/A1301/A130101/13039892/,バー,バー・お酒,35.67181802,139.7653515,東京都中央区銀座3-8-15ＡＰＡ銀座中央ビル　Ｂ１Ｆ
"0,1,0,1,0,0,0,1,0","0.0,2.0,0.0,3.0,0.0,0.0,0.0,3.0,0.0",0.3139277712708441,205.82166861874677,1.0,1.0481176678098119,61455,那須高原の食卓　なすの屋 銀座,https://tabelog.com/tokyo/A1301/A130101/13192468/,野菜料理、居酒屋、創作料理,創作料理・無国籍料理,35.67336639,139.7654278,東京都中央区銀座2-7-18メルサginza-24F
"0,1,0,1,0,0,0,1,0","0.0,3.0,0.0,3.0,0.0,3.0,0.0,0.0,3.0",0.9166990664276974,24.9902800716908,0.5,1.0441921175671707,59758,ブルーリリー 青百合飯荘  銀座チャイニーズビアホール,https://tabelog.com/tokyo/A1301/A130101/13138046/,中華料理、居酒屋、飲茶・点心,アジア・エスニック、中華料理,35.67167194,139.76405,東京都中央区銀座4-6-1三和ビルB2F
"0,1,0,1,0,0,0,1,0","0.0,3.0,0.0,3.0,0.0,0.0,0.0,0.0,3.0",0.7667354543633191,69.97936369100425,0.707106781187,1.0430164221994425,64760,トラットリア　ガルガ,https://tabelog.com/tokyo/A1301/A130101/13115837/,イタリアン、バル・バール、ワインバー,バー・お酒,35.67137167,139.7636914,東京都中央区銀座4-6-16銀座三越11F
"0,1,0,1,0,0,0,1,0","0.0,3.0,0.0,3.0,0.0,0.0,0.0,3.0,0.0",0.2853362850057427,214.39911449827719,1.0,1.0399119172030284,63406,バー・ジン,https://tabelog.com/tokyo/A1301/A130101/13035461/,バー,バー・お酒,35.67088556,139.7664247,東京都中央区銀座3-11-16Ｇ３ギンザビル
"0,1,0,1,0,0,0,1,0","0.0,3.0,0.0,3.0,0.0,0.0,0.0,0.0,3.0",0.756635641050486,73.0093076848542,0.707106781187,1.0356145486173316,59040,天ぷら新宿つな八 銀座店,https://tabelog.com/tokyo/A1301/A130101/13010664/,天ぷら、割烹・小料理、居酒屋,高級和食,35.67236,139.7646164,東京都中央区銀座3-6-1松屋銀座本店8F
"0,1,0,1,0,0,0,1,0","0.0,3.0,0.0,3.0,0.0,0.0,0.0,3.0,0.0",0.1946747680900208,241.59756957299376,1.0,1.0187729213769394,63088,暫亭 木挽町店,https://tabelog.com/tokyo/A1301/A130101/13123243/,焼鳥,Ｂ級和食,35.67012718,139.7660845,東京都中央区銀座4-11-12港北ビル１F
"0,1,0,1,0,0,0,1,0","0.0,3.0,0.0,3.0,0.0,0.0,0.0,3.0,0.0",0.16430469083941907,250.70859274817428,1.0,1.0134081267839907,61125,薩摩,https://tabelog.com/tokyo/A1301/A130101/13058444/,居酒屋、焼酎バー,バー・お酒,35.66966921,139.7653818,東京都中央区銀座4丁目12-20
"0,1,0,1,0,0,0,1,0","0.0,3.0,0.0,3.0,0.0,0.0,0.0,0.0,3.0",0.725676968010222,82.29690959693342,0.707106781187,1.0132161970184392,60963,鳥政,https://tabelog.com/tokyo/A1301/A130101/13013313/,焼鳥、鳥料理,Ｂ級和食,35.67108691,139.7647104,東京都中央区銀座4-8-13銀座蟹睦会館ビル　1F
"0,1,0,1,0,0,0,1,0","0.0,3.0,0.0,3.0,0.0,0.0,0.0,3.0,0.0",0.1552246225829766,253.43261322510702,1.0,1.0119756338252555,62611,ベリー,https://tabelog.com/tokyo/A1301/A130101/13124014/,バー,バー・お酒,35.67080694,139.7668564,東京都中央区銀座3-12-17銀座大洋ビル
"0,1,0,1,0,0,0,1,0","0.0,3.0,0.0,3.0,0.0,0.0,0.0,3.0,0.0",0.14774627346896638,255.6761179593101,1.0,1.0108555590805082,64317,サイアムセラドン 銀座店,https://tabelog.com/tokyo/A1301/A130101/13156628/,タイカレー、タイ料理、レストラン（その他）,創作料理・無国籍料理,35.67405333,139.7641631,東京都中央区銀座2-4-6銀座ベルビア館a館7F
"0,1,0,1,0,0,0,1,0","0.0,3.0,0.0,3.0,0.0,0.0,0.0,3.0,0.0",0.1451359397639207,256.4592180708238,1.0,1.010477333249567,64503,Bar 5517,https://tabelog.com/tokyo/A1301/A130101/13006516/,バー、ワインバー、ダイニングバー,バー・お酒,35.67154778,139.7614864,東京都中央区銀座5-5-17三笠会館本店B1F
"0,1,0,1,0,0,0,1,0","0.0,3.0,0.0,3.0,3.0,0.0,0.0,0.0,3.0",0.8766308713408476,37.01073859774574,0.5,1.0091985357638078,63321,GINZA SCHEVENINGEN,https://tabelog.com/tokyo/A1301/A130101/13014927/,パスタ、イタリアン、洋食,洋食・西洋料理,35.67162861,139.7646878,東京都中央区銀座3-7-13成田屋ビル　B1F
"0,1,0,1,0,0,0,1,0","0.0,3.0,0.0,3.0,0.0,0.0,0.0,3.0,0.0",0.1264137197030624,262.0758840890813,1.0,1.007958545044966,63484,ビストロ石川亭 銀座店,https://tabelog.com/tokyo/A1301/A130101/13197435/,ビストロ、フレンチ,洋食・西洋料理,35.67411306,139.7642244,東京都中央区銀座2-4-6銀座ベルビア館8F
"0,1,0,1,0,0,0,1,0","0.0,3.0,0.0,3.0,0.0,0.0,0.0,3.0,0.0",0.12397488260084591,262.8075352197462,1.0,1.0076555817916624,63084,舟よし,https://tabelog.com/tokyo/A1301/A130101/13031475/,魚介料理・海鮮料理,高級和食,35.6713975,139.7671781,東京都中央区銀座2-12-11下嶋ビル地下１階
"0,1,0,1,0,0,0,1,0","0.0,3.0,0.0,3.0,0.0,0.0,0.0,3.0,0.0",0.10149925154854979,269.55022453543506,1.0,1.0051378502797095,59571,和みダイニング 銀座店,https://tabelog.com/tokyo/A1301/A130101/13171294/,和食（その他）、居酒屋,Ｂ級和食,35.67296333,139.7617272,東京都中央区銀座4-2-12銀座クリスタルビルF-A
"0,1,0,1,0,0,0,1,0","0.0,3.0,0.0,3.0,0.0,0.0,0.0,3.0,0.0",0.09692355005009934,270.9229349849702,1.0,1.004686107475521,64145,GRILL & PUB The NICK STOCK GINZA SIX店,https://tabelog.com/tokyo/A1301/A130101/13207694/,ステーキ、バル・バール、ビアホール・ビアレストラン,洋食・西洋料理,35.66997444,139.7622564,東京都中央区銀座6-10-1GINZASIX6F
"0,1,0,1,0,0,0,1,0","0.0,3.0,0.0,3.0,0.0,0.0,0.0,3.0,0.0",0.09685085277819307,270.9447441665421,1.0,1.0046790968681807,60194,ザ・グラン銀座 ラウンジ,https://tabelog.com/tokyo/A1301/A130101/13207655/,フレンチ,洋食・西洋料理,35.66997417,139.7622564,東京都中央区銀座6-10-1GINZASIX13F
"0,1,0,1,0,0,0,1,0","0.0,3.0,0.0,3.0,0.0,0.0,0.0,3.0,0.0",0.08061926875182791,275.8142193744516,1.0,1.0032444699543972,64753,銀座 鳥松,https://tabelog.com/tokyo/A1301/A130101/13032757/,焼鳥,Ｂ級和食,35.67081111,139.7671278,東京都中央区銀座3-12-5ファーストビル　Ｂ１Ｆ
"0,1,0,1,0,0,0,1,0","0.0,3.0,0.0,3.0,0.0,0.0,0.0,3.0,0.0",0.06411764201508163,280.7647073954755,1.0,1.002053427726074,63709,福遊庵,https://tabelog.com/tokyo/A1301/A130101/13184435/,懐石・会席料理,高級和食,35.67075694,139.7614567,東京都中央区銀座5-6-10銀座ミヤコビル5F
"0,1,0,1,0,0,0,1,0","0.0,3.0,0.0,3.0,0.0,0.0,0.0,3.0,0.0",0.05612361228216457,283.1629163153506,1.0,1.0015736916750553,59677,楽山,https://tabelog.com/tokyo/A1301/A130101/13115385/,すき焼き、しゃぶしゃぶ,焼肉・ホルモン・鍋,35.67114377,139.7612705,東京都中央区銀座5-5-8西五番街坂口ビル５F
"0,1,0,1,0,0,0,1,0","0.0,3.0,0.0,3.0,0.0,0.0,0.0,0.0,3.0",0.7087027198895907,87.3891840331228,0.707106781187,1.0011291351163962,62918,でーびる沖縄 銀座店,https://tabelog.com/tokyo/A1301/A130101/13027403/,沖縄料理,高級和食,35.67129667,139.7650956,東京都中央区銀座3-8-10銀座朝日ビルB1F
"0,1,0,1,0,0,0,1,0","0.0,3.0,0.0,3.0,0.0,0.0,0.0,3.0,0.0",0.0244712521043103,292.6586243687069,1.0,1.0002993762766987,62652,ルパン,https://tabelog.com/tokyo/A1301/A130102/13002554/,バー,バー・お酒,35.67106278,139.7611878,東京都中央区銀座5-5-11塚本不動産ビル　Ｂ１Ｆ
"0,1,0,1,0,0,0,1,0","0.0,3.0,0.0,3.0,0.0,0.0,0.0,3.0,0.0",0.014205054612612381,295.7384836162163,1.0,1.0001008866992107,64427,ニュー鳥ぎん,https://tabelog.com/tokyo/A1301/A130101/13031483/,釜飯、焼鳥,Ｂ級和食,35.67103,139.7611636,東京都中央区銀座5-5-11
"0,1,0,1,0,0,0,1,0","0.0,3.0,0.0,3.0,0.0,0.0,0.0,3.0,0.0",0.004696717301682156,298.59098480949535,1.0,1.0000110295158808,60942,備長 銀座店,https://tabelog.com/tokyo/A1301/A130101/13042857/,うなぎ,高級和食,35.67429806,139.7632397,東京都中央区銀座2丁目2番地14号マロニエゲート12階
"0,1,0,1,0,0,0,1,0","0.0,3.0,0.0,3.0,3.0,0.0,0.0,0.0,3.0",0.8418174058060667,47.45477825817999,0.5,0.9791100779371316,64047,個室と和食バル Rokuroku 銀座店,https://tabelog.com/tokyo/A1301/A130101/13213088/,ダイニングバー、居酒屋、魚介料理・海鮮料理,高級和食,35.67174583,139.7637839,東京都中央区銀座4-6-18銀座アクトビル6F-B
"0,1,0,1,0,0,0,1,0","0.0,3.0,0.0,3.0,0.0,3.0,0.0,0.0,3.0",0.8418174058060667,47.45477825817999,0.5,0.9791100779371316,59538,銀座夜市 中央通り店,https://tabelog.com/tokyo/A1301/A130101/13213533/,中華料理、飲茶・点心、四川料理,アジア・エスニック、中華料理,35.67174583,139.7637839,東京都中央区銀座4-6-18銀座アクトビル3F
"0,1,0,1,0,0,0,1,0","0.0,3.0,0.0,3.0,3.0,0.0,0.0,0.0,3.0",0.8417204271721768,47.48387184834698,0.5,0.979026699083795,61737,個室和食 六禄 銀座店,https://tabelog.com/tokyo/A1301/A130101/13169571/,居酒屋、ダイニングバー、魚介料理・海鮮料理,高級和食,35.67174472,139.7637836,東京都中央区銀座4-6-18銀座アクトビル6F
"0,1,0,1,0,0,0,1,0","0.0,2.0,0.0,3.0,0.0,3.0,0.0,3.0,0.0",0.5208487791583607,143.74536625249178,0.816496580928,0.9684782482933839,64847,Kaoru ginza ～香る銀座～,https://tabelog.com/tokyo/A1301/A130101/13197082/,居酒屋、創作料理、洋食,創作料理・無国籍料理,35.67254368,139.7655648,東京都中央区銀座2-8-12ユニデン銀座ビル8F
"0,1,0,1,0,0,0,1,0","0.0,3.0,0.0,3.0,3.0,3.0,0.0,0.0,3.0",0.8691040335850636,39.268789924480906,0.408248290464,0.960212730524072,63227,トラットリア コダマ,https://tabelog.com/tokyo/A1301/A130101/13140498/,イタリアン,洋食・西洋料理,35.671575,139.7646836,東京都中央区銀座3-7-13
"0,1,0,1,0,0,0,1,0","0.0,3.0,0.0,3.0,3.0,0.0,0.0,0.0,3.0",0.8168290267206471,54.951291983805866,0.5,0.9577106342175592,62271,長万部酒場 銀座店,https://tabelog.com/tokyo/A1301/A130101/13139781/,郷土料理（その他）、居酒屋、魚介料理・海鮮料理,高級和食,35.6714525,139.7647914,東京都中央区銀座3-7-12王子不動産銀座ビルB1F
"0,1,0,1,0,0,0,1,0","0.0,3.0,0.0,3.0,0.0,0.0,0.0,0.0,3.0",0.6376898941682478,108.69303174952566,0.707106781187,0.9521808657625457,60653,バー リップル,https://tabelog.com/tokyo/A1301/A130101/13183303/,バー,バー・お酒,35.67197755,139.7654763,東京都中央区銀座3-8-16武井ビル2F
"0,1,0,1,0,0,0,1,0","0.0,3.0,0.0,3.0,0.0,0.0,0.0,0.0,3.0",0.6318639777675784,110.44080666972647,0.707106781187,0.9482890310450008,61115,レストラン木村家,https://tabelog.com/tokyo/A1301/A130101/13007695/,フレンチ,洋食・西洋料理,35.67171694,139.7630889,東京都中央区銀座4-5-7銀座木村屋総本店　４Ｆ
"0,1,0,1,0,0,0,1,0","0.0,3.0,0.0,3.0,0.0,0.0,0.0,0.0,3.0",0.6282735392660622,111.51793822018132,0.707106781187,0.945900438810504,62356,銀座 菊正,https://tabelog.com/tokyo/A1301/A130101/13012780/,割烹・小料理,高級和食,35.67201632,139.7654964,東京都中央区銀座3-8-17菊正ビル
"0,1,0,1,0,0,0,1,0","0.0,3.0,0.0,3.0,3.0,0.0,0.0,0.0,3.0",0.7924260664694351,62.27218005916945,0.5,0.9369840291169437,62134,美しくなるビアガーデン,https://tabelog.com/tokyo/A1301/A130101/13208273/,ビアガーデン,バー・お酒,35.67227556,139.7645558,東京都中央区銀座3-6-1松屋銀座屋上
"0,1,0,1,0,0,0,1,0","0.0,3.0,0.0,3.0,0.0,0.0,0.0,0.0,3.0",0.601096817524716,119.67095474258521,0.707106781187,0.9280718636174365,63116,手作り料理とお酒　えん 銀座店,https://tabelog.com/tokyo/A1301/A130101/13012788/,居酒屋、創作料理、懐石・会席料理,高級和食,35.67234102,139.7654153,東京都中央区銀座3-7-3銀座オーミビル　B1Ｆ
"0,1,0,1,0,0,0,1,0","0.0,3.0,0.0,3.0,0.0,0.0,0.0,0.0,3.0",0.586251127905147,124.12466162845591,0.707106781187,0.9185262026583983,61514,王十里　サランチェ,https://tabelog.com/tokyo/A1301/A130102/13159018/,韓国料理、韓国鍋、居酒屋,アジア・エスニック、中華料理,35.67175252,139.765679,東京都中央区銀座3-9-18東銀座ビル１Ｆ
"0,1,0,1,0,0,0,1,0","0.0,3.0,0.0,3.0,0.0,0.0,0.0,0.0,3.0",0.5799767127537551,126.00698617387347,0.707106781187,0.9145343007983089,64030,板前バル 銀座店,https://tabelog.com/tokyo/A1301/A130101/13144183/,和食（その他）、バル・バール,Ｂ級和食,35.671765,139.7656997,東京都中央区銀座3-9-18東銀座ビル1F
"0,1,0,1,0,0,0,1,0","0.0,3.0,0.0,3.0,0.0,0.0,0.0,0.0,3.0",0.5683963175326954,129.4811047401914,0.707106781187,0.907234464614704,65064,銀座でワイン。,https://tabelog.com/tokyo/A1301/A130101/13169784/,ダイニングバー、串焼き、イタリアン,洋食・西洋料理,35.67159889,139.7657258,東京都中央区銀座3-9-6マトリックスビル2F
"0,1,0,1,0,0,0,1,0","0.0,3.0,0.0,3.0,0.0,3.0,0.0,0.0,3.0",0.75686163279956,72.941510160132,0.5,0.9071050276588792,63282,つる家 花陽 銀座松屋店,https://tabelog.com/tokyo/A1301/A130101/13020367/,懐石・会席料理、和食（その他）,高級和食,35.67235944,139.7646161,東京都中央区銀座3-6-1松屋銀座本店8F
"0,1,0,1,0,0,0,1,0","0.0,3.0,0.0,3.0,3.0,0.0,0.0,3.0,0.0",0.3883273689490802,183.50178931527594,0.816496580928,0.9041376068616888,62003,かめ幸,https://tabelog.com/tokyo/A1301/A130101/13002319/,おでん、居酒屋,Ｂ級和食,35.67026262,139.7651892,東京都中央区銀座4-10-6銀座ビル　Ｂ１Ｆ
"0,1,0,1,0,0,0,1,0","0.0,3.0,0.0,3.0,0.0,0.0,0.0,0.0,3.0",0.5608766316092096,131.7370105172371,0.707106781187,0.9025422958982549,63264,キリンシティプラス 東京銀座店,https://tabelog.com/tokyo/A1301/A130101/13014900/,ビアホール・ビアレストラン、ビアバー、ダイニングバー,バー・お酒,35.67262389,139.7633203,東京都中央区銀座3-4-12文祥堂銀座ビル2F
"0,1,0,1,0,0,0,1,0","0.0,3.0,0.0,3.0,0.0,0.0,0.0,0.0,3.0",0.5459467488722216,136.21597533833352,0.707106781187,0.8933408378688106,58698,YUN,https://tabelog.com/tokyo/A1301/A130101/13100205/,焼肉、韓国料理,焼肉・ホルモン・鍋,35.67151028,139.7657831,東京都中央区銀座3-9-6アルファマトリックスビル2F
"0,1,0,1,0,0,0,1,0","0.0,3.0,0.0,3.0,0.0,0.0,0.0,0.0,3.0",0.5348265308925386,139.55204073223842,0.707106781187,0.886588640885133,58701,韓豚屋 銀座三丁目店,https://tabelog.com/tokyo/A1301/A130101/13032379/,居酒屋、韓国料理、焼肉,焼肉・ホルモン・鍋,35.67290778,139.7637,東京都中央区銀座3-4-6正隆銀座ビル　２Ｆ
"0,1,0,1,0,0,0,1,0","0.0,3.0,0.0,3.0,3.0,0.0,0.0,3.0,0.0",0.33237928766774605,200.28621369967618,0.816496580928,0.8815569508189388,59660,22,https://tabelog.com/tokyo/A1301/A130101/13128845/,ビストロ、ワインバー,バー・お酒,35.67227917,139.7621922,東京都中央区銀座4-3-12銀座伊藤ビル2F
"0,1,0,1,0,0,0,1,0","0.0,2.0,0.0,3.0,0.0,3.0,0.0,0.0,3.0",0.7145301214654022,85.64096356037935,0.5,0.8720970671211792,61948,ランゲツ オブ トウキョウ,https://tabelog.com/tokyo/A1301/A130101/13200367/,ダイニングバー、フレンチ、ステーキ,洋食・西洋料理,35.67242306,139.7638406,東京都中央区銀座3-5-8銀座らん月1F
"0,1,0,1,0,0,0,1,0","0.0,3.0,0.0,3.0,3.0,0.0,0.0,0.0,3.0",0.7127565059765978,86.17304820702067,0.5,0.8706444950793452,64251,香港ダイニング 九龍,https://tabelog.com/tokyo/A1313/A131301/13032960/,中華料理、飲茶・点心、広東料理,アジア・エスニック、中華料理,35.67113376,139.7648841,東京都中央区銀座4-8-2三福ビル　Ｂ１Ｆ
"0,1,0,1,0,0,0,1,0","0.0,3.0,0.0,3.0,3.0,0.0,0.0,0.0,3.0",0.7052903192058795,88.41290423823617,0.5,0.8645429048725872,64494,和もと,https://tabelog.com/tokyo/A1301/A130101/13083207/,割烹・小料理,高級和食,35.67099861,139.7646261,東京都中央区銀座4-8-12コチワビル　B1　北側
"0,1,0,1,0,0,0,1,0","0.0,3.0,0.0,3.0,3.0,0.0,0.0,0.0,3.0",0.7026087559536862,89.21737321389415,0.5,0.8623566918293071,60291,Bacchusのさら.,https://tabelog.com/tokyo/A1301/A130101/13137480/,イタリアン、バル・バール、ワインバー,バー・お酒,35.67135135,139.7651624,東京都中央区銀座3-8-8太郎坊ビルB1Fこのお店は「中央区銀座2-8-2」から移転しています。※移転前の情報は最新のものとは異なります。移転前の店舗情報を見る
"0,1,0,1,0,0,0,1,0","0.0,3.0,0.0,3.0,3.0,0.0,0.0,0.0,3.0",0.7003131305271247,89.90606084186257,0.5,0.8604873507429971,60451,銀座羊屋 はなれ,https://tabelog.com/tokyo/A1301/A130101/13119171/,ジンギスカン、焼肉、ホルモン,焼肉・ホルモン・鍋,35.6713702,139.7651839,東京都中央区銀座3-8-8太郎坊ビル　１Ｆ
"0,1,0,1,0,0,0,1,0","0.0,3.0,0.0,3.0,0.0,0.0,0.0,0.0,3.0",0.4732577994569782,158.02266016290653,0.707106781187,0.8508659969389194,63942,日比谷 Bａｒ 銀座店,https://tabelog.com/tokyo/A1301/A130101/13007605/,ダイニングバー、バル・バール、イタリアン,洋食・西洋料理,35.67274611,139.7630581,東京都中央区銀座3-3-11稲垣ビル　５Ｆ
"0,1,0,1,0,0,0,1,0","0.0,3.0,0.0,3.0,0.0,0.0,0.0,0.0,3.0",0.4698509769907431,159.04470690277708,0.707106781187,0.8489758186068409,63991,日比谷BAR WAPIRITS,https://tabelog.com/tokyo/A1301/A130101/13183496/,ダイニングバー、バル・バール、イタリアン,洋食・西洋料理,35.67276583,139.7630661,東京都中央区銀座3-3-11稲垣ビル　4Ｆ
"0,1,0,1,0,0,0,1,0","0.0,3.0,0.0,3.0,3.0,0.0,0.0,0.0,3.0",0.6851408841897761,94.45773474306716,0.5,0.8481851396884693,64638,魚真 銀座店,https://tabelog.com/tokyo/A1301/A130101/13144140/,魚介料理・海鮮料理、居酒屋,高級和食,35.67093417,139.7645978,東京都中央区銀座4-8-12コチワビルB1F
"0,1,0,1,0,0,0,1,0","0.0,3.0,0.0,3.0,3.0,0.0,0.0,0.0,3.0",0.6851204277421364,94.46387167735907,0.5,0.8481686156122307,58368,酒の穴,https://tabelog.com/tokyo/A1301/A130101/13002491/,居酒屋,居酒屋,35.67249194,139.7637919,東京都中央区銀座3-5-8銀座らん月　Ｂ１Ｆ
"0,1,0,1,0,0,0,1,0","0.0,3.0,0.0,3.0,0.0,0.0,0.0,0.0,3.0",0.46319458567456856,161.04162429762943,0.707106781187,0.845310134919862,61258,居心伝 銀座三丁目店,https://tabelog.com/tokyo/A1301/A130101/13027684/,居酒屋,居酒屋,35.67282778,139.7631139,東京都中央区銀座3-3-9松岡ビル　４Ｆ
"0,1,0,1,0,0,0,1,0","0.0,3.0,0.0,3.0,3.0,0.0,0.0,3.0,0.0",0.21598127650122392,235.20561704963282,0.816496580928,0.8445795276146377,61977,Wine & Bar a.c.e.,https://tabelog.com/tokyo/A1301/A130101/13099428/,ワインバー、バー、洋食・欧風料理（その他）,バー・お酒,35.67093203,139.7667037,東京都中央区銀座3-11-6鈴木ビル　１Ｆ　
"0,1,0,1,0,0,0,1,0","0.0,3.0,0.0,3.0,0.0,0.0,0.0,0.0,3.0",0.4611888901463222,161.64333295610334,0.707106781187,0.8442127648847749,60719,銀座ライオン GINZA PLACE店,https://tabelog.com/tokyo/A1301/A130101/13002606/,ビアホール・ビアレストラン、ビアバー,バー・お酒,35.67086944,139.7628875,東京都中央区銀座5-8-1GINZAPLACEB1F・B2F
"0,1,0,1,0,0,0,1,0","0.0,2.0,0.0,3.0,0.0,0.0,0.0,0.0,3.0",0.4580275976075714,162.59172071772858,0.707106781187,0.842489928824175,62790,トラットリア後藤 東銀座店,https://tabelog.com/tokyo/A1301/A130101/13204175/,イタリアン,洋食・西洋料理,35.67039917,139.7649983,東京都中央区銀座4丁目10-14ネオパイン銀座地下１階
"0,1,0,1,0,0,0,1,0","0.0,3.0,0.0,3.0,0.0,0.0,0.0,0.0,3.0",0.4397315490830668,168.08053527507997,0.707106781187,0.8326847153989279,58729,ベジバール HONA 銀座,https://tabelog.com/tokyo/A1301/A130101/13109088/,イタリアン、バル・バール、ワインバー,バー・お酒,35.6729125,139.7631147,東京都中央区銀座3-3-9松岡銀座ビル　Ｂ１Ｆ
"0,1,0,1,0,0,0,1,0","0.0,3.0,0.0,3.0,3.0,0.0,0.0,3.0,0.0",0.16093609998110697,251.7191700056679,0.816496580928,0.8322061613228993,62348,豆乳豚しゃぶ 五元豚,https://tabelog.com/tokyo/A1301/A130101/13091451/,しゃぶしゃぶ,焼肉・ホルモン・鍋,35.67401889,139.7641969,東京都中央区銀座2-4-6銀座ベルビア館7Ｆ
"0,1,0,1,0,0,0,1,0","0.0,2.0,0.0,3.0,0.0,3.0,0.0,3.0,0.0",0.15683973565562723,252.94807930331183,0.816496580928,0.8314237002558885,62247,tetote,https://tabelog.com/tokyo/A1301/A130102/13156136/,創作料理、すき焼き、しゃぶしゃぶ,焼肉・ホルモン・鍋,35.67402917,139.7641744,東京都中央区銀座2-4-6銀座ベルビア館8F
"0,1,0,1,0,0,0,1,0","0.0,3.0,0.0,3.0,3.0,0.0,0.0,0.0,3.0",0.6565964346639588,103.02106960081235,0.5,0.825299265729361,62866,ミスター・オールディーズ,https://tabelog.com/tokyo/A1301/A130101/13131906/,バー,バー・お酒,35.67083269,139.7644678,東京都中央区銀座4-8-11善隣ビル3階
"0,1,0,1,0,0,0,1,0","0.0,2.0,0.0,3.0,0.0,3.0,0.0,3.0,0.0",0.09663799737637173,271.0086007870885,0.816496580928,0.8221955784383556,63847,鮨処 順,https://tabelog.com/tokyo/A1301/A130101/13038816/,寿司,高級和食,35.66997361,139.7622561,東京都中央区銀座6-10-1銀座シックス6Fこのお店は「千代田区丸の内2-3-1」から移転しています。※移転前の情報は最新のものとは異なります。移転前の店舗情報を見る
"0,1,0,1,0,0,0,1,0","0.0,3.0,0.0,3.0,3.0,0.0,0.0,3.0,0.0",0.08853491971450865,273.4395240856474,0.816496580928,0.821282593676209,62644,孝峯,https://tabelog.com/tokyo/A1301/A130101/13038033/,バー,バー・お酒,35.67081797,139.7671029,東京都中央区銀座3-12-5アサショウビル　１Ｆ
"0,1,0,1,0,0,0,1,0","0.0,3.0,0.0,3.0,0.0,0.0,0.0,0.0,3.0",0.41341749719947063,175.9747508401588,0.707106781187,0.8190934177434672,63415,ささもと 銀座店,https://tabelog.com/tokyo/A1301/A130101/13002480/,串焼き、もつ焼き,Ｂ級和食,35.67221778,139.76245,東京都中央区銀座4-3-7華菱ビル　１Ｆ
"0,1,0,1,0,0,0,1,0","0.0,3.0,0.0,3.0,0.0,0.0,0.0,0.0,3.0",0.41341749719947063,175.9747508401588,0.707106781187,0.8190934177434672,60075,Bar Lamp,https://tabelog.com/tokyo/A1301/A130101/13014887/,バー,バー・お酒,35.67221778,139.76245,東京都中央区銀座4-3-7銀座猿谷ビル　４・５Ｆ
"0,1,0,1,0,0,0,1,0","0.0,3.0,0.0,3.0,0.0,0.0,0.0,0.0,3.0",0.41158345569204274,176.52496329238718,0.707106781187,0.8181692618275289,60690,銀座ひらい,https://tabelog.com/tokyo/A1301/A130102/13157586/,魚介料理・海鮮料理、郷土料理（その他）、和食（その他）,Ｂ級和食,35.67031091,139.7634818,東京都中央区銀座5-9-5
"0,1,0,1,0,0,0,1,0","0.0,3.0,0.0,3.0,0.0,0.0,0.0,0.0,3.0",0.4106595024078928,176.80214927763217,0.707106781187,0.8177048531823068,61732,黒姫鶏舎,https://tabelog.com/tokyo/A1301/A130101/13193721/,居酒屋、鍋（その他）、焼鳥,焼肉・ホルモン・鍋,35.67030861,139.7634806,東京都中央区銀座5-9-5チアーズ銀座4F
"0,1,0,1,0,0,0,1,0","0.0,3.0,0.0,3.0,3.0,0.0,0.0,0.0,3.0",0.6306036502025905,110.81890493922285,0.5,0.8047738587012075,64850,晴れる家 東京銀座本店,https://tabelog.com/tokyo/A1301/A130101/13140334/,魚介料理・海鮮料理、京料理、日本酒バー,高級和食,35.67090639,139.7649594,東京都中央区銀座4-9-15銀座吉岡屋ビルB1F
"0,1,0,1,0,0,0,1,0","0.0,3.0,0.0,3.0,0.0,0.0,0.0,0.0,3.0",0.38404065379540936,184.7878038613772,0.707106781187,0.8046659081678591,62581,しゃぶせん 銀座２階店,https://tabelog.com/tokyo/A1301/A130101/13020533/,しゃぶしゃぶ、すき焼き,焼肉・ホルモン・鍋,35.67061083,139.7628214,東京都中央区銀座5-8-20銀座コア2F
"0,1,0,1,0,0,0,1,0","0.0,3.0,0.0,3.0,0.0,0.0,0.0,0.0,3.0",0.3837988174478291,184.86035476565127,0.707106781187,0.8045505156758971,58601,銀座魚勝,https://tabelog.com/tokyo/A1301/A130101/13179479/,魚介料理・海鮮料理、割烹・小料理、日本酒バー,高級和食,35.67215833,139.7623278,東京都中央区銀座4-3-7銀座スバルビル2F
"0,1,0,1,0,0,0,1,0","0.0,3.0,0.0,3.0,0.0,0.0,0.0,0.0,3.0",0.383030784551751,185.0907646344747,0.707106781187,0.8041844203379781,62561,いらか 銀座店,https://tabelog.com/tokyo/A1301/A130101/13007809/,懐石・会席料理、和食（その他）,高級和食,35.67060806,139.76282,東京都中央区銀座5-8-20銀座コアB2F
"0,1,0,1,0,0,0,1,0","0.0,3.0,0.0,3.0,3.0,0.0,0.0,0.0,3.0",0.6208935614824356,113.73193155526933,0.5,0.7971880673281199,59080,KOREAN DINING 長寿韓酒房 銀座店,https://tabelog.com/tokyo/A1301/A130101/13048676/,韓国料理、居酒屋、ダイニングバー,バー・お酒,35.67119417,139.7653619,東京都中央区銀座3-9-11紙パルプ会館Ｂ１Ｆ
"0,1,0,1,0,0,0,1,0","0.0,3.0,0.0,3.0,3.0,0.0,0.0,0.0,3.0",0.6146743496253447,115.59769511239656,0.5,0.7923538073912061,58447,オアシス  バー フィール アット イーズィ,https://tabelog.com/tokyo/A1301/A130101/13078935/,バー、ダイニングバー、イタリアン,洋食・西洋料理,35.67274278,139.7639131,東京都中央区銀座3-5-16第2島田ビルB1F
"0,1,0,1,0,0,0,1,0","0.0,3.0,0.0,3.0,3.0,0.0,0.0,0.0,3.0",0.5901721239513598,122.94836281459206,0.5,0.7735005726496,63575,アンフィニ,https://tabelog.com/tokyo/A1301/A130101/13007717/,ダイニングバー、バー、イタリアン,洋食・西洋料理,35.67235278,139.7631669,東京都中央区銀座4-4-2フォースタービル　Ｂ１Ｆ
"0,1,0,1,0,0,0,1,0","0.0,3.0,0.0,3.0,0.0,0.0,0.0,0.0,3.0",0.31272204154320227,206.18338753703932,0.707106781187,0.7731720864509712,60105,ザ テラス アーバン リゾート,https://tabelog.com/tokyo/A1301/A130101/13172996/,無国籍料理、西洋各国料理（その他）、居酒屋・ダイニングバー（その他）,創作料理・無国籍料理,35.67356913,139.7647847,東京都中央区銀座2-6-16ゼニア銀座ビル13F
"0,1,0,1,0,0,0,1,0","0.0,3.0,0.0,3.0,0.0,3.0,0.0,0.0,3.0",0.5834459244506892,124.96622266479324,0.5,0.7683808604839916,60758,びすとろ家 銀座有楽町店,https://tabelog.com/tokyo/A1301/A130101/13056224/,居酒屋、ビストロ、鍋（その他）,洋食・西洋料理,35.67235861,139.763145,東京都中央区銀座4-4-2銀座フォースタービル5F
"0,1,0,1,0,0,0,1,0","0.0,3.0,0.0,3.0,3.0,0.0,0.0,0.0,3.0",0.5832246791434462,125.03259625696616,0.5,0.7682128782843827,60852,葱や田蔵 銀座四丁目店,https://tabelog.com/tokyo/A1301/A130101/13148771/,居酒屋、和食（その他）、しゃぶしゃぶ,Ｂ級和食,35.67235972,139.763145,東京都中央区銀座4-4-2銀座フォースタービル7F
"0,1,0,1,0,0,0,1,0","0.0,3.0,0.0,3.0,0.0,0.0,0.0,0.0,3.0",0.2936565449510393,211.9030365146882,0.707106781187,0.7656593017736947,59753,ビア ヌォーバ ロンド,https://tabelog.com/tokyo/A1301/A130101/13010662/,イタリアン,洋食・西洋料理,35.67300238,139.7660772,東京都中央区銀座2-8-5石川ビル　１Ｆ
"0,1,0,1,0,0,0,1,0","0.0,3.0,0.0,3.0,0.0,0.0,0.0,0.0,3.0",0.286603976957835,214.0188069126495,0.707106781187,0.7629822013704167,63603,焼肉×バル マルウシミート 銀座2丁目店,https://tabelog.com/tokyo/A1301/A130101/13170856/,焼肉、バル・バール、居酒屋,焼肉・ホルモン・鍋,35.67201583,139.7666497,東京都中央区銀座2-11-8第22中央ビル　B1Ｆ
"0,1,0,1,0,0,0,1,0","0.0,3.0,0.0,3.0,0.0,0.0,0.0,0.0,3.0",0.272364162074869,218.2907513775393,0.707106781187,0.7577481354531632,58625,菜香苑 銀座店,https://tabelog.com/tokyo/A1301/A130101/13196246/,中華料理,アジア・エスニック、中華料理,35.67085531,139.7664541,東京都中央区銀座3-11-16B1F
"0,1,0,1,0,0,0,1,0","0.0,3.0,0.0,3.0,0.0,0.0,0.0,0.0,3.0",0.26334864644492084,220.99540606652374,0.707106781187,0.7545545106779045,64933,はし本のおばんざい,https://tabelog.com/tokyo/A1301/A130102/13159651/,京料理、和食（その他）,高級和食,35.67256861,139.7665344,東京都中央区銀座2-10-5銀座オオイビル2F
"0,1,0,1,0,0,0,1,0","0.0,3.0,0.0,3.0,0.0,0.0,0.0,0.0,3.0",0.24449447763756543,226.65165670873037,0.707106781187,0.7481828316630006,58388,ファボリ,https://tabelog.com/tokyo/A1301/A130101/13015842/,ダイニングバー、ビアホール・ビアレストラン、ビアバー,バー・お酒,35.67253333,139.7666211,東京都中央区銀座2-10-5オオイビル　１Ｆ
"0,1,0,1,0,0,0,1,0","0.0,3.0,0.0,3.0,0.0,0.0,0.0,0.0,3.0",0.2249006948768625,232.52979153694125,0.707106781187,0.7420109989454977,61725,テルミニ,https://tabelog.com/tokyo/A1301/A130101/13114703/,イタリアン、居酒屋・ダイニングバー（その他）、ワインバー,バー・お酒,35.67087223,139.7666391,東京都中央区銀座3-11-6鈴木ビル1F
"0,1,0,1,0,0,0,1,0","0.0,3.0,0.0,3.0,0.0,0.0,0.0,0.0,3.0",0.20628147239932995,238.11555828020101,0.707106781187,0.7365813233141575,59810,パラダイス ダイナシティ,https://tabelog.com/tokyo/A1301/A130101/13156930/,中華料理、飲茶・点心、シンガポール料理,アジア・エスニック、中華料理,35.67317111,139.762335,東京都中央区銀座3-2-15ギンザ・グラッセ1F・B1F
"0,1,0,1,0,0,0,1,0","0.0,3.0,0.0,3.0,0.0,0.0,0.0,0.0,3.0",0.2045370165497488,238.63889503507536,0.707106781187,0.7360946889762703,61504,京祭,https://tabelog.com/tokyo/A1301/A130101/13169014/,魚介料理・海鮮料理、かに,高級和食,35.67386778,139.7638342,東京都中央区銀座2-6-9
"0,1,0,1,0,0,0,1,0","0.0,3.0,0.0,3.0,3.0,0.0,0.0,0.0,3.0",0.5349811099375666,139.50566701873,0.5,0.7322600548917241,60370,麹蔵 銀座店,https://tabelog.com/tokyo/A1301/A130101/13020095/,居酒屋、しゃぶしゃぶ、沖縄料理,焼肉・ホルモン・鍋,35.67290722,139.7636997,東京都中央区銀座3-4-6正隆銀座ビルB1F
"0,1,0,1,0,0,0,1,0","0.0,3.0,0.0,3.0,0.0,0.0,0.0,0.0,3.0",0.18989602046275367,243.0311938611739,0.707106781187,0.7321615249298412,59939,銀座アスター 銀座南店,https://tabelog.com/tokyo/A1301/A130101/13027718/,中華料理,アジア・エスニック、中華料理,35.66983556,139.7630081,東京都中央区銀座5-9-11
"0,1,0,1,0,0,0,1,0","0.0,3.0,0.0,3.0,3.0,0.0,0.0,0.0,3.0",0.532347317560954,140.2958047317138,0.5,0.7303380494773247,63353,LOBOS 銀座,https://tabelog.com/tokyo/A1301/A130101/13093476/,スペイン料理、ダイニングバー、イタリアン,洋食・西洋料理,35.67055944,139.7648231,東京都中央区銀座4-9-6三原橋ビル　１Ｆ
"0,1,0,1,0,0,0,1,0","0.0,3.0,0.0,3.0,0.0,0.0,0.0,0.0,3.0",0.1781274883393282,246.56175349820154,0.707106781187,0.7291977798252525,62050,磯一,https://tabelog.com/tokyo/A1301/A130101/13043916/,魚介料理・海鮮料理,高級和食,35.67396194,139.7645939,東京都中央区銀座2-5-17
"0,1,0,1,0,0,0,1,0","0.0,3.0,0.0,3.0,0.0,0.0,0.0,0.0,3.0",0.17495234336753043,247.51429698974087,0.707106781187,0.7284286666858947,61488,ラ・ボッテガイア,https://tabelog.com/tokyo/A1301/A130101/13181377/,イタリアン、ダイニングバー、パスタ,洋食・西洋料理,35.67058694,139.7666394,東京都中央区銀座3-12-15このお店は「中央区京橋3‐7‐11」から移転しています。※移転前の情報は最新のものとは異なります。移転前の店舗情報を見る
"0,1,0,1,0,0,0,1,0","0.0,3.0,0.0,3.0,0.0,0.0,0.0,0.0,3.0",0.17475999765712744,247.57200070286177,0.707106781187,0.7283824934614499,62706,境港直送かに処 ごっつお 銀座本店,https://tabelog.com/tokyo/A1301/A130101/13202452/,かに、居酒屋、魚介料理・海鮮料理,高級和食,35.67066972,139.7619167,東京都中央区銀座5-7-10EXITMELSA8F
"0,1,0,1,0,0,0,1,0","0.0,3.0,0.0,3.0,0.0,0.0,0.0,0.0,3.0",0.1711611443325294,248.65165670024118,0.707106781187,0.72752741345548,61128,ファゼンダ,https://tabelog.com/tokyo/A1301/A130101/13038150/,バー,バー・お酒,35.66980278,139.7629528,東京都中央区銀座5-9-11縁ビル　５Ｆ
"0,1,0,1,0,0,0,1,0","0.0,3.0,0.0,3.0,0.0,0.0,0.0,0.0,3.0",0.16728602821379127,249.81419153586262,0.707106781187,0.7266254986136568,61160,三平酒寮 舟甚,https://tabelog.com/tokyo/A1301/A130101/13015010/,居酒屋,居酒屋,35.67140389,139.7615819,東京都中央区銀座5-5-6三平ビル　３Ｆ
"0,1,0,1,0,0,0,1,0","0.0,3.0,0.0,3.0,0.0,0.0,0.0,0.0,3.0",0.16522256350263925,250.43323094920822,0.707106781187,0.7261532176410042,63688,ギンザ オリーバル,https://tabelog.com/tokyo/A1301/A130101/13206104/,ダイニングバー、洋食・欧風料理（その他）、ワインバー,バー・お酒,35.670675,139.7667389,東京都中央区銀座3-12-16SUNRICHTOWER1F-2F
"0,1,0,1,0,0,0,1,0","0.0,3.0,0.0,3.0,0.0,0.0,0.0,0.0,3.0",0.15623943213058009,253.12817036082598,0.707106781187,0.7241621090284177,58533,ラ ココリコ 銀座,https://tabelog.com/tokyo/A1301/A130101/13131530/,ビストロ、イタリアン、居酒屋,洋食・西洋料理,35.67403083,139.7641753,東京都中央区銀座2-4-6銀座ベルビア館8F
"0,1,0,1,0,0,0,1,0","0.0,3.0,0.0,3.0,0.0,3.0,0.0,0.0,3.0",0.5232589248276934,143.02232255169196,0.5,0.7237402174895587,64761,北京ダック専門店 ペキンカォヤテン 銀座店,https://tabelog.com/tokyo/A1301/A130101/13200207/,中華料理、飲茶・点心、広東料理,アジア・エスニック、中華料理,35.67248861,139.7656044,東京都中央区銀座2-8-12ユニデン銀座ビル5F6F
"0,1,0,1,0,0,0,1,0","0.0,3.0,0.0,3.0,0.0,0.0,0.0,0.0,3.0",0.14779996764583841,255.66000970624847,0.707106781187,0.7223882823219869,63838,トラットリア リアナ 銀座みゆき通り店,https://tabelog.com/tokyo/A1301/A130101/13053722/,ピザ、イタリアン、ダイニングバー,洋食・西洋料理,35.66964861,139.763155,東京都中央区銀座5-10-6第一御幸ビルB1F
"0,1,0,1,0,0,0,1,0","0.0,3.0,0.0,3.0,3.0,0.0,0.0,0.0,3.0",0.5201143531553698,143.96569405338906,0.5,0.7214699857639462,58880,がんこ 銀座４丁目店,https://tabelog.com/tokyo/A1301/A130101/13013327/,居酒屋、魚介料理・海鮮料理、鍋（その他）,高級和食,35.67227917,139.762855,東京都中央区銀座4-4-1銀座八光ビル　B1・B2Ｆ
"0,1,0,1,0,0,0,1,0","0.0,3.0,0.0,3.0,0.0,0.0,0.0,0.0,3.0",0.11333454717673211,265.99963584698037,0.707106781187,0.7161317752926166,64445,桃杏樓 銀座クリスタルビル店,https://tabelog.com/tokyo/A1301/A130101/13180236/,中華料理,アジア・エスニック、中華料理,35.67257417,139.7615481,東京都中央区銀座4-2-12銀座クリスタルビル7F
"0,1,0,1,0,0,0,1,0","0.0,3.0,0.0,3.0,0.0,0.0,0.0,0.0,3.0",0.10962728498977223,267.11181450306833,0.707106781187,0.7155544295259646,60256,クリッパー,https://tabelog.com/tokyo/A1301/A130101/13075585/,バー,バー・お酒,35.671455,139.7672358,東京都中央区銀座2-12-10藤ビル　B1F
"0,1,0,1,0,0,0,1,0","0.0,3.0,0.0,3.0,0.0,0.0,0.0,0.0,3.0",0.09483710930807926,271.5488672075762,0.707106781187,0.7134382084679181,62335,バルデエスパーニャ ビルゴ,https://tabelog.com/tokyo/A1301/A130101/13128769/,スペイン料理、イタリアン、居酒屋,洋食・西洋料理,35.67098861,139.7614583,東京都中央区銀座5-6-13西五番街ビル　Ｂ１Ｆ
"0,1,0,1,0,0,0,1,0","0.0,3.0,0.0,3.0,0.0,0.0,0.0,0.0,3.0",0.07539664078737379,277.38100776378786,0.707106781187,0.7111150774959143,64833,パリのワイン食堂,https://tabelog.com/tokyo/A1301/A130101/13120134/,西洋各国料理（その他）、フレンチ,洋食・西洋料理,35.67016861,139.7666789,東京都中央区銀座3-13-11銀座芦澤ビル１Ｆ
"0,1,0,1,0,0,0,1,0","0.0,3.0,0.0,3.0,3.0,0.0,0.0,0.0,3.0",0.5038778229093249,148.83665312720254,0.5,0.7098541120679945,64888,鳴尾,https://tabelog.com/tokyo/A1301/A130101/13002390/,ホルモン、焼肉、冷麺,アジア・エスニック、中華料理,35.67168181,139.7659497,東京都中央区銀座3-9-4第一文成ﾋﾞﾙ　1F
"0,1,0,1,0,0,0,1,0","0.0,3.0,0.0,3.0,0.0,0.0,0.0,0.0,3.0",0.049266677357431565,285.21999679277053,0.707106781187,0.7088209967952707,62966,ロマンツァ 銀座店,https://tabelog.com/tokyo/A1301/A130101/13132758/,イタリアン、パスタ、ピザ,洋食・西洋料理,35.67041486,139.7616174,東京都中央区銀座6‐9‐2クロサワビルB1F
"0,1,0,1,0,0,0,1,0","0.0,3.0,0.0,3.0,0.0,0.0,0.0,0.0,3.0",0.04056716480618149,287.82985055814555,0.707106781187,0.7082695072219415,58687,タナゴコロ ザバー,https://tabelog.com/tokyo/A1301/A130101/13122362/,バー,バー・お酒,35.67393833,139.7660192,東京都中央区銀座1-8-15B1F
"0,1,0,1,0,0,0,1,0","0.0,3.0,0.0,3.0,0.0,0.0,0.0,0.0,3.0",0.03237166380067511,290.28850085979747,0.707106781187,0.7078473879426439,64310,クラシックバー オリベ,https://tabelog.com/tokyo/A1301/A130101/13031126/,バー,バー・お酒,35.66921611,139.7650969,東京都中央区銀座5-13-2長岡ビル　７Ｆ
"0,1,0,1,0,0,0,1,0","0.0,3.0,0.0,3.0,0.0,0.0,0.0,0.0,3.0",0.02610935680667808,292.1671929579966,0.707106781187,0.7075886506388145,62078,ヴェトナム・アリス 銀座店,https://tabelog.com/tokyo/A1301/A130101/13004096/,ベトナム料理,アジア・エスニック、中華料理,35.67422667,139.763205,東京都中央区銀座2-2-14マロニエゲート11Ｆ
"0,1,0,1,0,0,0,1,0","0.0,3.0,0.0,3.0,0.0,0.0,0.0,0.0,3.0",0.02405674439010511,292.78297668296847,0.707106781187,0.7075158845924597,60139,遊食豚彩 いちにいさん 銀座店,https://tabelog.com/tokyo/A1301/A130101/13002253/,豚しゃぶ、豚料理、とんかつ,焼肉・ホルモン・鍋,35.67381583,139.7622928,東京都中央区銀座西3-1銀座インズ1B1F
"0,1,0,1,0,0,0,1,0","0.0,3.0,0.0,3.0,0.0,0.0,0.0,0.0,3.0",0.010135251765892311,296.9594244702323,0.707106781187,0.7071794138182742,63640,シンガポール・シーフード・リパブリック 銀座,https://tabelog.com/tokyo/A1301/A130101/13058590/,シンガポール料理、バイキング、アジア・エスニック料理（その他）,創作料理・無国籍料理,35.67427889,139.7632269,東京都中央区銀座2-2-14マロニエゲート銀座111F
"0,1,0,1,0,0,0,1,0","0.0,3.0,0.0,3.0,0.0,0.0,0.0,0.0,3.0",0.007794758624206679,297.661572412738,0.707106781187,0.7071497424605411,64398,東京銀座食堂,https://tabelog.com/tokyo/A1301/A130101/13190799/,定食・食堂,Ｂ級和食,35.67390528,139.7623469,東京都中央区銀座西3-1銀座インズ1B1F
"0,1,0,1,0,0,0,1,0","0.0,3.0,0.0,3.0,0.0,0.0,0.0,0.0,3.0",0.0013148211758766592,299.605553647237,0.707106781187,0.7071080035996795,64490,遊食倶楽部,https://tabelog.com/tokyo/A1301/A130101/13049917/,居酒屋、和食（その他）、洋食・欧風料理（その他）,Ｂ級和食,35.67046639,139.7672181,東京都中央区銀座3-13-6Ｂ１Ｆ
"0,1,0,1,0,0,0,1,0","0.0,3.0,0.0,3.0,3.0,0.0,0.0,0.0,3.0",0.4990591276696719,150.28226169909843,0.5,0.7064417972560896,64457,ちゃんぷるぅ家,https://tabelog.com/tokyo/A1301/A130101/13009489/,沖縄料理、居酒屋、創作料理,創作料理・無国籍料理,35.67294583,139.7635239,東京都中央区銀座3-4-16銀座サニービル　Ｂ１Ｆ
"0,1,0,1,0,0,0,1,0","0.0,3.0,0.0,3.0,3.0,0.0,0.0,0.0,3.0",0.4975094516497497,150.7471645050751,0.5,0.7053478960632368,62643,bar chair,https://tabelog.com/tokyo/A1301/A130101/13051664/,バー,バー・お酒,35.67077361,139.7654633,東京都中央区銀座4-10-6銀座AZA8F
"0,1,0,1,0,0,0,1,0","0.0,3.0,0.0,3.0,3.0,0.0,0.0,0.0,3.0",0.4742809750331917,157.7157074900425,0.5,0.6891606803049889,60857,ZION,https://tabelog.com/tokyo/A1301/A130101/13124292/,イタリアン、スペイン料理、ダイニングバー,洋食・西洋料理,35.67052639,139.7634256,東京都中央区銀座5-9-1銀座コティビルB1
"0,1,0,1,0,0,0,1,0","0.0,3.0,0.0,3.0,3.0,0.0,0.0,0.0,3.0",0.46800235166839466,159.5992944994816,0.5,0.6848548759899047,64263,バー アトリウムギンザ,https://tabelog.com/tokyo/A1301/A130101/13028680/,バー,バー・お酒,35.67317333,139.7640369,東京都中央区銀座3-4-4大倉ビル別館
"0,1,0,1,0,0,0,1,0","0.0,3.0,0.0,3.0,3.0,0.0,0.0,0.0,3.0",0.45721866557000546,162.83440032899836,0.5,0.6775314812948668,63292,裏NO庭 銀座店,https://tabelog.com/tokyo/A1301/A130101/13100429/,居酒屋、ダイニングバー、しゃぶしゃぶ,焼肉・ホルモン・鍋,35.67311901,139.7636536,東京都中央区銀座3-4-17銀座オプティカビル5F
"0,1,0,1,0,0,0,1,0","0.0,3.0,0.0,3.0,3.0,0.0,0.0,0.0,3.0",0.45618699107398736,163.1439026778038,0.5,0.6768357044550312,58899,アフーネ,https://tabelog.com/tokyo/A1301/A130101/13035617/,タイ料理、インドネシア料理、ベトナム料理,アジア・エスニック、中華料理,35.67062872,139.7654708,東京都中央区銀座4-10-3セントラルビル　Ｂ１Ｆ
"0,1,0,1,0,0,0,1,0","0.0,3.0,0.0,3.0,3.0,0.0,0.0,0.0,3.0",0.45297878951833476,164.10636314449957,0.5,0.6746775405728991,58622,日比谷 Bａｒ WHISKY-S,https://tabelog.com/tokyo/A1301/A130101/13004019/,バー、居酒屋、ダイニングバー,バー・お酒,35.67289306,139.7631547,東京都中央区銀座3-3-9金子ビル　Ｂ１Ｆ
"0,1,0,1,0,0,0,1,0","0.0,3.0,0.0,3.0,3.0,0.0,0.0,0.0,3.0",0.4527279798106417,164.18160605680748,0.5,0.6745091724383182,58582,KEYAKI 欅,https://tabelog.com/tokyo/A1301/A130101/13019938/,ダイニングバー、バル・バール、居酒屋,バー・お酒,35.6727275,139.7629444,東京都中央区銀座3-3-11稲垣ビル　Ｂ１Ｆ
"0,1,0,1,0,0,0,1,0","0.0,3.0,0.0,3.0,3.0,3.0,0.0,0.0,3.0",0.5358499751159437,139.2450074652169,0.408248290464,0.6736481741223856,62227,GOSS,https://tabelog.com/tokyo/A1301/A130101/13042218/,バル・バール、ワインバー、フレンチ,洋食・西洋料理,35.67290417,139.7636983,東京都中央区銀座3-4-6正隆銀座ビル　１Ｆ　
"0,1,0,1,0,0,0,1,0","0.0,3.0,0.0,3.0,3.0,0.0,0.0,0.0,3.0",0.44886167091465806,165.34149872560258,0.5,0.671920233075548,58872,ぎんざ磯むら 本店,https://tabelog.com/tokyo/A1301/A130101/13013283/,和食（その他）、串揚げ・串かつ、居酒屋,Ｂ級和食,35.67062654,139.765505,東京都中央区銀座4-10-3セントラルビル　Ｂ１Ｆ
"0,1,0,1,0,0,0,1,0","0.0,3.0,0.0,3.0,0.0,3.0,0.0,0.0,3.0",0.4334431443177984,169.96705670466048,0.5,0.6617196984797262,59978,鳥ばか一代,https://tabelog.com/tokyo/A1301/A130101/13108941/,焼鳥、鳥料理、居酒屋,Ｂ級和食,35.6729875,139.7631981,東京都中央区銀座3-3-81F～3F
"0,1,0,1,0,0,0,1,0","0.0,3.0,0.0,3.0,3.0,0.0,0.0,0.0,3.0",0.4170622093984884,174.88133718045347,0.5,0.6511074308502005,59176,東京園,https://tabelog.com/tokyo/A1301/A130101/13002566/,焼肉,焼肉・ホルモン・鍋,35.67034278,139.7634428,東京都中央区銀座5-9-5
"0,1,0,1,0,0,0,1,0","0.0,3.0,0.0,3.0,3.0,0.0,0.0,0.0,3.0",0.41158345569204274,176.52496329238718,0.5,0.6476117208632065,63571,アイアン フェアリーズ ギンザ,https://tabelog.com/tokyo/A1301/A130101/13192334/,バー,バー・お酒,35.67031091,139.7634818,東京都中央区銀座5-9-5チアーズ銀座B1F
"0,1,0,1,0,0,0,1,0","0.0,3.0,0.0,3.0,0.0,3.0,0.0,0.0,3.0",0.41135961462844817,176.59211561146554,0.5,0.6474694838733833,64810,のぼせもん,https://tabelog.com/tokyo/A1301/A130101/13117806/,居酒屋、焼鳥、もつ鍋,居酒屋,35.67031028,139.7634817,東京都中央区銀座5-9-5チアーズ銀座7F
"0,1,0,1,0,0,0,1,0","0.0,3.0,0.0,3.0,3.0,0.0,0.0,0.0,3.0",0.41135961462844817,176.59211561146554,0.5,0.6474694838733833,64441,和心庭　一蔵銀座,https://tabelog.com/tokyo/A1301/A130101/13092010/,居酒屋、懐石・会席料理、おでん,高級和食,35.67031028,139.7634817,東京都中央区銀座5-9-5チアーズビル3F
"0,1,0,1,0,0,0,1,0","0.0,3.0,0.0,3.0,3.0,0.0,0.0,0.0,3.0",0.41068507310647767,176.7944780680567,0.5,0.6470411341425465,58491,松尾ジンギスカン 銀座店,https://tabelog.com/tokyo/A1301/A130101/13117903/,ジンギスカン、焼肉、鍋（その他）,焼肉・ホルモン・鍋,35.67030861,139.7634808,東京都中央区銀座5-9-5チアーズ銀座ビル2F
"0,1,0,1,0,0,0,1,0","0.0,3.0,0.0,3.0,3.0,3.0,0.0,0.0,3.0",0.4947149743983379,151.58550768049864,0.408248290464,0.6414121705741284,63131,BAR　Recette,https://tabelog.com/tokyo/A1301/A130101/13176654/,バー,バー・お酒,35.67077083,139.7654731,東京都中央区銀座4-10-1HOLON-GINZA　11F
"0,1,0,1,0,0,0,1,0","0.0,3.0,0.0,3.0,0.0,3.0,0.0,0.0,3.0",0.3945300824761811,181.64097525714567,0.5,0.6369097157201029,59915,小肥羊 銀座店,https://tabelog.com/tokyo/A1301/A130101/13145479/,中国鍋・火鍋、しゃぶしゃぶ、中華料理,焼肉・ホルモン・鍋,35.67336045,139.7646817,東京都中央区銀座2-6-9ginza269ビル5F
"0,1,0,1,0,0,0,1,0","0.0,3.0,0.0,3.0,3.0,0.0,0.0,0.0,3.0",0.38730894065599375,183.80731780320187,0.5,0.6324620269328967,63928,N9Y BUTCHER'S GRILL NEWYORK 銀座店,https://tabelog.com/tokyo/A1301/A130101/13138373/,ビアホール・ビアレストラン、ステーキ、バル・バール,洋食・西洋料理,35.67335861,139.7648031,東京都中央区銀座2-6-8B1F
"0,1,0,1,0,0,0,1,0","0.0,3.0,0.0,3.0,3.0,0.0,0.0,0.0,3.0",0.38675986365726267,183.9720409028212,0.5,0.6321259305994213,61793,肉バルGABURICO 銀座並木通り店,https://tabelog.com/tokyo/A1301/A130101/13200598/,バル・バール、居酒屋、焼肉,焼肉・ホルモン・鍋,35.673015,139.7629914,東京都中央区銀座3-3-14グランディア2ビル4F
"0,1,0,1,0,0,0,1,0","0.0,2.0,0.0,3.0,0.0,3.0,0.0,0.0,3.0",0.3640712112471018,190.77863662586947,0.5,0.6185045245258372,59431,ジョルジュ・アン・サンク,https://tabelog.com/tokyo/A1301/A130101/13201355/,フレンチ、ワインバー、ステーキ,洋食・西洋料理,35.67302361,139.7657264,東京都中央区銀座2-8-17ハビウル銀座Ⅱ3F
"0,1,0,1,0,0,0,1,0","0.0,3.0,0.0,3.0,3.0,3.0,0.0,0.0,3.0",0.4564686789008591,163.05939632974227,0.408248290464,0.6123971925835081,62975,ブション・ドール,https://tabelog.com/tokyo/A1301/A130101/13095796/,ビストロ、フレンチ,洋食・西洋料理,35.67038139,139.7636581,東京都中央区銀座5-9-5田創館ビル　B1F
"0,1,0,1,0,0,0,1,0","0.0,3.0,0.0,3.0,0.0,3.0,0.0,0.0,3.0",0.34535246221483507,196.3942613355495,0.5,0.607674520741037,60624,ベルニーニ 東京,https://tabelog.com/tokyo/A1301/A130101/13097882/,ピザ、イタリアン、ワインバー,バー・お酒,35.67203722,139.7664489,東京都中央区銀座2-11-13銀座歌茶屋ビル1F
"0,1,0,1,0,0,0,1,0","0.0,3.0,0.0,3.0,3.0,0.0,0.0,0.0,3.0",0.3416800260851757,197.49599217444728,0.5,0.6055949473249974,62112,歌茶屋,https://tabelog.com/tokyo/A1301/A130101/13031141/,お好み焼き、もんじゃ焼き,Ｂ級和食,35.67206694,139.766455,東京都中央区銀座2-11-13歌茶屋ビル　Ｂ１Ｆ
"0,1,0,1,0,0,0,1,0","0.0,3.0,0.0,3.0,0.0,3.0,0.0,0.0,3.0",0.3414001808791371,197.57994573625888,0.5,0.6054371011957456,62125,L'Echanson,https://tabelog.com/tokyo/A1301/A130101/13017090/,フレンチ、バー,洋食・西洋料理,35.67267111,139.7661772,東京都中央区銀座2-9-4メルキュールホテル銀座東京2F
"0,1,0,1,0,0,0,1,0","0.0,3.0,0.0,3.0,3.0,0.0,0.0,0.0,3.0",0.3366723837843745,198.99828486468766,0.5,0.6027837871103147,61290,肉と日本酒 jogo～上戸～ 銀座店,https://tabelog.com/tokyo/A1301/A130101/13183589/,居酒屋、日本酒バー、バル・バール,バー・お酒,35.67351306,139.7647244,東京都中央区銀座2-6-15第一吉田ビル　B1Ｆ
"0,1,0,1,0,0,0,1,0","0.0,3.0,0.0,3.0,3.0,0.0,0.0,0.0,3.0",0.33228115813617537,200.3156525591474,0.5,0.6003422091210295,61427,SQUARE MEALS みなもと,https://tabelog.com/tokyo/A1301/A130101/13032413/,ダイニングバー、イタリアン、地中海料理,洋食・西洋料理,35.67030778,139.7629803,東京都中央区銀座5-9-17銀座あづまビル　Ｂ１Ｆ
"0,1,0,1,0,0,0,1,0","0.0,3.0,0.0,3.0,3.0,0.0,0.0,0.0,3.0",0.32422053199187806,202.73384040243658,0.5,0.5959185794763379,60091,寿シーフード,https://tabelog.com/tokyo/A1301/A130102/13156140/,居酒屋、ワインバー、魚介料理・海鮮料理,バー・お酒,35.67025531,139.7630235,東京都中央区銀座5-9-17あずまビル2F
"0,1,0,1,0,0,0,1,0","0.0,2.0,0.0,3.0,3.0,3.0,0.0,0.0,3.0",0.4337844450640633,169.864666480781,0.408248290464,0.5956807966068773,64146,髭戎,https://tabelog.com/tokyo/A1301/A130102/13161864/,創作料理、焼肉,創作料理・無国籍料理,35.67259977,139.7627457,東京都中央区銀座4-3-2銀座槁ビル5F
"0,1,0,1,0,0,0,1,0","0.0,3.0,0.0,3.0,3.0,0.0,0.0,0.0,3.0",0.2978177250876565,210.65468247370305,0.5,0.5819754267805359,59536,炭焼人HACHI,https://tabelog.com/tokyo/A1301/A130101/13167677/,日本酒バー、居酒屋、もつ鍋,バー・お酒,35.67300917,139.7625644,東京都中央区銀座3-2-13銀座江戸常ビルB1F
"0,1,0,1,0,0,0,1,0","0.0,3.0,0.0,3.0,3.0,0.0,0.0,0.0,3.0",0.29183726173107527,212.44882148067742,0.5,0.5789378095570302,63245,エル・チャテオ 銀座店,https://tabelog.com/tokyo/A1301/A130102/13002268/,スペイン料理、バル・バール、ワインバー,バー・お酒,35.67308278,139.7626208,東京都中央区銀座3-2-12全研ビル　１Ｆ・２Ｆ
"0,1,0,1,0,0,0,1,0","0.0,3.0,0.0,3.0,3.0,0.0,0.0,0.0,3.0",0.28709096856093075,213.87270943172078,0.5,0.576559818431057,63852,B.E.HOUSE HIBIYA Bar,https://tabelog.com/tokyo/A1301/A130101/13167852/,ダイニングバー、イタリアン、バル・バール,洋食・西洋料理,35.67126639,139.7620219,東京都中央区銀座5-6-5NOCO7F
"0,1,0,1,0,0,0,1,0","0.0,3.0,0.0,3.0,3.0,0.0,0.0,0.0,3.0",0.2837675919278136,214.86972242165592,0.5,0.5749122074095402,61939,A4-5 BEEF BAR,https://tabelog.com/tokyo/A1301/A130101/13175168/,焼肉、イタリアン、ワインバー,バー・お酒,35.6731425,139.7626561,東京都中央区銀座3-2-11
"0,1,0,1,0,0,0,1,0","0.0,3.0,0.0,3.0,3.0,0.0,0.0,0.0,3.0",0.28250611509625884,215.24816547112235,0.5,0.5742906102895821,62306,創作割烹 東,https://tabelog.com/tokyo/A1301/A130101/13208692/,居酒屋、ダイニングバー、割烹・小料理,高級和食,35.67218472,139.7666256,東京都中央区銀座2-11-15SF銀座ビルB1F
"0,1,0,1,0,0,0,1,0","0.0,3.0,0.0,3.0,3.0,0.0,0.0,0.0,3.0",0.28226736641895445,215.31979007431366,0.5,0.5741732022178432,59904,地鶏専門個室居酒屋 鳥銀 銀座店,https://tabelog.com/tokyo/A1301/A130101/13207608/,居酒屋、ダイニングバー、鳥料理,居酒屋,35.67218583,139.7666261,東京都中央区銀座2-11-15SF銀座ビルB1F
"0,1,0,1,0,0,0,1,0","0.0,3.0,0.0,3.0,0.0,3.0,0.0,0.0,3.0",0.2803937870609141,215.88186388172576,0.5,0.5732544599236549,58699,びいどろ 銀座店,https://tabelog.com/tokyo/A1301/A130101/13015023/,スペイン料理、ビストロ、西洋各国料理（その他）,洋食・西洋料理,35.67044222,139.7625447,東京都中央区銀座5-8プラザ５８ビル　Ｂ１Ｆ
"0,1,0,1,0,0,0,1,0","0.0,3.0,0.0,3.0,3.0,3.0,0.0,0.0,3.0",0.39897933114023715,180.30620065792885,0.408248290464,0.5708337528070477,62416,銀座ロビー,https://tabelog.com/tokyo/A1301/A130101/13002279/,ダイニングバー、京料理、居酒屋,高級和食,35.67307389,139.7654664,東京都中央区銀座2-7-7
"0,1,0,1,0,0,0,1,0","0.0,3.0,0.0,3.0,0.0,3.0,0.0,0.0,3.0",0.2722921866478524,218.3123440056443,0.5,0.5693356083273458,63017,カリーナ・イルキャンティ,https://tabelog.com/tokyo/A1301/A130101/13053892/,イタリアン、パスタ、ピザ,洋食・西洋料理,35.67085361,139.7664533,東京都中央区銀座3-11-16Ｇ－３銀座ビル　１Ｆ
"0,1,0,1,0,0,0,1,0","0.0,3.0,0.0,3.0,3.0,3.0,0.0,0.0,3.0",0.3948122051950704,181.55633844147889,0.408248290464,0.5679289955951017,63630,踊る魚 銀座店,https://tabelog.com/tokyo/A1301/A130101/13167406/,居酒屋、和食（その他）、ダイニングバー,Ｂ級和食,35.67335972,139.7646814,東京都中央区銀座2-6-96F
"0,1,0,1,0,0,0,1,0","0.0,3.0,0.0,3.0,3.0,3.0,0.0,0.0,3.0",0.3868959846225077,183.9312046132477,0.408248290464,0.5624545933528202,61611,碧 銀座プランタン並木通り店,https://tabelog.com/tokyo/A1301/A130101/13164906/,居酒屋、イタリアン、ダイニングバー,洋食・西洋料理,35.67301528,139.7629925,東京都中央区銀座3-3-14銀座グランディアII5F
"0,1,0,1,0,0,0,1,0","0.0,3.0,0.0,3.0,3.0,0.0,0.0,0.0,3.0",0.2517632030034798,224.47103909895606,0.5,0.5598077441287959,64258,原始炭焼 いろり家,https://tabelog.com/tokyo/A1301/A130101/13032924/,居酒屋、ろばた焼き、創作料理,Ｂ級和食,35.67048833,139.7662442,東京都中央区銀座3-11-11銀座参番館２　Ｂ１Ｆ
"0,1,0,1,0,0,0,1,0","0.0,3.0,0.0,3.0,3.0,3.0,0.0,0.0,3.0",0.3825613579945234,185.23159260164297,0.408248290464,0.5594817774488107,59137,美の邸 銀座プランタン並木通り店,https://tabelog.com/tokyo/A1301/A130101/13132466/,しゃぶしゃぶ、居酒屋、ダイニングバー,焼肉・ホルモン・鍋,35.67302684,139.762987,東京都中央区銀座3-3-14銀座グランディアII2F
"0,1,0,1,0,0,0,1,0","0.0,3.0,0.0,3.0,3.0,3.0,0.0,0.0,3.0",0.37714806567157894,186.85558029852632,0.408248290464,0.5557943235644641,61503,宙 銀座プランタン並木通り店,https://tabelog.com/tokyo/A1301/A130101/13051714/,イタリアン、ダイニングバー、居酒屋,洋食・西洋料理,35.6730312,139.7629656,東京都中央区銀座3-3-14銀座グランディアII5F
"0,1,0,1,0,0,0,1,0","0.0,3.0,0.0,3.0,3.0,0.0,0.0,0.0,3.0",0.23917850280478614,228.24644915856416,0.5,0.5542619923862172,60354,オステリア ミオ・バール,https://tabelog.com/tokyo/A1301/A130101/13155965/,イタリアン、ワインバー、パスタ,バー・お酒,35.67066861,139.7664511,東京都中央区銀座3-11-8第6丸嘉ビル2F
"0,1,0,1,0,0,0,1,0","0.0,3.0,0.0,3.0,3.0,0.0,0.0,0.0,3.0",0.22472478280893968,232.5825651573181,0.5,0.5481799230257572,60784,Cucina del NABUCCO,https://tabelog.com/tokyo/A1301/A130101/13195126/,イタリアン、パスタ、ワインバー,バー・お酒,35.67380917,139.7638144,東京都中央区銀座2-4-12ミキモトギンザ27F
"0,1,0,1,0,0,0,1,0","0.0,3.0,0.0,3.0,3.0,3.0,0.0,0.0,3.0",0.36561199281490997,190.31640215552702,0.408248290464,0.5480317472161229,59698,銀座ガーデンファーム 並木通り店,https://tabelog.com/tokyo/A1301/A130101/13136965/,居酒屋、ダイニングバー、イタリアン,洋食・西洋料理,35.67304833,139.7629314,東京都中央区銀座3-3-14銀座グランディアII4F
"0,1,0,1,0,0,0,1,0","0.0,3.0,0.0,3.0,0.0,3.0,0.0,0.0,3.0",0.2130730673804476,236.07807978586573,0.5,0.5435072511410614,63681,ブラーチェ・エ・ヴィーノ・ジジーノ,https://tabelog.com/tokyo/A1301/A130101/13151196/,バル・バール、居酒屋、ステーキ,洋食・西洋料理,35.67085639,139.7666733,東京都中央区銀座3-11-6鈴木ビル2F
"0,1,0,1,0,0,0,1,0","0.0,3.0,0.0,3.0,0.0,3.0,0.0,0.0,3.0",0.21190083793985887,236.42974861804234,0.5,0.5430487686383372,64460,バンコクキッチン 有楽町店,https://tabelog.com/tokyo/A1301/A130101/13050446/,タイ料理、バイキング、タイカレー,創作料理・無国籍料理,35.67321709,139.7624117,東京都中央区銀座3-2-15ギンザ・グラッセ8階
"0,1,0,1,0,0,0,1,0","0.0,3.0,0.0,3.0,3.0,0.0,0.0,0.0,3.0",0.20024946261731902,239.9251612148043,0.5,0.5386091786059026,62232,なだ作,https://tabelog.com/tokyo/A1301/A130101/13074765/,居酒屋、焼酎バー,バー・お酒,35.67346389,139.7626889,東京都中央区銀座3-2-17
"0,1,0,1,0,0,0,1,0","0.0,3.0,0.0,3.0,3.0,0.0,0.0,0.0,3.0",0.19502458833131858,241.49262350060442,0.5,0.5366885410121967,59303,バー ギンザ グレイス,https://tabelog.com/tokyo/A1301/A130101/13172172/,バー,バー・お酒,35.66977694,139.7631872,東京都中央区銀座5-10-10銀座マルシマビルB1F
"0,1,0,1,0,0,0,1,0","0.0,3.0,0.0,3.0,0.0,3.0,0.0,0.0,3.0",0.1851349013218434,244.45952960344698,0.5,0.5331743914400322,62033,羅豚 ギンザ・グラッセ,https://tabelog.com/tokyo/A1301/A130101/13167484/,しゃぶしゃぶ、豚しゃぶ、和食（その他）,Ｂ級和食,35.67327602,139.762358,東京都中央区銀座3-2-15ギンザ・グラッセ10F
"0,1,0,1,0,0,0,1,0","0.0,3.0,0.0,3.0,3.0,0.0,0.0,0.0,3.0",0.18320872855955894,245.03738143213232,0.5,0.5325086273671161,64363,銀座もんべつ,https://tabelog.com/tokyo/A1301/A130102/13155418/,居酒屋、魚介料理・海鮮料理、かに,高級和食,35.66998583,139.7626831,東京都中央区銀座5-9-13銀座菊正ビルB1F
"0,1,0,1,0,0,0,1,0","0.0,3.0,0.0,3.0,3.0,0.0,0.0,0.0,3.0",0.18119558614228234,245.6413241573153,0.5,0.5318193682421177,63625,パーティプラネット 銀座PPサロン ー貸切ダイニングー,https://tabelog.com/tokyo/A1301/A130101/13096679/,イタリアン、ダイニングバー、洋食,洋食・西洋料理,35.66996694,139.7627031,東京都中央区銀座5-9-13菊正ビル9F
"0,1,0,1,0,0,0,1,0","0.0,3.0,0.0,3.0,3.0,0.0,0.0,0.0,3.0",0.18106151689791772,245.68154493062468,0.5,0.5317737045975243,61898,KONYA,https://tabelog.com/tokyo/A1301/A130101/13091818/,トルコ料理、ダイニングバー、居酒屋,アジア・エスニック、中華料理,35.66996667,139.7627028,東京都中央区銀座5-9-13銀座菊正ビルB2F
"0,1,0,1,0,0,0,1,0","0.0,3.0,0.0,3.0,3.0,0.0,0.0,0.0,3.0",0.17815433444733494,246.5536996657995,0.5,0.5307908880928278,58933,しゃくしゃく,https://tabelog.com/tokyo/A1301/A130101/13006511/,居酒屋、魚介料理・海鮮料理、おでん,高級和食,35.66985472,139.7628903,東京都中央区銀座5-9-11銀座ファゼンダビル　４Ｆ
"0,1,0,1,0,0,0,1,0","0.0,3.0,0.0,3.0,3.0,3.0,0.0,0.0,3.0",0.33692812041953296,198.9215638741401,0.408248290464,0.5293271436419126,65034,銀波  銀座店,https://tabelog.com/tokyo/A1301/A130101/13110478/,居酒屋、和食（その他）、懐石・会席料理,高級和食,35.67137718,139.7621594,東京都中央区銀座5-6-2銀座七宝ビルB1
"0,1,0,1,0,0,0,1,0","0.0,3.0,0.0,3.0,3.0,0.0,0.0,0.0,3.0",0.17014397474531895,248.95680757640432,0.5,0.5281562005147111,61705,和民 銀座５丁目店,https://tabelog.com/tokyo/A1301/A130101/13045558/,居酒屋、魚介料理・海鮮料理、ダイニングバー,高級和食,35.6698125,139.7629253,東京都中央区銀座5-9-11緑ビル2F
"0,1,0,1,0,0,0,1,0","0.0,3.0,0.0,3.0,3.0,0.0,0.0,0.0,3.0",0.16539819106700768,250.3805426798977,0.5,0.5266465243483891,61565,The BAGUS PLACE,https://tabelog.com/tokyo/A1301/A130101/13118142/,ダイニングバー、居酒屋・ダイニングバー（その他）、イタリアン,洋食・西洋料理,35.67399,139.7639533,東京都中央区銀座2-4-6銀座ベルビア館
"0,1,0,1,0,0,0,1,0","0.0,3.0,0.0,3.0,3.0,3.0,0.0,0.0,3.0",0.3320339236353547,200.3898229093936,0.408248290464,0.5262254204343945,64848,うまい鮨勘 銀座二丁目支店,https://tabelog.com/tokyo/A1301/A130101/13033163/,寿司、懐石・会席料理、魚介料理・海鮮料理,高級和食,35.67334833,139.7653433,東京都中央区銀座2丁目7-18藤田ビルB2F
"0,1,0,1,0,0,0,1,0","0.0,3.0,0.0,3.0,3.0,0.0,0.0,0.0,3.0",0.1556296323728018,253.31111028815945,0.5,0.5236607513194906,61277,Gottie's BEEF 銀座ベルビア館,https://tabelog.com/tokyo/A1301/A130101/13192324/,ステーキ、焼肉、鉄板焼き,洋食・西洋料理,35.6740325,139.7641758,東京都中央区銀座2-4-6銀座ベルビア館7F
"0,1,0,1,0,0,0,1,0","0.0,3.0,0.0,3.0,3.0,0.0,0.0,0.0,3.0",0.15443806639609997,253.66858008117,0.5,0.5233078600137459,61675,福みみ 銀座店,https://tabelog.com/tokyo/A1301/A130101/13010575/,居酒屋、焼鳥、串焼き,居酒屋,35.66968472,139.7631114,東京都中央区銀座5-10-9銀座ＹＫビル　Ｂ１Ｆ
"0,1,0,1,0,0,0,1,0","0.0,3.0,0.0,3.0,3.0,0.0,0.0,0.0,3.0",0.11959656738417815,264.12102978474655,0.5,0.5141044046981881,60325,アップタウン,https://tabelog.com/tokyo/A1301/A130101/13038902/,オイスターバー、カリフォルニア料理、イタリアン,洋食・西洋料理,35.67266111,139.7670042,東京都中央区銀座2-11-19国光ビルB1F
"0,1,0,1,0,0,0,1,0","0.0,3.0,0.0,3.0,0.0,3.0,0.0,0.0,3.0",0.11408347424861764,265.7749577254147,0.5,0.5128499186863882,58531,ピッツェリア・トラットリア ヴォメロ,https://tabelog.com/tokyo/A1301/A130101/13139857/,ピザ、イタリアン、パスタ,洋食・西洋料理,35.67055083,139.7668478,東京都中央区銀座3-12-8NKCビル1F
"0,1,0,1,0,0,0,1,0","0.0,3.0,0.0,3.0,0.0,3.0,0.0,0.0,3.0",0.11381413139046836,265.8557605828595,0.5,0.5127900705982583,63734,STAND BY FARM,https://tabelog.com/tokyo/A1301/A130101/13190205/,居酒屋、野菜料理,創作料理・無国籍料理,35.67053806,139.7668397,東京都中央区銀座3-12-7原町ビル1F
"0,1,0,1,0,0,0,1,0","0.0,3.0,0.0,3.0,3.0,0.0,0.0,0.0,3.0",0.11018656146401194,266.9440315607964,0.5,0.5119971467960173,61409,銀座ひかり,https://tabelog.com/tokyo/A1301/A130101/13019835/,割烹・小料理、魚介料理・海鮮料理、天ぷら・揚げ物（その他）,高級和食,35.67345611,139.7663894,東京都中央区銀座1-9-12西山興業東銀座ビル　Ｂ１Ｆ
"0,1,0,1,0,0,0,1,0","0.0,3.0,0.0,3.0,3.0,0.0,0.0,0.0,3.0",0.0986908025361682,270.39275923914954,0.5,0.5096468134946327,59018,暖 銀座店,https://tabelog.com/tokyo/A1301/A130101/13004960/,居酒屋、魚介料理・海鮮料理、馬肉料理,高級和食,35.67274778,139.7670339,東京都中央区銀座2-11-19国光ビル　１Ｆ
"0,1,0,1,0,0,0,1,0","0.0,2.0,0.0,3.0,0.0,3.0,0.0,0.0,3.0",0.0970610093798003,270.8816971860599,0.5,0.5093337211905625,63621,つきじ鈴富 GINZA SIX店,https://tabelog.com/tokyo/A1301/A130101/13207703/,寿司,高級和食,35.66997472,139.7622567,東京都中央区銀座6-10-1GINZASIX13F
"0,1,0,1,0,0,0,1,0","0.0,3.0,0.0,3.0,3.0,0.0,0.0,0.0,3.0",0.09142999525394335,272.571001423817,0.5,0.5082907081898469,59381,Vanilla Var,https://tabelog.com/tokyo/A1301/A130101/13121394/,バー,バー・お酒,35.67080472,139.7670858,東京都中央区銀座3-12-5宏和ビル
"0,1,0,1,0,0,0,1,0","0.0,2.0,0.0,3.0,0.0,3.0,0.0,0.0,3.0",0.08814043576120753,273.55786927163774,0.5,0.5077093030624665,64430,伊万里 櫓庵治 銀座店,https://tabelog.com/tokyo/A1301/A130101/13197700/,懐石・会席料理、居酒屋、ステーキ,高級和食,35.67418694,139.7647825,東京都中央区銀座2-5-19PUZZLE銀座　７F
"0,1,0,1,0,0,0,1,0","0.0,2.0,0.0,3.0,0.0,3.0,0.0,0.0,3.0",0.0819028364203543,275.4291490738937,0.5,0.506663670114307,64868,ワイン＆グリル　マンジェマンジェ,https://tabelog.com/tokyo/A1301/A130101/13184227/,フレンチ、ステーキ、洋食,洋食・西洋料理,35.6695448,139.7629158,東京都中央区銀座6-12-1第二寿ビルB1F
"0,1,0,1,0,0,0,1,0","0.0,3.0,0.0,3.0,3.0,0.0,0.0,0.0,3.0",0.08138948955647758,275.5831531330567,0.5,0.5065809402358759,61111,ウォータールー,https://tabelog.com/tokyo/A1301/A130101/13168817/,ステーキ、ビストロ、ワインバー,洋食・西洋料理,35.67161389,139.7673472,東京都中央区銀座2-12-8銀座さがらビル　1F
"0,1,0,1,0,0,0,1,0","0.0,3.0,0.0,3.0,3.0,0.0,0.0,0.0,3.0",0.0767482064283763,276.9755380714871,0.5,0.5058559945181758,60107,SAIKA 銀座店,https://tabelog.com/tokyo/A1301/A130101/13136374/,イタリアン、西洋各国料理（その他）、ダイニングバー,洋食・西洋料理,35.67424831,139.7642948,東京都中央区銀座2-4-18アルボーレ銀座６F
"0,1,0,1,0,0,0,1,0","0.0,3.0,0.0,3.0,3.0,0.0,0.0,0.0,3.0",0.07631244919632688,277.10626524110194,0.5,0.5057900650490695,64418,銀座 炎蔵,https://tabelog.com/tokyo/A1301/A130101/13200058/,焼肉、ホルモン、韓国料理,焼肉・ホルモン・鍋,35.67333611,139.7619417,東京都中央区銀座4-1西銀座デパート2F
"0,1,0,1,0,0,0,1,0","0.0,3.0,0.0,3.0,0.0,3.0,0.0,0.0,3.0",0.07563524323839753,277.30942702848074,0.5,0.5056883328886792,61283,揚物ダイニング HIRO,https://tabelog.com/tokyo/A1301/A130101/13132582/,串揚げ・串かつ、和食（その他）、居酒屋・ダイニングバー（その他）,Ｂ級和食,35.67084028,139.7614561,東京都中央区銀座5-6-10銀座都ビル5F
"0,1,0,1,0,0,0,1,0","0.0,3.0,0.0,3.0,3.0,0.0,0.0,0.0,3.0",0.07539664078737379,277.38100776378786,0.5,0.5056527004199822,58959,魚然 銀座三丁目店,https://tabelog.com/tokyo/A1301/A130101/13183333/,居酒屋,居酒屋,35.67016861,139.7666789,東京都中央区銀座3-13-11銀座芦沢ビルB1F
"0,1,0,1,0,0,0,1,0","0.0,3.0,0.0,3.0,0.0,3.0,0.0,0.0,3.0",0.0683678984000278,279.48963047999166,0.5,0.5046525235561956,63821,銀座カフェビストロ 森のテーブル,https://tabelog.com/tokyo/A1301/A130101/13117524/,カレー（その他）、バームクーヘン、薬膳,洋食・西洋料理,35.67426306,139.7645528,東京都中央区銀座2-4-18アルボーレ銀座ビル9F
"0,1,0,1,0,0,0,1,0","0.0,3.0,0.0,3.0,3.0,0.0,0.0,0.0,3.0",0.05134064436865837,284.5978066894025,0.5,0.5026289503840672,63881,サキ ホール ヒビヤ バー,https://tabelog.com/tokyo/A1301/A130101/13125436/,ダイニングバー、バル・バール、居酒屋,バー・お酒,35.67090444,139.7613411,東京都中央区銀座5-6-12みゆきビル　B1F
"0,1,0,1,0,0,0,1,0","0.0,3.0,0.0,3.0,3.0,0.0,0.0,0.0,3.0",0.04159695191947113,287.52091442415866,0.5,0.5017273227650562,61642,いろり家　別邸,https://tabelog.com/tokyo/A1301/A130101/13185368/,居酒屋,居酒屋,35.67055556,139.767125,東京都中央区銀座3-13-17山田ビル2F
"0,1,0,1,0,0,0,1,0","0.0,3.0,0.0,3.0,3.0,0.0,0.0,0.0,3.0",0.02666284815763902,292.0011455527083,0.5,0.5007104027997394,64628,酒蔵秩父錦,https://tabelog.com/tokyo/A1301/A130101/13014813/,居酒屋、日本酒バー、とんかつ,バー・お酒,35.67139778,139.7675039,東京都中央区銀座2-13-14
"0,1,0,1,0,0,0,1,0","0.0,3.0,0.0,3.0,0.0,3.0,0.0,0.0,3.0",0.022521192187659834,293.24364234370205,0.5,0.5005069471021891,61153,ジムトンプソンズテーブル タイランド 銀座,https://tabelog.com/tokyo/A1301/A130101/13043358/,タイ料理、タイカレー、バイキング,創作料理・無国籍料理,35.67424139,139.76322,東京都中央区銀座2-2-14マロニエゲート銀座110Ｆ
"0,1,0,1,0,0,0,1,0","0.0,3.0,0.0,3.0,0.0,3.0,0.0,0.0,3.0",0.021927412880822506,293.42177613575325,0.5,0.5004805804780501,61983,サムギョプサルと野菜　いふう 銀座マロニエゲート店,https://tabelog.com/tokyo/A1301/A130101/13043446/,韓国料理、焼肉、豚料理,焼肉・ホルモン・鍋,35.67424639,139.7632314,東京都中央区銀座2-2-14マロニエゲート11F
"0,1,0,1,0,0,0,1,0","0.0,3.0,0.0,3.0,3.0,0.0,0.0,0.0,3.0",0.02138371683333844,293.58488494999847,0.5,0.5004570544468411,63929,BAR 酒仙堂,https://tabelog.com/tokyo/A1301/A130101/13014392/,バー,バー・お酒,35.66942389,139.7627669,東京都中央区銀座6-12-17錦光ビル　Ｂ１Ｆ
"0,1,0,1,0,0,0,1,0","0.0,3.0,0.0,3.0,3.0,3.0,0.0,0.0,3.0",0.28904219871971426,213.28734038408572,0.408248290464,0.5002120143573058,63901,魚游 銀座店,https://tabelog.com/tokyo/A1301/A130101/13146191/,寿司、居酒屋、魚介料理・海鮮料理,高級和食,35.67282778,139.7623556,東京都中央区銀座4-2-2第一弥生ビルB1F
"0,1,0,1,0,0,0,1,0","0.0,3.0,0.0,3.0,3.0,0.0,0.0,0.0,3.0",0.012246916702651826,296.32592498920445,0.5,0.5001499644793767,60595,花の響 銀座インズ店,https://tabelog.com/tokyo/A1301/A130101/13155488/,居酒屋、もつ鍋、魚介料理・海鮮料理,高級和食,35.67423194,139.7630931,東京都中央区銀座西2-2銀座インズ22F
"0,1,0,1,0,0,0,1,0","0.0,3.0,0.0,3.0,3.0,0.0,0.0,0.0,3.0",0.009653792936464355,297.1038621190607,0.5,0.5000931870342368,63481,元祖343鮨 銀座本店,https://tabelog.com/tokyo/A1301/A130101/13194706/,寿司、魚介料理・海鮮料理、居酒屋,高級和食,35.67107472,139.7611331,東京都中央区銀座5-5-11塚本不動産ビル5F
"0,1,0,1,0,0,0,1,0","0.0,3.0,0.0,3.0,0.0,3.0,0.0,0.0,3.0",0.0020519845800276927,299.3844046259917,0.5,0.5000042106229873,61391,クラフトビールタップ シノワ マロニエゲート 銀座1店,https://tabelog.com/tokyo/A1301/A130101/13194527/,中華料理、居酒屋、ビアホール・ビアレストラン,アジア・エスニック、中華料理,35.67428722,139.7631758,東京都中央区銀座2-2-14マロニエゲート11F
"0,1,0,1,0,0,0,1,0","0.0,3.0,0.0,3.0,3.0,3.0,0.0,0.0,3.0",0.2414857604186246,227.55427187441262,0.408248290464,0.474322716250896,60558,赤から 銀座店,https://tabelog.com/tokyo/A1301/A130101/13085206/,居酒屋、鍋（その他）、ホルモン,焼肉・ホルモン・鍋,35.67311222,139.7624269,東京都中央区銀座3-2-15ギンザグラッセ7F
"0,1,0,1,0,0,0,1,0","0.0,3.0,0.0,3.0,3.0,3.0,0.0,0.0,3.0",0.22640039279036595,232.07988216289021,0.408248290464,0.4668230976743745,58712,ラ・ボッテガ・デルマーレ,https://tabelog.com/tokyo/A1301/A130101/13193756/,イタリアン,洋食・西洋料理,35.6707675,139.7665697,東京都中央区銀座3-11-7鶴見ビル1・2F
"0,1,0,1,0,0,0,1,0","0.0,3.0,0.0,3.0,3.0,3.0,0.0,0.0,3.0",0.18461771616801503,244.6146851495955,0.408248290464,0.44805174677682086,63269,ぴょんぴょん舎  GINZA UNA,https://tabelog.com/tokyo/A1301/A130101/13048942/,焼肉、冷麺、韓国料理,アジア・エスニック、中華料理,35.67328583,139.7623672,東京都中央区銀座3-2-15ギンザ・グラッセ　11F
"0,1,0,1,0,0,0,1,0","0.0,3.0,0.0,3.0,3.0,3.0,0.0,0.0,3.0",0.15350581081613132,253.9482567551606,0.408248290464,0.4361544458342532,58665,銀沙灘,https://tabelog.com/tokyo/A1301/A130101/13133579/,京料理、懐石・会席料理,高級和食,35.67167361,139.7615047,東京都中央区銀座5-5-18藤小西ビルB1F
"0,1,0,1,0,0,0,1,0","0.0,3.0,0.0,3.0,3.0,3.0,0.0,0.0,3.0",0.1368499703211836,258.9450089036449,0.408248290464,0.43057471017649823,59069,シュタインハウス 銀座店,https://tabelog.com/tokyo/A1301/A130101/13054323/,ビアホール・ビアレストラン、ドイツ料理、ダイニングバー,洋食・西洋料理,35.67408444,139.7642094,東京都中央区銀座2-4-6銀座ベルビア館8Ｆ
"0,1,0,1,0,0,0,1,0","0.0,3.0,0.0,3.0,3.0,3.0,0.0,0.0,3.0",0.12146803997076498,263.5595880087705,0.408248290464,0.42593561884515596,62551,茜屋 銀座店,https://tabelog.com/tokyo/A1301/A130101/13141602/,居酒屋,居酒屋,35.67256278,139.7615717,東京都中央区銀座4-2-12銀座クリスタルビル9F
"0,1,0,1,0,0,0,1,0","0.0,3.0,0.0,3.0,3.0,3.0,0.0,0.0,3.0",0.11325773988251513,266.02267803524546,0.408248290464,0.42366730144060216,60106,北海道応援隊 きたいち酒場 銀座店,https://tabelog.com/tokyo/A1301/A130101/13140927/,居酒屋、魚介料理・海鮮料理、創作料理,高級和食,35.67256917,139.7615456,東京都中央区銀座4-2-12銀座クリスタルビル9F
"0,1,0,1,0,0,0,1,0","0.0,3.0,0.0,3.0,3.0,3.0,0.0,0.0,3.0",0.09167077110201527,272.4987686693954,0.408248290464,0.41841390624727653,62041,37 QUALITY MEATS,https://tabelog.com/tokyo/A1301/A130101/13198470/,ステーキ、アメリカ料理、ハンバーグ,洋食・西洋料理,35.67417778,139.7647786,東京都中央区銀座2-5-19PUZZLEGINZA9F
"0,1,0,1,0,0,0,1,0","0.0,3.0,0.0,3.0,3.0,3.0,0.0,0.0,3.0",0.08581598086232854,274.25520574130144,0.408248290464,0.4171702880575631,59825,上越の恵 田喰,https://tabelog.com/tokyo/A1301/A130101/13198034/,居酒屋、和食（その他）、ステーキ,洋食・西洋料理,35.67419222,139.7647908,東京都中央区銀座2-5-19PUZZLE銀座5F
"0,1,0,1,0,0,0,1,0","0.0,3.0,0.0,3.0,3.0,3.0,0.0,0.0,3.0",0.0738261098302856,277.8521670509143,0.408248290464,0.4148698123018112,61472,SHARI THE TOKYO SUSHI BAR,https://tabelog.com/tokyo/A1301/A130101/13121794/,ダイニングバー、寿司、居酒屋,高級和食,35.67425222,139.7644817,東京都中央区銀座2-4-18アルボーレ銀座ビル　8F
"0,1,0,1,0,0,0,1,0","0.0,2.0,0.0,3.0,3.0,3.0,0.0,0.0,3.0",0.0675827959777854,279.7251612066644,0.408248290464,0.4138044235853957,64112,銀座　ふく太郎,https://tabelog.com/tokyo/A1301/A130101/13148420/,ふぐ、鍋（その他）,高級和食,35.6711175,139.7613178,東京都中央区銀座5-5-8西五番街坂口ビルB1F
"0,1,0,1,0,0,0,1,0","0.0,3.0,0.0,3.0,3.0,3.0,0.0,0.0,3.0",0.06730382952395397,279.8088511428138,0.408248290464,0.41375895414511105,61068,豚肉創作料理 やまと 銀座本店,https://tabelog.com/tokyo/A1301/A130101/13004021/,居酒屋、鍋（その他）、創作料理,焼肉・ホルモン・鍋,35.67426861,139.7645075,東京都中央区銀座2-4-18アルボーレ銀座9F
"0,1,0,1,0,0,0,1,0","0.0,3.0,0.0,3.0,3.0,3.0,0.0,0.0,3.0",0.06244853991026067,281.2654380269218,0.408248290464,0.41299695737812653,63461,松永牧場 銀座本店,https://tabelog.com/tokyo/A1301/A130101/13133424/,焼肉、韓国料理、ホルモン,焼肉・ホルモン・鍋,35.67428694,139.7643289,東京都中央区銀座2-4-18アルボーレ銀座8F
"0,1,0,1,0,0,0,1,0","0.0,3.0,0.0,3.0,3.0,3.0,0.0,0.0,3.0",0.054077346540352095,283.77679603789437,0.408248290464,0.4118143101878709,64419,ちゃんこ 玉海力 銀座店,https://tabelog.com/tokyo/A1301/A130101/13132332/,ちゃんこ鍋、焼鳥、居酒屋,居酒屋,35.66924583,139.7649336,東京都中央区銀座5-13-19デュープレックス銀座タワー8F
"0,1,0,1,0,0,0,1,0","0.0,3.0,0.0,3.0,3.0,3.0,0.0,0.0,3.0",0.010182390873901758,296.9452827378295,0.408248290464,0.40837525359719773,59461,焼肉とワイン 醍醐 銀座店,https://tabelog.com/tokyo/A1301/A130101/13169163/,焼肉、ステーキ、ワインバー,焼肉・ホルモン・鍋,35.67107694,139.7611342,東京都中央区銀座5-5-11塚本不動産ビル7F
"0,1,0,1,0,0,0,0,1","0.0,3.0,0.0,3.0,0.0,0.0,0.0,0.0,3.0",0.8490146062272752,45.29561813181745,1.0,1.3118025009837628,59928,蔵ノ灯,https://tabelog.com/tokyo/A1301/A130101/13139118/,居酒屋,居酒屋,35.67173556,139.7638081,東京都中央区銀座4-6-18ギンザアクトビル6F-B
"0,1,0,1,0,0,0,0,1","0.0,3.0,0.0,3.0,0.0,0.0,0.0,0.0,3.0",0.7667354543633191,69.97936369100425,1.0,1.260112398549322,64760,トラットリア　ガルガ,https://tabelog.com/tokyo/A1301/A130101/13115837/,イタリアン、バル・バール、ワインバー,バー・お酒,35.67137167,139.7636914,東京都中央区銀座4-6-16銀座三越11F
"0,1,0,1,0,0,0,0,1","0.0,3.0,0.0,3.0,0.0,0.0,0.0,0.0,3.0",0.756635641050486,73.0093076848542,1.0,1.2539926209144452,59040,天ぷら新宿つな八 銀座店,https://tabelog.com/tokyo/A1301/A130101/13010664/,天ぷら、割烹・小料理、居酒屋,高級和食,35.67236,139.7646164,東京都中央区銀座3-6-1松屋銀座本店8F
"0,1,0,1,0,0,0,0,1","0.0,3.0,0.0,3.0,0.0,0.0,0.0,0.0,3.0",0.725676968010222,82.29690959693342,1.0,1.2355594125336542,60963,鳥政,https://tabelog.com/tokyo/A1301/A130101/13013313/,焼鳥、鳥料理,Ｂ級和食,35.67108691,139.7647104,東京都中央区銀座4-8-13銀座蟹睦会館ビル　1F
"0,1,0,1,0,0,0,0,1","0.0,3.0,0.0,3.0,0.0,0.0,0.0,0.0,3.0",0.7087027198895907,87.3891840331228,1.0,1.225666979721206,62918,でーびる沖縄 銀座店,https://tabelog.com/tokyo/A1301/A130101/13027403/,沖縄料理,高級和食,35.67129667,139.7650956,東京都中央区銀座3-8-10銀座朝日ビルB1F
"0,1,0,1,0,0,0,0,1","0.0,3.0,0.0,3.0,0.0,0.0,0.0,0.0,3.0",0.6376898941682478,108.69303174952566,1.0,1.1860220913306427,60653,バー リップル,https://tabelog.com/tokyo/A1301/A130101/13183303/,バー,バー・お酒,35.67197755,139.7654763,東京都中央区銀座3-8-16武井ビル2F
"0,1,0,1,0,0,0,0,1","0.0,3.0,0.0,3.0,0.0,0.0,0.0,0.0,3.0",0.6318639777675784,110.44080666972647,1.0,1.182899863217621,61115,レストラン木村家,https://tabelog.com/tokyo/A1301/A130101/13007695/,フレンチ,洋食・西洋料理,35.67171694,139.7630889,東京都中央区銀座4-5-7銀座木村屋総本店　４Ｆ
"0,1,0,1,0,0,0,0,1","0.0,3.0,0.0,3.0,0.0,0.0,0.0,0.0,3.0",0.6282735392660622,111.51793822018132,1.0,1.1809858763515777,62356,銀座 菊正,https://tabelog.com/tokyo/A1301/A130101/13012780/,割烹・小料理,高級和食,35.67201632,139.7654964,東京都中央区銀座3-8-17菊正ビル
"0,1,0,1,0,0,0,0,1","0.0,3.0,0.0,3.0,0.0,0.0,0.0,0.0,3.0",0.601096817524716,119.67095474258521,1.0,1.1667550660007189,63116,手作り料理とお酒　えん 銀座店,https://tabelog.com/tokyo/A1301/A130101/13012788/,居酒屋、創作料理、懐石・会席料理,高級和食,35.67234102,139.7654153,東京都中央区銀座3-7-3銀座オーミビル　B1Ｆ
"0,1,0,1,0,0,0,0,1","0.0,3.0,0.0,3.0,0.0,0.0,0.0,0.0,3.0",0.586251127905147,124.12466162845591,1.0,1.159176597835747,61514,王十里　サランチェ,https://tabelog.com/tokyo/A1301/A130102/13159018/,韓国料理、韓国鍋、居酒屋,アジア・エスニック、中華料理,35.67175252,139.765679,東京都中央区銀座3-9-18東銀座ビル１Ｆ
"0,1,0,1,0,0,0,0,1","0.0,3.0,0.0,3.0,0.0,3.0,0.0,0.0,3.0",0.9166990664276974,24.9902800716908,0.707106781187,1.1577293200007557,59758,ブルーリリー 青百合飯荘  銀座チャイニーズビアホール,https://tabelog.com/tokyo/A1301/A130101/13138046/,中華料理、居酒屋、飲茶・点心,アジア・エスニック、中華料理,35.67167194,139.76405,東京都中央区銀座4-6-1三和ビルB2F
"0,1,0,1,0,0,0,0,1","0.0,3.0,0.0,3.0,0.0,0.0,0.0,0.0,3.0",0.5799767127537551,126.00698617387347,1.0,1.1560159978722837,64030,板前バル 銀座店,https://tabelog.com/tokyo/A1301/A130101/13144183/,和食（その他）、バル・バール,Ｂ級和食,35.671765,139.7656997,東京都中央区銀座3-9-18東銀座ビル1F
"0,1,0,1,0,0,0,0,1","0.0,3.0,0.0,3.0,0.0,0.0,0.0,0.0,3.0",0.5683963175326954,129.4811047401914,1.0,1.1502497006236205,65064,銀座でワイン。,https://tabelog.com/tokyo/A1301/A130101/13169784/,ダイニングバー、串焼き、イタリアン,洋食・西洋料理,35.67159889,139.7657258,東京都中央区銀座3-9-6マトリックスビル2F
"0,1,0,1,0,0,0,0,1","0.0,3.0,0.0,3.0,0.0,0.0,0.0,0.0,3.0",0.5608766316092096,131.7370105172371,1.0,1.146552482830722,63264,キリンシティプラス 東京銀座店,https://tabelog.com/tokyo/A1301/A130101/13014900/,ビアホール・ビアレストラン、ビアバー、ダイニングバー,バー・お酒,35.67262389,139.7633203,東京都中央区銀座3-4-12文祥堂銀座ビル2F
"0,1,0,1,0,0,0,0,1","0.0,3.0,0.0,3.0,0.0,0.0,0.0,0.0,3.0",0.5459467488722216,136.21597533833352,1.0,1.1393234187903576,58698,YUN,https://tabelog.com/tokyo/A1301/A130101/13100205/,焼肉、韓国料理,焼肉・ホルモン・鍋,35.67151028,139.7657831,東京都中央区銀座3-9-6アルファマトリックスビル2F
"0,1,0,1,0,0,0,0,1","0.0,3.0,0.0,3.0,0.0,0.0,0.0,0.0,3.0",0.5348265308925386,139.55204073223842,1.0,1.1340367798914406,58701,韓豚屋 銀座三丁目店,https://tabelog.com/tokyo/A1301/A130101/13032379/,居酒屋、韓国料理、焼肉,焼肉・ホルモン・鍋,35.67290778,139.7637,東京都中央区銀座3-4-6正隆銀座ビル　２Ｆ
"0,1,0,1,0,0,0,0,1","0.0,3.0,0.0,3.0,3.0,0.0,0.0,0.0,3.0",0.8766308713408476,37.01073859774574,0.707106781187,1.1262689219666029,63321,GINZA SCHEVENINGEN,https://tabelog.com/tokyo/A1301/A130101/13014927/,パスタ、イタリアン、洋食,洋食・西洋料理,35.67162861,139.7646878,東京都中央区銀座3-7-13成田屋ビル　B1F
"0,1,0,1,0,0,0,0,1","0.0,3.0,0.0,3.0,0.0,0.0,0.0,0.0,3.0",0.4732577994569782,158.02266016290653,1.0,1.1063331074983074,63942,日比谷 Bａｒ 銀座店,https://tabelog.com/tokyo/A1301/A130101/13007605/,ダイニングバー、バル・バール、イタリアン,洋食・西洋料理,35.67274611,139.7630581,東京都中央区銀座3-3-11稲垣ビル　５Ｆ
"0,1,0,1,0,0,0,0,1","0.0,3.0,0.0,3.0,0.0,0.0,0.0,0.0,3.0",0.4698509769907431,159.04470690277708,1.0,1.1048800571008401,63991,日比谷BAR WAPIRITS,https://tabelog.com/tokyo/A1301/A130101/13183496/,ダイニングバー、バル・バール、イタリアン,洋食・西洋料理,35.67276583,139.7630661,東京都中央区銀座3-3-11稲垣ビル　4Ｆ
"0,1,0,1,0,0,0,0,1","0.0,3.0,0.0,3.0,0.0,0.0,0.0,0.0,3.0",0.46319458567456856,161.04162429762943,1.0,1.1020658892272437,61258,居心伝 銀座三丁目店,https://tabelog.com/tokyo/A1301/A130101/13027684/,居酒屋,居酒屋,35.67282778,139.7631139,東京都中央区銀座3-3-9松岡ビル　４Ｆ
"0,1,0,1,0,0,0,0,1","0.0,3.0,0.0,3.0,0.0,0.0,0.0,0.0,3.0",0.4611888901463222,161.64333295610334,1.0,1.101224406011053,60719,銀座ライオン GINZA PLACE店,https://tabelog.com/tokyo/A1301/A130101/13002606/,ビアホール・ビアレストラン、ビアバー,バー・お酒,35.67086944,139.7628875,東京都中央区銀座5-8-1GINZAPLACEB1F・B2F
"0,1,0,1,0,0,0,0,1","0.0,2.0,0.0,3.0,0.0,0.0,0.0,0.0,3.0",0.4580275976075714,162.59172071772858,1.0,1.0999042140887374,62790,トラットリア後藤 東銀座店,https://tabelog.com/tokyo/A1301/A130101/13204175/,イタリアン,洋食・西洋料理,35.67039917,139.7649983,東京都中央区銀座4丁目10-14ネオパイン銀座地下１階
"0,1,0,1,0,0,0,0,1","0.0,3.0,0.0,3.0,0.0,3.0,0.0,0.0,3.0",0.8418174058060667,47.45477825817999,0.707106781187,1.0993891689106527,59538,銀座夜市 中央通り店,https://tabelog.com/tokyo/A1301/A130101/13213533/,中華料理、飲茶・点心、四川料理,アジア・エスニック、中華料理,35.67174583,139.7637839,東京都中央区銀座4-6-18銀座アクトビル3F
"0,1,0,1,0,0,0,0,1","0.0,3.0,0.0,3.0,3.0,0.0,0.0,0.0,3.0",0.8418174058060667,47.45477825817999,0.707106781187,1.0993891689106527,64047,個室と和食バル Rokuroku 銀座店,https://tabelog.com/tokyo/A1301/A130101/13213088/,ダイニングバー、居酒屋、魚介料理・海鮮料理,高級和食,35.67174583,139.7637839,東京都中央区銀座4-6-18銀座アクトビル6F-B
"0,1,0,1,0,0,0,0,1","0.0,3.0,0.0,3.0,3.0,0.0,0.0,0.0,3.0",0.8417204271721768,47.48387184834698,0.707106781187,1.0993149128065678,61737,個室和食 六禄 銀座店,https://tabelog.com/tokyo/A1301/A130101/13169571/,居酒屋、ダイニングバー、魚介料理・海鮮料理,高級和食,35.67174472,139.7637836,東京都中央区銀座4-6-18銀座アクトビル6F
"0,1,0,1,0,0,0,0,1","0.0,3.0,0.0,3.0,0.0,0.0,0.0,3.0,0.0",0.8416281097236237,47.51156708291291,0.707106781187,1.0992442290396434,58559,絆,https://tabelog.com/tokyo/A1301/A130101/13108776/,ダイニングバー,バー・お酒,35.67174444,139.7637833,東京都中央区銀座4-6-18ギンザアクトビル6F
"0,1,0,1,0,0,0,0,1","0.0,3.0,0.0,3.0,0.0,0.0,0.0,0.0,3.0",0.4397315490830668,168.08053527507997,1.0,1.0924119347842156,58729,ベジバール HONA 銀座,https://tabelog.com/tokyo/A1301/A130101/13109088/,イタリアン、バル・バール、ワインバー,バー・お酒,35.6729125,139.7631147,東京都中央区銀座3-3-9松岡銀座ビル　Ｂ１Ｆ
"0,1,0,1,0,0,0,0,1","0.0,3.0,0.0,3.0,0.0,0.0,0.0,0.0,3.0",0.41341749719947063,175.9747508401588,1.0,1.0820878092792074,63415,ささもと 銀座店,https://tabelog.com/tokyo/A1301/A130101/13002480/,串焼き、もつ焼き,Ｂ級和食,35.67221778,139.76245,東京都中央区銀座4-3-7華菱ビル　１Ｆ
"0,1,0,1,0,0,0,0,1","0.0,3.0,0.0,3.0,0.0,0.0,0.0,0.0,3.0",0.41341749719947063,175.9747508401588,1.0,1.0820878092792074,60075,Bar Lamp,https://tabelog.com/tokyo/A1301/A130101/13014887/,バー,バー・お酒,35.67221778,139.76245,東京都中央区銀座4-3-7銀座猿谷ビル　４・５Ｆ
"0,1,0,1,0,0,0,0,1","0.0,3.0,0.0,3.0,0.0,0.0,0.0,0.0,3.0",0.41158345569204274,176.52496329238718,1.0,1.0813884320628753,60690,銀座ひらい,https://tabelog.com/tokyo/A1301/A130102/13157586/,魚介料理・海鮮料理、郷土料理（その他）、和食（その他）,Ｂ級和食,35.67031091,139.7634818,東京都中央区銀座5-9-5
"0,1,0,1,0,0,0,0,1","0.0,3.0,0.0,3.0,0.0,0.0,0.0,0.0,3.0",0.4106595024078928,176.80214927763217,1.0,1.081037107095727,61732,黒姫鶏舎,https://tabelog.com/tokyo/A1301/A130101/13193721/,居酒屋、鍋（その他）、焼鳥,焼肉・ホルモン・鍋,35.67030861,139.7634806,東京都中央区銀座5-9-5チアーズ銀座4F
"0,1,0,1,0,0,0,0,1","0.0,3.0,0.0,3.0,3.0,0.0,0.0,0.0,3.0",0.8168290267206471,54.951291983805866,0.707106781187,1.0803747770535,62271,長万部酒場 銀座店,https://tabelog.com/tokyo/A1301/A130101/13139781/,郷土料理（その他）、居酒屋、魚介料理・海鮮料理,高級和食,35.6714525,139.7647914,東京都中央区銀座3-7-12王子不動産銀座ビルB1F
"0,1,0,1,0,0,0,0,1","0.0,3.0,0.0,3.0,0.0,0.0,0.0,3.0,0.0",0.8165954543412399,55.021363697628026,0.707106781187,1.0801981929492273,63664,築地寿司清 銀座四丁目店,https://tabelog.com/tokyo/A1301/A130101/13014906/,寿司,高級和食,35.67175694,139.7637003,東京都中央区銀座4-6-18ギンザアクトビル4F
"0,1,0,1,0,0,0,0,1","0.0,3.0,0.0,3.0,0.0,0.0,0.0,0.0,3.0",0.38404065379540936,184.7878038613772,1.0,1.071208300830238,62581,しゃぶせん 銀座２階店,https://tabelog.com/tokyo/A1301/A130101/13020533/,しゃぶしゃぶ、すき焼き,焼肉・ホルモン・鍋,35.67061083,139.7628214,東京都中央区銀座5-8-20銀座コア2F
"0,1,0,1,0,0,0,0,1","0.0,3.0,0.0,3.0,0.0,0.0,0.0,0.0,3.0",0.3837988174478291,184.86035476565127,1.0,1.0711216234743617,58601,銀座魚勝,https://tabelog.com/tokyo/A1301/A130101/13179479/,魚介料理・海鮮料理、割烹・小料理、日本酒バー,高級和食,35.67215833,139.7623278,東京都中央区銀座4-3-7銀座スバルビル2F
"0,1,0,1,0,0,0,0,1","0.0,3.0,0.0,3.0,0.0,0.0,0.0,0.0,3.0",0.383030784551751,185.0907646344747,1.0,1.0708466659210971,62561,いらか 銀座店,https://tabelog.com/tokyo/A1301/A130101/13007809/,懐石・会席料理、和食（その他）,高級和食,35.67060806,139.76282,東京都中央区銀座5-8-20銀座コアB2F
"0,1,0,1,0,0,0,0,1","0.0,3.0,0.0,3.0,3.0,0.0,0.0,0.0,3.0",0.7924260664694351,62.27218005916945,0.707106781187,1.062044759329955,62134,美しくなるビアガーデン,https://tabelog.com/tokyo/A1301/A130101/13208273/,ビアガーデン,バー・お酒,35.67227556,139.7645558,東京都中央区銀座3-6-1松屋銀座屋上
"0,1,0,1,0,0,0,0,1","0.0,3.0,0.0,3.0,0.0,0.0,0.0,3.0,0.0",0.7921881578165496,62.34355265503513,0.707106781187,1.0618672597762768,59559,寿司田 銀座松屋Ｂ１店,https://tabelog.com/tokyo/A1301/A130101/13094987/,寿司,高級和食,35.67228194,139.7645369,東京都中央区銀座3-6-1松屋銀座B1F
"0,1,0,1,0,0,0,0,1","0.0,3.0,0.0,3.0,0.0,0.0,0.0,0.0,3.0",0.31272204154320227,206.18338753703932,1.0,1.0477571642641954,60105,ザ テラス アーバン リゾート,https://tabelog.com/tokyo/A1301/A130101/13172996/,無国籍料理、西洋各国料理（その他）、居酒屋・ダイニングバー（その他）,創作料理・無国籍料理,35.67356913,139.7647847,東京都中央区銀座2-6-16ゼニア銀座ビル13F
"0,1,0,1,0,0,0,0,1","0.0,3.0,0.0,3.0,3.0,3.0,0.0,0.0,3.0",0.8691040335850636,39.268789924480906,0.57735026919,1.0433959720677288,63227,トラットリア コダマ,https://tabelog.com/tokyo/A1301/A130101/13140498/,イタリアン,洋食・西洋料理,35.671575,139.7646836,東京都中央区銀座3-7-13
"0,1,0,1,0,0,0,0,1","0.0,3.0,0.0,3.0,0.0,0.0,0.0,0.0,3.0",0.2936565449510393,211.9030365146882,1.0,1.042225583255651,59753,ビア ヌォーバ ロンド,https://tabelog.com/tokyo/A1301/A130101/13010662/,イタリアン,洋食・西洋料理,35.67300238,139.7660772,東京都中央区銀座2-8-5石川ビル　１Ｆ
"0,1,0,1,0,0,0,0,1","0.0,3.0,0.0,3.0,0.0,0.0,0.0,0.0,3.0",0.286603976957835,214.0188069126495,1.0,1.0402604671946576,63603,焼肉×バル マルウシミート 銀座2丁目店,https://tabelog.com/tokyo/A1301/A130101/13170856/,焼肉、バル・バール、居酒屋,焼肉・ホルモン・鍋,35.67201583,139.7666497,東京都中央区銀座2-11-8第22中央ビル　B1Ｆ
"0,1,0,1,0,0,0,0,1","0.0,3.0,0.0,3.0,3.0,0.0,0.0,3.0,0.0",0.8645487015799421,40.63538952601738,0.57735026919,1.0396046319331678,59482,トミー＆ケイ,https://tabelog.com/tokyo/A1301/A130102/13163090/,串揚げ・串かつ、割烹・小料理,高級和食,35.67161923,139.7647263,東京都中央区銀座3-7-13成田屋ビル2F
"0,1,0,1,0,0,0,0,1","0.0,3.0,0.0,3.0,0.0,0.0,0.0,3.0,0.0",0.7614809446701218,71.55571659896344,0.707106781187,1.0391598669577753,62824,新潟加島屋 銀座三越店,https://tabelog.com/tokyo/A1301/A130101/13166643/,郷土料理（その他）,高級和食,35.67134421,139.7636957,東京都中央区銀座4-6-16銀座三越B2F
"0,1,0,1,0,0,0,0,1","0.0,3.0,0.0,3.0,0.0,0.0,0.0,0.0,3.0",0.272364162074869,218.2907513775393,1.0,1.0364276321976107,58625,菜香苑 銀座店,https://tabelog.com/tokyo/A1301/A130101/13196246/,中華料理,アジア・エスニック、中華料理,35.67085531,139.7664541,東京都中央区銀座3-11-16B1F
"0,1,0,1,0,0,0,0,1","0.0,3.0,0.0,3.0,0.0,0.0,0.0,3.0,0.0",0.7572986575421673,72.81040273734982,0.707106781187,1.0360990573855229,59836,宮川本廛 銀座松屋店,https://tabelog.com/tokyo/A1301/A130101/13002495/,うなぎ,高級和食,35.67235833,139.7646156,東京都中央区銀座3-6-1松屋銀座本店8F
"0,1,0,1,0,0,0,0,1","0.0,3.0,0.0,3.0,0.0,3.0,0.0,0.0,3.0",0.75686163279956,72.941510160132,0.707106781187,1.0357796730984905,63282,つる家 花陽 銀座松屋店,https://tabelog.com/tokyo/A1301/A130101/13020367/,懐石・会席料理、和食（その他）,高級和食,35.67235944,139.7646161,東京都中央区銀座3-6-1松屋銀座本店8F
"0,1,0,1,0,0,0,0,1","0.0,3.0,0.0,3.0,0.0,0.0,0.0,3.0,0.0",0.7564096492142697,73.0771052357191,0.707106781187,1.0354494470636675,61847,上野精養軒松屋 松屋銀座店,https://tabelog.com/tokyo/A1301/A130101/13014925/,洋食、シチュー、フレンチ,洋食・西洋料理,35.67236056,139.7646167,東京都中央区銀座3-6-1松屋銀座本店8F
"0,1,0,1,0,0,0,0,1","0.0,3.0,0.0,3.0,0.0,0.0,0.0,3.0,0.0",0.7564096492142697,73.0771052357191,0.707106781187,1.0354494470636675,61238,すし田 乾山 銀座松屋店,https://tabelog.com/tokyo/A1301/A130101/13025337/,寿司,高級和食,35.67236056,139.7646167,東京都中央区銀座3-6-1松屋銀座本店8F
"0,1,0,1,0,0,0,0,1","0.0,3.0,0.0,3.0,0.0,0.0,0.0,0.0,3.0",0.26334864644492084,220.99540606652374,1.0,1.034095019611047,64933,はし本のおばんざい,https://tabelog.com/tokyo/A1301/A130102/13159651/,京料理、和食（その他）,高級和食,35.67256861,139.7665344,東京都中央区銀座2-10-5銀座オオイビル2F
"0,1,0,1,0,0,0,0,1","0.0,3.0,0.0,3.0,0.0,0.0,0.0,0.0,3.0",0.24449447763756543,226.65165670873037,1.0,1.0294549769636678,58388,ファボリ,https://tabelog.com/tokyo/A1301/A130101/13015842/,ダイニングバー、ビアホール・ビアレストラン、ビアバー,バー・お酒,35.67253333,139.7666211,東京都中央区銀座2-10-5オオイビル　１Ｆ
"0,1,0,1,0,0,0,0,1","0.0,3.0,0.0,3.0,0.0,0.0,0.0,0.0,3.0",0.2249006948768625,232.52979153694125,1.0,1.0249782058932257,61725,テルミニ,https://tabelog.com/tokyo/A1301/A130101/13114703/,イタリアン、居酒屋・ダイニングバー（その他）、ワインバー,バー・お酒,35.67087223,139.7666391,東京都中央区銀座3-11-6鈴木ビル1F
"0,1,0,1,0,0,0,0,1","0.0,3.0,0.0,3.0,0.0,0.0,0.0,0.0,3.0",0.20628147239932995,238.11555828020101,1.0,1.0210543794799745,59810,パラダイス ダイナシティ,https://tabelog.com/tokyo/A1301/A130101/13156930/,中華料理、飲茶・点心、シンガポール料理,アジア・エスニック、中華料理,35.67317111,139.762335,東京都中央区銀座3-2-15ギンザ・グラッセ1F・B1F
"0,1,0,1,0,0,0,0,1","0.0,3.0,0.0,3.0,0.0,0.0,0.0,0.0,3.0",0.2045370165497488,238.63889503507536,1.0,1.020703380585698,61504,京祭,https://tabelog.com/tokyo/A1301/A130101/13169014/,魚介料理・海鮮料理、かに,高級和食,35.67386778,139.7638342,東京都中央区銀座2-6-9
"0,1,0,1,0,0,0,0,1","0.0,3.0,0.0,3.0,0.0,0.0,0.0,0.0,3.0",0.18989602046275367,243.0311938611739,1.0,1.017870570646185,59939,銀座アスター 銀座南店,https://tabelog.com/tokyo/A1301/A130101/13027718/,中華料理,アジア・エスニック、中華料理,35.66983556,139.7630081,東京都中央区銀座5-9-11
"0,1,0,1,0,0,0,0,1","0.0,3.0,0.0,3.0,0.0,0.0,0.0,0.0,3.0",0.1781274883393282,246.56175349820154,1.0,1.0157408144315545,62050,磯一,https://tabelog.com/tokyo/A1301/A130101/13043916/,魚介料理・海鮮料理,高級和食,35.67396194,139.7645939,東京都中央区銀座2-5-17
"0,1,0,1,0,0,0,0,1","0.0,3.0,0.0,3.0,0.0,0.0,0.0,0.0,3.0",0.17495234336753043,247.51429698974087,1.0,1.0151888112315808,61488,ラ・ボッテガイア,https://tabelog.com/tokyo/A1301/A130101/13181377/,イタリアン、ダイニングバー、パスタ,洋食・西洋料理,35.67058694,139.7666394,東京都中央区銀座3-12-15このお店は「中央区京橋3‐7‐11」から移転しています。※移転前の情報は最新のものとは異なります。移転前の店舗情報を見る
"0,1,0,1,0,0,0,0,1","0.0,3.0,0.0,3.0,0.0,0.0,0.0,0.0,3.0",0.17475999765712744,247.57200070286177,1.0,1.0151556810564177,62706,境港直送かに処 ごっつお 銀座本店,https://tabelog.com/tokyo/A1301/A130101/13202452/,かに、居酒屋、魚介料理・海鮮料理,高級和食,35.67066972,139.7619167,東京都中央区銀座5-7-10EXITMELSA8F
"0,1,0,1,0,0,0,0,1","0.0,3.0,0.0,3.0,0.0,0.0,0.0,0.0,3.0",0.1711611443325294,248.65165670024118,1.0,1.0145423289982636,61128,ファゼンダ,https://tabelog.com/tokyo/A1301/A130101/13038150/,バー,バー・お酒,35.66980278,139.7629528,東京都中央区銀座5-9-11縁ビル　５Ｆ
"0,1,0,1,0,0,0,0,1","0.0,3.0,0.0,3.0,0.0,0.0,0.0,0.0,3.0",0.16728602821379127,249.81419153586262,1.0,1.0138957615236122,61160,三平酒寮 舟甚,https://tabelog.com/tokyo/A1301/A130101/13015010/,居酒屋,居酒屋,35.67140389,139.7615819,東京都中央区銀座5-5-6三平ビル　３Ｆ
"0,1,0,1,0,0,0,0,1","0.0,3.0,0.0,3.0,0.0,0.0,0.0,0.0,3.0",0.16522256350263925,250.43323094920822,1.0,1.0135573469174715,63688,ギンザ オリーバル,https://tabelog.com/tokyo/A1301/A130101/13206104/,ダイニングバー、洋食・欧風料理（その他）、ワインバー,バー・お酒,35.670675,139.7667389,東京都中央区銀座3-12-16SUNRICHTOWER1F-2F
"0,1,0,1,0,0,0,0,1","0.0,3.0,0.0,3.0,0.0,0.0,0.0,0.0,3.0",0.15623943213058009,253.12817036082598,1.0,1.0121317899129965,58533,ラ ココリコ 銀座,https://tabelog.com/tokyo/A1301/A130101/13131530/,ビストロ、イタリアン、居酒屋,洋食・西洋料理,35.67403083,139.7641753,東京都中央区銀座2-4-6銀座ベルビア館8F
"0,1,0,1,0,0,0,0,1","0.0,3.0,0.0,3.0,0.0,0.0,0.0,0.0,3.0",0.14779996764583841,255.66000970624847,1.0,1.010863408397055,63838,トラットリア リアナ 銀座みゆき通り店,https://tabelog.com/tokyo/A1301/A130101/13053722/,ピザ、イタリアン、ダイニングバー,洋食・西洋料理,35.66964861,139.763155,東京都中央区銀座5-10-6第一御幸ビルB1F
"0,1,0,1,0,0,0,0,1","0.0,3.0,0.0,3.0,0.0,0.0,0.0,0.0,3.0",0.11333454717673211,265.99963584698037,1.0,1.0064018678359827,64445,桃杏樓 銀座クリスタルビル店,https://tabelog.com/tokyo/A1301/A130101/13180236/,中華料理,アジア・エスニック、中華料理,35.67257417,139.7615481,東京都中央区銀座4-2-12銀座クリスタルビル7F
"0,1,0,1,0,0,0,0,1","0.0,3.0,0.0,3.0,0.0,0.0,0.0,0.0,3.0",0.10962728498977223,267.11181450306833,1.0,1.0059911240235813,60256,クリッパー,https://tabelog.com/tokyo/A1301/A130101/13075585/,バー,バー・お酒,35.671455,139.7672358,東京都中央区銀座2-12-10藤ビル　B1F
"0,1,0,1,0,0,0,0,1","0.0,2.0,0.0,3.0,0.0,3.0,0.0,0.0,3.0",0.7145301214654022,85.64096356037935,0.707106781187,1.0052627987155214,61948,ランゲツ オブ トウキョウ,https://tabelog.com/tokyo/A1301/A130101/13200367/,ダイニングバー、フレンチ、ステーキ,洋食・西洋料理,35.67242306,139.7638406,東京都中央区銀座3-5-8銀座らん月1F
"0,1,0,1,0,0,0,0,1","0.0,3.0,0.0,3.0,0.0,0.0,0.0,0.0,3.0",0.09483710930807926,271.5488672075762,1.0,1.004486972191234,62335,バルデエスパーニャ ビルゴ,https://tabelog.com/tokyo/A1301/A130101/13128769/,スペイン料理、イタリアン、居酒屋,洋食・西洋料理,35.67098861,139.7614583,東京都中央区銀座5-6-13西五番街ビル　Ｂ１Ｆ
"0,1,0,1,0,0,0,0,1","0.0,3.0,0.0,3.0,3.0,0.0,0.0,0.0,3.0",0.7127565059765978,86.17304820702067,0.707106781187,1.0040029067746608,64251,香港ダイニング 九龍,https://tabelog.com/tokyo/A1313/A131301/13032960/,中華料理、飲茶・点心、広東料理,アジア・エスニック、中華料理,35.67113376,139.7648841,東京都中央区銀座4-8-2三福ビル　Ｂ１Ｆ
"0,1,0,1,0,0,0,0,1","0.0,3.0,0.0,3.0,0.0,0.0,0.0,0.0,3.0",0.07539664078737379,277.38100776378786,1.0,1.00283829875111,64833,パリのワイン食堂,https://tabelog.com/tokyo/A1301/A130101/13120134/,西洋各国料理（その他）、フレンチ,洋食・西洋料理,35.67016861,139.7666789,東京都中央区銀座3-13-11銀座芦澤ビル１Ｆ
"0,1,0,1,0,0,0,0,1","0.0,3.0,0.0,3.0,0.0,0.0,0.0,0.0,3.0",0.049266677357431565,285.21999679277053,1.0,1.0012128672254674,62966,ロマンツァ 銀座店,https://tabelog.com/tokyo/A1301/A130101/13132758/,イタリアン、パスタ、ピザ,洋食・西洋料理,35.67041486,139.7616174,東京都中央区銀座6‐9‐2クロサワビルB1F
"0,1,0,1,0,0,0,0,1","0.0,3.0,0.0,3.0,0.0,0.0,0.0,0.0,3.0",0.04056716480618149,287.82985055814555,1.0,1.000822509169539,58687,タナゴコロ ザバー,https://tabelog.com/tokyo/A1301/A130101/13122362/,バー,バー・お酒,35.67393833,139.7660192,東京都中央区銀座1-8-15B1F
"0,1,0,1,0,0,0,0,1","0.0,3.0,0.0,3.0,0.0,0.0,0.0,0.0,3.0",0.03237166380067511,290.28850085979747,1.0,1.000523825112238,64310,クラシックバー オリベ,https://tabelog.com/tokyo/A1301/A130101/13031126/,バー,バー・お酒,35.66921611,139.7650969,東京都中央区銀座5-13-2長岡ビル　７Ｆ
"0,1,0,1,0,0,0,0,1","0.0,3.0,0.0,3.0,0.0,0.0,0.0,0.0,3.0",0.02610935680667808,292.1671929579966,1.0,1.0003407911871125,62078,ヴェトナム・アリス 銀座店,https://tabelog.com/tokyo/A1301/A130101/13004096/,ベトナム料理,アジア・エスニック、中華料理,35.67422667,139.763205,東京都中央区銀座2-2-14マロニエゲート11Ｆ
"0,1,0,1,0,0,0,0,1","0.0,3.0,0.0,3.0,0.0,0.0,0.0,0.0,3.0",0.02405674439010511,292.78297668296847,1.0,1.000289321621825,60139,遊食豚彩 いちにいさん 銀座店,https://tabelog.com/tokyo/A1301/A130101/13002253/,豚しゃぶ、豚料理、とんかつ,焼肉・ホルモン・鍋,35.67381583,139.7622928,東京都中央区銀座西3-1銀座インズ1B1F
"0,1,0,1,0,0,0,0,1","0.0,3.0,0.0,3.0,0.0,0.0,0.0,0.0,3.0",0.010135251765892311,296.9594244702323,1.0,1.0000513603452363,63640,シンガポール・シーフード・リパブリック 銀座,https://tabelog.com/tokyo/A1301/A130101/13058590/,シンガポール料理、バイキング、アジア・エスニック料理（その他）,創作料理・無国籍料理,35.67427889,139.7632269,東京都中央区銀座2-2-14マロニエゲート銀座111F
"0,1,0,1,0,0,0,0,1","0.0,3.0,0.0,3.0,0.0,0.0,0.0,0.0,3.0",0.007794758624206679,297.661572412738,1.0,1.000030378669573,64398,東京銀座食堂,https://tabelog.com/tokyo/A1301/A130101/13190799/,定食・食堂,Ｂ級和食,35.67390528,139.7623469,東京都中央区銀座西3-1銀座インズ1B1F
"0,1,0,1,0,0,0,0,1","0.0,3.0,0.0,3.0,0.0,0.0,0.0,0.0,3.0",0.0013148211758766592,299.605553647237,1.0,1.0000008643769887,64490,遊食倶楽部,https://tabelog.com/tokyo/A1301/A130101/13049917/,居酒屋、和食（その他）、洋食・欧風料理（その他）,Ｂ級和食,35.67046639,139.7672181,東京都中央区銀座3-13-6Ｂ１Ｆ
"0,1,0,1,0,0,0,0,1","0.0,3.0,0.0,3.0,3.0,0.0,0.0,0.0,3.0",0.7052903192058795,88.41290423823617,0.707106781187,0.9987163933597623,64494,和もと,https://tabelog.com/tokyo/A1301/A130101/13083207/,割烹・小料理,高級和食,35.67099861,139.7646261,東京都中央区銀座4-8-12コチワビル　B1　北側
"0,1,0,1,0,0,0,0,1","0.0,3.0,0.0,3.0,3.0,0.0,0.0,0.0,3.0",0.7026087559536862,89.21737321389415,0.707106781187,0.9968244900396391,60291,Bacchusのさら.,https://tabelog.com/tokyo/A1301/A130101/13137480/,イタリアン、バル・バール、ワインバー,バー・お酒,35.67135135,139.7651624,東京都中央区銀座3-8-8太郎坊ビルB1Fこのお店は「中央区銀座2-8-2」から移転しています。※移転前の情報は最新のものとは異なります。移転前の店舗情報を見る
"0,1,0,1,0,0,0,0,1","0.0,3.0,0.0,3.0,3.0,0.0,0.0,0.0,3.0",0.7003131305271247,89.90606084186257,0.707106781187,0.9952077576007443,60451,銀座羊屋 はなれ,https://tabelog.com/tokyo/A1301/A130101/13119171/,ジンギスカン、焼肉、ホルモン,焼肉・ホルモン・鍋,35.6713702,139.7651839,東京都中央区銀座3-8-8太郎坊ビル　１Ｆ
"0,1,0,1,0,0,0,0,1","0.0,3.0,0.0,3.0,0.0,0.0,0.0,3.0,0.0",0.6955423643360793,91.33729069917621,0.707106781187,0.991856431438655,58385,ショットバー ギンザアンドレ,https://tabelog.com/tokyo/A1301/A130101/13119830/,バー,バー・お酒,35.67150822,139.7652716,東京都中央区銀座3丁目8-13銀座三丁目ビルディング　1Ｆ
"0,1,0,1,0,0,0,0,1","0.0,3.0,0.0,3.0,3.0,0.0,0.0,0.0,3.0",0.6851408841897761,94.45773474306716,0.707106781187,0.9845902859506326,64638,魚真 銀座店,https://tabelog.com/tokyo/A1301/A130101/13144140/,魚介料理・海鮮料理、居酒屋,高級和食,35.67093417,139.7645978,東京都中央区銀座4-8-12コチワビルB1F
"0,1,0,1,0,0,0,0,1","0.0,3.0,0.0,3.0,3.0,0.0,0.0,0.0,3.0",0.6851204277421364,94.46387167735907,0.707106781187,0.9845760511558099,58368,酒の穴,https://tabelog.com/tokyo/A1301/A130101/13002491/,居酒屋,居酒屋,35.67249194,139.7637919,東京都中央区銀座3-5-8銀座らん月　Ｂ１Ｆ
"0,1,0,1,0,0,0,0,1","0.0,3.0,0.0,3.0,0.0,0.0,0.0,3.0,0.0",0.6810106600840762,95.69680197477716,0.707106781187,0.9817206930426542,61112,居酒屋 いさば2号,https://tabelog.com/tokyo/A1301/A130101/13094653/,魚介料理・海鮮料理、かに,居酒屋,35.67092778,139.7646194,東京都中央区銀座4-8-12コチワビルB1F
"0,1,0,1,0,0,0,0,1","0.0,2.0,0.0,3.0,0.0,0.0,3.0,3.0,0.0",0.7918520931993999,62.44437204018003,0.57735026919,0.9799811584094892,61011,勘太屋 銀座松屋,https://tabelog.com/tokyo/A1301/A130101/13131000/,寿司,高級和食,35.67227694,139.7645567,東京都中央区銀座3-6-1松屋銀座B1F
"0,1,0,1,0,0,0,0,1","0.0,3.0,0.0,3.0,3.0,0.0,0.0,0.0,3.0",0.6565964346639588,103.02106960081235,0.707106781187,0.964945012948107,62866,ミスター・オールディーズ,https://tabelog.com/tokyo/A1301/A130101/13131906/,バー,バー・お酒,35.67083269,139.7644678,東京都中央区銀座4-8-11善隣ビル3階
"0,1,0,1,0,0,0,0,1","0.0,3.0,0.0,3.0,3.0,0.0,0.0,0.0,3.0",0.6306036502025905,110.81890493922285,0.707106781187,0.9474497156307723,64850,晴れる家 東京銀座本店,https://tabelog.com/tokyo/A1301/A130101/13140334/,魚介料理・海鮮料理、京料理、日本酒バー,高級和食,35.67090639,139.7649594,東京都中央区銀座4-9-15銀座吉岡屋ビルB1F
"0,1,0,1,0,0,0,0,1","0.0,3.0,0.0,3.0,3.0,0.0,0.0,0.0,3.0",0.6208935614824356,113.73193155526933,0.707106781187,0.9410147792093082,59080,KOREAN DINING 長寿韓酒房 銀座店,https://tabelog.com/tokyo/A1301/A130101/13048676/,韓国料理、居酒屋、ダイニングバー,バー・お酒,35.67119417,139.7653619,東京都中央区銀座3-9-11紙パルプ会館Ｂ１Ｆ
"0,1,0,1,0,0,0,0,1","0.0,3.0,0.0,3.0,0.0,0.0,0.0,3.0,0.0",0.6191755526614048,114.24733420157857,0.707106781187,0.9398821016561365,63027,ワインの酒場。ディプント 銀座三丁目店,https://tabelog.com/tokyo/A1301/A130101/13104889/,ダイニングバー、イタリアン、ワインバー,バー・お酒,35.67165861,139.7655647,東京都中央区銀座3‐9‐18東銀座ビル1F
"0,1,0,1,0,0,0,0,1","0.0,3.0,0.0,3.0,3.0,0.0,0.0,0.0,3.0",0.6146743496253447,115.59769511239656,0.707106781187,0.9369229189679056,58447,オアシス  バー フィール アット イーズィ,https://tabelog.com/tokyo/A1301/A130101/13078935/,バー、ダイニングバー、イタリアン,洋食・西洋料理,35.67274278,139.7639131,東京都中央区銀座3-5-16第2島田ビルB1F
"0,1,0,1,0,0,0,0,1","0.0,3.0,0.0,3.0,3.0,0.0,0.0,3.0,0.0",0.7270084704799651,81.89745885601047,0.57735026919,0.9283720426008916,59843,御座候,https://tabelog.com/tokyo/A1301/A130101/13081819/,お好み焼き、もんじゃ焼き,Ｂ級和食,35.67109563,139.7647218,東京都中央区銀座4-8-13銀座蟹睦会館ビル　1F
"0,1,0,1,0,0,0,0,1","0.0,3.0,0.0,3.0,3.0,0.0,0.0,3.0,0.0",0.7240929111210513,82.77212666368459,0.57735026919,0.9260906420373181,59016,Bar Quina,https://tabelog.com/tokyo/A1301/A130101/13090914/,バー,バー・お酒,35.67226917,139.7649669,東京都中央区銀座3-7-20徳永ビル　Ｂ１Ｆ
"0,1,0,1,0,0,0,0,1","0.0,3.0,0.0,3.0,3.0,0.0,0.0,0.0,3.0",0.5901721239513598,122.94836281459206,0.707106781187,0.9210337322211707,63575,アンフィニ,https://tabelog.com/tokyo/A1301/A130101/13007717/,ダイニングバー、バー、イタリアン,洋食・西洋料理,35.67235278,139.7631669,東京都中央区銀座4-4-2フォースタービル　Ｂ１Ｆ
"0,1,0,1,0,0,0,0,1","0.0,3.0,0.0,3.0,0.0,3.0,0.0,0.0,3.0",0.5834459244506892,124.96622266479324,0.707106781187,0.9167383196736785,60758,びすとろ家 銀座有楽町店,https://tabelog.com/tokyo/A1301/A130101/13056224/,居酒屋、ビストロ、鍋（その他）,洋食・西洋料理,35.67235861,139.763145,東京都中央区銀座4-4-2銀座フォースタービル5F
"0,1,0,1,0,0,0,0,1","0.0,3.0,0.0,3.0,0.0,0.0,3.0,3.0,0.0",0.7120575532647534,86.38273402057398,0.57735026919,0.9167111281612766,63800,武ちゃん,https://tabelog.com/tokyo/A1301/A130101/13007710/,焼鳥,Ｂ級和食,35.67102372,139.7646453,東京都中央区銀座4-8-13銀座蟹睦会館ビル　1Ｆ
"0,1,0,1,0,0,0,0,1","0.0,3.0,0.0,3.0,3.0,0.0,0.0,0.0,3.0",0.5832246791434462,125.03259625696616,0.707106781187,0.9165975269233362,60852,葱や田蔵 銀座四丁目店,https://tabelog.com/tokyo/A1301/A130101/13148771/,居酒屋、和食（その他）、しゃぶしゃぶ,Ｂ級和食,35.67235972,139.763145,東京都中央区銀座4-4-2銀座フォースタービル7F
"0,1,0,1,0,0,0,0,1","0.0,3.0,0.0,3.0,0.0,0.0,0.0,3.0,0.0",0.5612534892204946,131.62395323385164,0.707106781187,0.9027765388855539,64142,モッド,https://tabelog.com/tokyo/A1301/A130101/13007713/,バー,バー・お酒,35.67262167,139.7633192,東京都中央区銀座3-4-12文祥堂ビル1F
"0,1,0,1,0,0,0,0,1","0.0,2.0,0.0,3.0,0.0,0.0,0.0,3.0,0.0",0.5507545608809378,134.77363173571865,0.707106781187,0.896287111550286,59402,江戸前がってん寿司 銀座店,https://tabelog.com/tokyo/A1301/A130101/13152778/,居酒屋、寿司、天ぷら,高級和食,35.67281444,139.7635864,東京都中央区銀座3-4-7銀座サニービル1F
"0,1,0,1,0,0,0,0,1","0.0,3.0,0.0,3.0,3.0,0.0,0.0,3.0,0.0",0.6841410919621815,94.75767241134552,0.57735026919,0.8951996241311428,63786,バー・エバンス,https://tabelog.com/tokyo/A1301/A130101/13039892/,バー,バー・お酒,35.67181802,139.7653515,東京都中央区銀座3-8-15ＡＰＡ銀座中央ビル　Ｂ１Ｆ
"0,1,0,1,0,0,0,0,1","0.0,3.0,0.0,3.0,3.0,0.0,0.0,0.0,3.0",0.5349811099375666,139.50566701873,0.707106781187,0.8866818978585448,60370,麹蔵 銀座店,https://tabelog.com/tokyo/A1301/A130101/13020095/,居酒屋、しゃぶしゃぶ、沖縄料理,焼肉・ホルモン・鍋,35.67290722,139.7636997,東京都中央区銀座3-4-6正隆銀座ビルB1F
"0,1,0,1,0,0,0,0,1","0.0,3.0,0.0,3.0,3.0,0.0,0.0,0.0,3.0",0.532347317560954,140.2958047317138,0.707106781187,0.8850952866863224,63353,LOBOS 銀座,https://tabelog.com/tokyo/A1301/A130101/13093476/,スペイン料理、ダイニングバー、イタリアン,洋食・西洋料理,35.67055944,139.7648231,東京都中央区銀座4-9-6三原橋ビル　１Ｆ
"0,1,0,1,0,0,0,0,1","0.0,3.0,0.0,3.0,0.0,3.0,0.0,0.0,3.0",0.5232589248276934,143.02232255169196,0.707106781187,0.8796589693806537,64761,北京ダック専門店 ペキンカォヤテン 銀座店,https://tabelog.com/tokyo/A1301/A130101/13200207/,中華料理、飲茶・点心、広東料理,アジア・エスニック、中華料理,35.67248861,139.7656044,東京都中央区銀座2-8-12ユニデン銀座ビル5F6F
"0,1,0,1,0,0,0,0,1","0.0,3.0,0.0,3.0,3.0,0.0,0.0,0.0,3.0",0.5201143531553698,143.96569405338906,0.707106781187,0.8777920826472684,58880,がんこ 銀座４丁目店,https://tabelog.com/tokyo/A1301/A130101/13013327/,居酒屋、魚介料理・海鮮料理、鍋（その他）,高級和食,35.67227917,139.762855,東京都中央区銀座4-4-1銀座八光ビル　B1・B2Ｆ
"0,1,0,1,0,0,0,0,1","0.0,3.0,0.0,3.0,3.0,0.0,0.0,0.0,3.0",0.5038778229093249,148.83665312720254,0.707106781187,0.8682700388818223,64888,鳴尾,https://tabelog.com/tokyo/A1301/A130101/13002390/,ホルモン、焼肉、冷麺,アジア・エスニック、中華料理,35.67168181,139.7659497,東京都中央区銀座3-9-4第一文成ﾋﾞﾙ　1F
"0,1,0,1,0,0,0,0,1","0.0,3.0,0.0,3.0,3.0,0.0,0.0,0.0,3.0",0.4990591276696719,150.28226169909843,0.707106781187,0.8654825318343601,64457,ちゃんぷるぅ家,https://tabelog.com/tokyo/A1301/A130101/13009489/,沖縄料理、居酒屋、創作料理,創作料理・無国籍料理,35.67294583,139.7635239,東京都中央区銀座3-4-16銀座サニービル　Ｂ１Ｆ
"0,1,0,1,0,0,0,0,1","0.0,3.0,0.0,3.0,3.0,0.0,0.0,0.0,3.0",0.4975094516497497,150.7471645050751,0.707106781187,0.8645898764621495,62643,bar chair,https://tabelog.com/tokyo/A1301/A130101/13051664/,バー,バー・お酒,35.67077361,139.7654633,東京都中央区銀座4-10-6銀座AZA8F
"0,1,0,1,0,0,0,0,1","0.0,3.0,0.0,3.0,0.0,0.0,0.0,3.0,0.0",0.4954712071382294,151.35863785853118,0.707106781187,0.8634186221659886,59547,竹葉亭 銀座店,https://tabelog.com/tokyo/A1301/A130101/13002552/,うなぎ、割烹・小料理、懐石・会席料理,高級和食,35.67074889,139.763175,東京都中央区銀座5-8-3
"0,1,0,1,0,0,0,0,1","0.0,3.0,0.0,3.0,3.0,0.0,0.0,0.0,3.0",0.4742809750331917,157.7157074900425,0.707106781187,0.8514355191548184,60857,ZION,https://tabelog.com/tokyo/A1301/A130101/13124292/,イタリアン、スペイン料理、ダイニングバー,洋食・西洋料理,35.67052639,139.7634256,東京都中央区銀座5-9-1銀座コティビルB1
"0,1,0,1,0,0,0,0,1","0.0,3.0,0.0,3.0,3.0,0.0,0.0,0.0,3.0",0.46800235166839466,159.5992944994816,0.707106781187,0.847954126805895,64263,バー アトリウムギンザ,https://tabelog.com/tokyo/A1301/A130101/13028680/,バー,バー・お酒,35.67317333,139.7640369,東京都中央区銀座3-4-4大倉ビル別館
"0,1,0,1,0,0,0,0,1","0.0,3.0,0.0,3.0,3.0,0.0,0.0,0.0,3.0",0.45721866557000546,162.83440032899836,0.707106781187,0.8420504190044777,63292,裏NO庭 銀座店,https://tabelog.com/tokyo/A1301/A130101/13100429/,居酒屋、ダイニングバー、しゃぶしゃぶ,焼肉・ホルモン・鍋,35.67311901,139.7636536,東京都中央区銀座3-4-17銀座オプティカビル5F
"0,1,0,1,0,0,0,0,1","0.0,3.0,0.0,3.0,3.0,0.0,0.0,0.0,3.0",0.45618699107398736,163.1439026778038,0.707106781187,0.8414906837423326,58899,アフーネ,https://tabelog.com/tokyo/A1301/A130101/13035617/,タイ料理、インドネシア料理、ベトナム料理,アジア・エスニック、中華料理,35.67062872,139.7654708,東京都中央区銀座4-10-3セントラルビル　Ｂ１Ｆ
"0,1,0,1,0,0,0,0,1","0.0,3.0,0.0,3.0,3.0,0.0,0.0,0.0,3.0",0.45297878951833476,164.10636314449957,0.707106781187,0.8397557881631397,58622,日比谷 Bａｒ WHISKY-S,https://tabelog.com/tokyo/A1301/A130101/13004019/,バー、居酒屋、ダイニングバー,バー・お酒,35.67289306,139.7631547,東京都中央区銀座3-3-9金子ビル　Ｂ１Ｆ
"0,1,0,1,0,0,0,0,1","0.0,3.0,0.0,3.0,3.0,0.0,0.0,0.0,3.0",0.4527279798106417,164.18160605680748,0.707106781187,0.8396205236316135,58582,KEYAKI 欅,https://tabelog.com/tokyo/A1301/A130101/13019938/,ダイニングバー、バル・バール、居酒屋,バー・お酒,35.6727275,139.7629444,東京都中央区銀座3-3-11稲垣ビル　Ｂ１Ｆ
"0,1,0,1,0,0,0,0,1","0.0,3.0,0.0,3.0,3.0,0.0,0.0,0.0,3.0",0.44886167091465806,165.34149872560258,0.707106781187,0.8375421181148438,58872,ぎんざ磯むら 本店,https://tabelog.com/tokyo/A1301/A130101/13013283/,和食（その他）、串揚げ・串かつ、居酒屋,Ｂ級和食,35.67062654,139.765505,東京都中央区銀座4-10-3セントラルビル　Ｂ１Ｆ
"0,1,0,1,0,0,0,0,1","0.0,3.0,0.0,3.0,0.0,3.0,0.0,0.0,3.0",0.4334431443177984,169.96705670466048,0.707106781187,0.8293810700492867,59978,鳥ばか一代,https://tabelog.com/tokyo/A1301/A130101/13108941/,焼鳥、鳥料理、居酒屋,Ｂ級和食,35.6729875,139.7631981,東京都中央区銀座3-3-81F～3F
"0,1,0,1,0,0,0,0,1","0.0,3.0,0.0,3.0,3.0,0.0,0.0,0.0,3.0",0.4170622093984884,174.88133718045347,0.707106781187,0.8209390272781217,59176,東京園,https://tabelog.com/tokyo/A1301/A130101/13002566/,焼肉,焼肉・ホルモン・鍋,35.67034278,139.7634428,東京都中央区銀座5-9-5
"0,1,0,1,0,0,0,0,1","0.0,3.0,0.0,3.0,0.0,0.0,0.0,3.0,0.0",0.4165464628422862,175.03606114731414,0.707106781187,0.8206771324378548,61329,よしの,https://tabelog.com/tokyo/A1301/A130101/13078237/,居酒屋,居酒屋,35.67034167,139.7634417,東京都中央区銀座5-9-5
"0,1,0,1,0,0,0,0,1","0.0,3.0,0.0,3.0,3.0,0.0,0.0,0.0,3.0",0.41158345569204274,176.52496329238718,0.707106781187,0.8181692618275291,63571,アイアン フェアリーズ ギンザ,https://tabelog.com/tokyo/A1301/A130101/13192334/,バー,バー・お酒,35.67031091,139.7634818,東京都中央区銀座5-9-5チアーズ銀座B1F
"0,1,0,1,0,0,0,0,1","0.0,3.0,0.0,3.0,3.0,0.0,0.0,0.0,3.0",0.41135961462844817,176.59211561146554,0.707106781187,0.8180566805223618,64441,和心庭　一蔵銀座,https://tabelog.com/tokyo/A1301/A130101/13092010/,居酒屋、懐石・会席料理、おでん,高級和食,35.67031028,139.7634817,東京都中央区銀座5-9-5チアーズビル3F
"0,1,0,1,0,0,0,0,1","0.0,3.0,0.0,3.0,0.0,3.0,0.0,0.0,3.0",0.41135961462844817,176.59211561146554,0.707106781187,0.8180566805223618,64810,のぼせもん,https://tabelog.com/tokyo/A1301/A130101/13117806/,居酒屋、焼鳥、もつ鍋,居酒屋,35.67031028,139.7634817,東京都中央区銀座5-9-5チアーズ銀座7F
"0,1,0,1,0,0,0,0,1","0.0,3.0,0.0,3.0,3.0,0.0,0.0,0.0,3.0",0.41068507310647767,176.7944780680567,0.707106781187,0.8177176953401907,58491,松尾ジンギスカン 銀座店,https://tabelog.com/tokyo/A1301/A130101/13117903/,ジンギスカン、焼肉、鍋（その他）,焼肉・ホルモン・鍋,35.67030861,139.7634808,東京都中央区銀座5-9-5チアーズ銀座ビル2F
"0,1,0,1,0,0,0,0,1","0.0,3.0,0.0,3.0,0.0,0.0,0.0,3.0,0.0",0.39855761785538607,180.43271464338417,0.707106781187,0.811694631465898,64289,shiokara,https://tabelog.com/tokyo/A1301/A130101/13002280/,バー、割烹・小料理,高級和食,35.673075,139.7654669,東京都中央区銀座2-7-7銀座ロビービル　Ｂ１Ｆ
"0,1,0,1,0,0,0,0,1","0.0,3.0,0.0,3.0,0.0,3.0,0.0,0.0,3.0",0.3945300824761811,181.64097525714567,0.707106781187,0.8097246358970822,59915,小肥羊 銀座店,https://tabelog.com/tokyo/A1301/A130101/13145479/,中国鍋・火鍋、しゃぶしゃぶ、中華料理,焼肉・ホルモン・鍋,35.67336045,139.7646817,東京都中央区銀座2-6-9ginza269ビル5F
"0,1,0,1,0,0,0,0,1","0.0,3.0,0.0,3.0,3.0,0.0,0.0,0.0,3.0",0.38730894065599375,183.80731780320187,0.707106781187,0.8062308698580501,63928,N9Y BUTCHER'S GRILL NEWYORK 銀座店,https://tabelog.com/tokyo/A1301/A130101/13138373/,ビアホール・ビアレストラン、ステーキ、バル・バール,洋食・西洋料理,35.67335861,139.7648031,東京都中央区銀座2-6-8B1F
"0,1,0,1,0,0,0,0,1","0.0,3.0,0.0,3.0,3.0,0.0,0.0,0.0,3.0",0.38675986365726267,183.9720409028212,0.707106781187,0.8059672401135077,61793,肉バルGABURICO 銀座並木通り店,https://tabelog.com/tokyo/A1301/A130101/13200598/,バル・バール、居酒屋、焼肉,焼肉・ホルモン・鍋,35.673015,139.7629914,東京都中央区銀座3-3-14グランディア2ビル4F
"0,1,0,1,0,0,0,0,1","0.0,3.0,0.0,3.0,0.0,0.0,0.0,3.0,0.0",0.38424850413060757,184.72544876081773,0.707106781187,0.8047651290448721,59448,築地玉寿司 コア銀座店,https://tabelog.com/tokyo/A1301/A130101/13007811/,寿司、魚介料理・海鮮料理,高級和食,35.67061139,139.7628217,東京都中央区銀座5-8-20銀座コアB2F
"0,1,0,1,0,0,0,0,1","0.0,2.0,0.0,3.0,0.0,3.0,0.0,0.0,3.0",0.3640712112471018,190.77863662586947,0.707106781187,0.7953287665229594,59431,ジョルジュ・アン・サンク,https://tabelog.com/tokyo/A1301/A130101/13201355/,フレンチ、ワインバー、ステーキ,洋食・西洋料理,35.67302361,139.7657264,東京都中央区銀座2-8-17ハビウル銀座Ⅱ3F
"0,1,0,1,0,0,0,0,1","0.0,3.0,0.0,3.0,3.0,3.0,0.0,0.0,3.0",0.5358499751159437,139.2450074652169,0.57735026919,0.7876982475320679,62227,GOSS,https://tabelog.com/tokyo/A1301/A130101/13042218/,バル・バール、ワインバー、フレンチ,洋食・西洋料理,35.67290417,139.7636983,東京都中央区銀座3-4-6正隆銀座ビル　１Ｆ　
"0,1,0,1,0,0,0,0,1","0.0,3.0,0.0,3.0,0.0,3.0,0.0,0.0,3.0",0.34535246221483507,196.3942613355495,0.707106781187,0.7869360349849593,60624,ベルニーニ 東京,https://tabelog.com/tokyo/A1301/A130101/13097882/,ピザ、イタリアン、ワインバー,バー・お酒,35.67203722,139.7664489,東京都中央区銀座2-11-13銀座歌茶屋ビル1F
"0,1,0,1,0,0,0,0,1","0.0,3.0,0.0,3.0,3.0,0.0,0.0,0.0,3.0",0.3416800260851757,197.49599217444728,0.707106781187,0.7853312932931976,62112,歌茶屋,https://tabelog.com/tokyo/A1301/A130101/13031141/,お好み焼き、もんじゃ焼き,Ｂ級和食,35.67206694,139.766455,東京都中央区銀座2-11-13歌茶屋ビル　Ｂ１Ｆ
"0,1,0,1,0,0,0,0,1","0.0,3.0,0.0,3.0,0.0,3.0,0.0,0.0,3.0",0.3414001808791371,197.57994573625888,0.707106781187,0.7852095793508301,62125,L'Echanson,https://tabelog.com/tokyo/A1301/A130101/13017090/,フレンチ、バー,洋食・西洋料理,35.67267111,139.7661772,東京都中央区銀座2-9-4メルキュールホテル銀座東京2F
"0,1,0,1,0,0,0,0,1","0.0,3.0,0.0,3.0,3.0,0.0,0.0,0.0,3.0",0.3366723837843745,198.99828486468766,0.707106781187,0.7831655597656559,61290,肉と日本酒 jogo～上戸～ 銀座店,https://tabelog.com/tokyo/A1301/A130101/13183589/,居酒屋、日本酒バー、バル・バール,バー・お酒,35.67351306,139.7647244,東京都中央区銀座2-6-15第一吉田ビル　B1Ｆ
"0,1,0,1,0,0,0,0,1","0.0,3.0,0.0,3.0,3.0,0.0,0.0,0.0,3.0",0.33228115813617537,200.3156525591474,0.707106781187,0.7812878906346354,61427,SQUARE MEALS みなもと,https://tabelog.com/tokyo/A1301/A130101/13032413/,ダイニングバー、イタリアン、地中海料理,洋食・西洋料理,35.67030778,139.7629803,東京都中央区銀座5-9-17銀座あづまビル　Ｂ１Ｆ
"0,1,0,1,0,0,0,0,1","0.0,3.0,0.0,3.0,3.0,0.0,0.0,0.0,3.0",0.32422053199187806,202.73384040243658,0.707106781187,0.7778939216661206,60091,寿シーフード,https://tabelog.com/tokyo/A1301/A130102/13156140/,居酒屋、ワインバー、魚介料理・海鮮料理,バー・お酒,35.67025531,139.7630235,東京都中央区銀座5-9-17あずまビル2F
"0,1,0,1,0,0,0,0,1","0.0,2.0,0.0,3.0,0.0,3.0,0.0,3.0,0.0",0.5208487791583607,143.74536625249178,0.57735026919,0.7775710797631867,64847,Kaoru ginza ～香る銀座～,https://tabelog.com/tokyo/A1301/A130101/13197082/,居酒屋、創作料理、洋食,創作料理・無国籍料理,35.67254368,139.7655648,東京都中央区銀座2-8-12ユニデン銀座ビル8F
"0,1,0,1,0,0,0,0,1","0.0,2.0,0.0,3.0,0.0,0.0,0.0,3.0,0.0",0.3139277712708441,205.82166861874677,0.707106781187,0.7736605493206175,61455,那須高原の食卓　なすの屋 銀座,https://tabelog.com/tokyo/A1301/A130101/13192468/,野菜料理、居酒屋、創作料理,創作料理・無国籍料理,35.67336639,139.7654278,東京都中央区銀座2-7-18メルサginza-24F
"0,1,0,1,0,0,0,0,1","0.0,3.0,0.0,3.0,3.0,0.0,0.0,0.0,3.0",0.2978177250876565,210.65468247370305,0.707106781187,0.767264880843889,59536,炭焼人HACHI,https://tabelog.com/tokyo/A1301/A130101/13167677/,日本酒バー、居酒屋、もつ鍋,バー・お酒,35.67300917,139.7625644,東京都中央区銀座3-2-13銀座江戸常ビルB1F
"0,1,0,1,0,0,0,0,1","0.0,3.0,0.0,3.0,3.0,0.0,0.0,0.0,3.0",0.29183726173107527,212.44882148067742,0.707106781187,0.7649633895388016,63245,エル・チャテオ 銀座店,https://tabelog.com/tokyo/A1301/A130102/13002268/,スペイン料理、バル・バール、ワインバー,バー・お酒,35.67308278,139.7626208,東京都中央区銀座3-2-12全研ビル　１Ｆ・２Ｆ
"0,1,0,1,0,0,0,0,1","0.0,3.0,0.0,3.0,3.0,0.0,0.0,0.0,3.0",0.28709096856093075,213.87270943172078,0.707106781187,0.7631652666554299,63852,B.E.HOUSE HIBIYA Bar,https://tabelog.com/tokyo/A1301/A130101/13167852/,ダイニングバー、イタリアン、バル・バール,洋食・西洋料理,35.67126639,139.7620219,東京都中央区銀座5-6-5NOCO7F
"0,1,0,1,0,0,0,0,1","0.0,3.0,0.0,3.0,0.0,0.0,0.0,3.0,0.0",0.2853362850057427,214.39911449827719,0.707106781187,0.7625069150774165,63406,バー・ジン,https://tabelog.com/tokyo/A1301/A130101/13035461/,バー,バー・お酒,35.67088556,139.7664247,東京都中央区銀座3-11-16Ｇ３ギンザビル
"0,1,0,1,0,0,0,0,1","0.0,3.0,0.0,3.0,3.0,0.0,0.0,0.0,3.0",0.2837675919278136,214.86972242165592,0.707106781187,0.7619212861106521,61939,A4-5 BEEF BAR,https://tabelog.com/tokyo/A1301/A130101/13175168/,焼肉、イタリアン、ワインバー,バー・お酒,35.6731425,139.7626561,東京都中央区銀座3-2-11
"0,1,0,1,0,0,0,0,1","0.0,3.0,0.0,3.0,3.0,0.0,0.0,0.0,3.0",0.28250611509625884,215.24816547112235,0.707106781187,0.7614523655927407,62306,創作割烹 東,https://tabelog.com/tokyo/A1301/A130101/13208692/,居酒屋、ダイニングバー、割烹・小料理,高級和食,35.67218472,139.7666256,東京都中央区銀座2-11-15SF銀座ビルB1F
"0,1,0,1,0,0,0,0,1","0.0,3.0,0.0,3.0,3.0,0.0,0.0,0.0,3.0",0.28226736641895445,215.31979007431366,0.707106781187,0.7613638198293194,59904,地鶏専門個室居酒屋 鳥銀 銀座店,https://tabelog.com/tokyo/A1301/A130101/13207608/,居酒屋、ダイニングバー、鳥料理,居酒屋,35.67218583,139.7666261,東京都中央区銀座2-11-15SF銀座ビルB1F
"0,1,0,1,0,0,0,0,1","0.0,3.0,0.0,3.0,0.0,3.0,0.0,0.0,3.0",0.2803937870609141,215.88186388172576,0.707106781187,0.7606712008630019,58699,びいどろ 銀座店,https://tabelog.com/tokyo/A1301/A130101/13015023/,スペイン料理、ビストロ、西洋各国料理（その他）,洋食・西洋料理,35.67044222,139.7625447,東京都中央区銀座5-8プラザ５８ビル　Ｂ１Ｆ
"0,1,0,1,0,0,0,0,1","0.0,3.0,0.0,3.0,3.0,3.0,0.0,0.0,3.0",0.4947149743983379,151.58550768049864,0.57735026919,0.7603132507245165,63131,BAR　Recette,https://tabelog.com/tokyo/A1301/A130101/13176654/,バー,バー・お酒,35.67077083,139.7654731,東京都中央区銀座4-10-1HOLON-GINZA　11F
"0,1,0,1,0,0,0,0,1","0.0,3.0,0.0,3.0,0.0,3.0,0.0,0.0,3.0",0.2722921866478524,218.3123440056443,0.707106781187,0.757722267661093,63017,カリーナ・イルキャンティ,https://tabelog.com/tokyo/A1301/A130101/13053892/,イタリアン、パスタ、ピザ,洋食・西洋料理,35.67085361,139.7664533,東京都中央区銀座3-11-16Ｇ－３銀座ビル　１Ｆ
"0,1,0,1,0,0,0,0,1","0.0,3.0,0.0,3.0,3.0,0.0,0.0,0.0,3.0",0.2517632030034798,224.47103909895606,0.707106781187,0.7505895751917765,64258,原始炭焼 いろり家,https://tabelog.com/tokyo/A1301/A130101/13032924/,居酒屋、ろばた焼き、創作料理,Ｂ級和食,35.67048833,139.7662442,東京都中央区銀座3-11-11銀座参番館２　Ｂ１Ｆ
"0,1,0,1,0,0,0,0,1","0.0,3.0,0.0,3.0,3.0,0.0,0.0,0.0,3.0",0.23917850280478614,228.24644915856416,0.707106781187,0.7464625618233905,60354,オステリア ミオ・バール,https://tabelog.com/tokyo/A1301/A130101/13155965/,イタリアン、ワインバー、パスタ,バー・お酒,35.67066861,139.7664511,東京都中央区銀座3-11-8第6丸嘉ビル2F
"0,1,0,1,0,0,0,0,1","0.0,3.0,0.0,3.0,3.0,0.0,0.0,0.0,3.0",0.22472478280893968,232.5825651573181,0.707106781187,0.7419576996086268,60784,Cucina del NABUCCO,https://tabelog.com/tokyo/A1301/A130101/13195126/,イタリアン、パスタ、ワインバー,バー・お酒,35.67380917,139.7638144,東京都中央区銀座2-4-12ミキモトギンザ27F
