user_vec,shop_vec,dist_score,distance [m],cosθ,oaiso_score,id,shop_name,URL,genre,oaiso_genre,lat,lng,address
"0,1,0,1,0,0,0,1,0","0.0,3.0,0.0,3.0,0.0,0.0,0.0,3.0,0.0",0.7873476644634265,106.32616776828675,1.0,1.2727593428201627,61612,酒 龍馬,https://tabelog.com/tokyo/A1302/A130202/13033536/,居酒屋、日本酒バー、焼酎バー,バー・お酒,35.67689801,139.7689006,東京都中央区京橋2-7-15鈴木ビル１階
"0,1,0,1,0,0,0,1,0","0.0,3.0,0.0,3.0,0.0,0.0,0.0,3.0,0.0",0.7413406978296628,129.32965108516856,1.0,1.2448236944477604,58802,新橋やきとん 京橋店,https://tabelog.com/tokyo/A1302/A130202/13207076/,焼きとん,Ｂ級和食,35.6777858,139.7695959,東京都中央区京橋1-6-5
"0,1,0,1,0,0,0,1,0","0.0,3.0,0.0,3.0,0.0,0.0,0.0,3.0,0.0",0.7125844922060506,143.70775389697476,1.0,1.2279155746762702,63361,尊 京橋店,https://tabelog.com/tokyo/A1302/A130202/13102124/,居酒屋、焼酎バー、郷土料理（その他）,高級和食,35.67675167,139.7716289,東京都中央区京橋1-19-2鹿島ビル　１Ｆ
"0,1,0,1,0,0,0,1,0","0.0,3.0,0.0,3.0,3.0,0.0,0.0,3.0,0.0",0.827953282828644,86.023358585678,0.816496580928,1.162829869419166,62253,Halco,https://tabelog.com/tokyo/A1302/A130201/13158959/,ワインバー、バー、バー・お酒（その他）,バー・お酒,35.67600531,139.7695737,東京都中央区京橋2-12-2京橋三貴ビル1F
"0,1,0,1,0,0,0,1,0","0.0,3.0,0.0,3.0,0.0,0.0,0.0,0.0,3.0",0.9152288910719008,42.38555446404964,0.707106781187,1.1565655723099755,60292,新世界,https://tabelog.com/tokyo/A1302/A130202/13099828/,中華料理、居酒屋、上海料理,アジア・エスニック、中華料理,35.67706028,139.770015,東京都中央区京橋2-9-12日本工業1号館ビル　B1F
"0,1,0,1,0,0,0,1,0","0.0,3.0,0.0,3.0,0.0,0.0,0.0,3.0,0.0",0.5668894956473075,216.55525217634622,1.0,1.1495058504745674,62672,アリスアクアガーデン トウキョウ 銀座店,https://tabelog.com/tokyo/A1302/A130201/13159258/,レストラン（その他）,創作料理・無国籍料理,35.67568361,139.7679864,東京都中央区京橋3-7-1京橋相互館110タワーＢ1Ｆ
"0,1,0,1,0,0,0,1,0","0.0,3.0,0.0,3.0,0.0,0.0,0.0,3.0,0.0",0.5182775601051135,240.86121994744323,1.0,1.1263266086302453,60724,酒蔵駒忠 京橋三丁目店,https://tabelog.com/tokyo/A1302/A130202/13075670/,居酒屋,居酒屋,35.67487417,139.7685656,東京都中央区京橋3-9-9
"0,1,0,1,0,0,0,1,0","0.0,3.0,0.0,3.0,3.0,0.0,0.0,3.0,0.0",0.7631779577124638,118.41102114376811,0.816496580928,1.1176346727821367,60621,焼き鳥　つくね 京橋店,https://tabelog.com/tokyo/A1302/A130202/13142142/,焼鳥,Ｂ級和食,35.67771919,139.7697515,東京都中央区京橋1-6-6金葉ビル別館1F
"0,1,0,1,0,0,0,1,0","0.0,3.0,0.0,3.0,0.0,0.0,0.0,3.0,0.0",0.47356918130650955,263.2154093467452,1.0,1.1064663435836255,60032,はっちゃけ,https://tabelog.com/tokyo/A1302/A130202/13054505/,居酒屋,居酒屋,35.67455492,139.7713388,東京都中央区八丁堀4-2-2共同ビル新京橋
"0,1,0,1,0,0,0,1,0","0.0,3.0,0.0,3.0,0.0,0.0,0.0,3.0,0.0",0.4669112714306714,266.5443642846643,1.0,1.1036331525416434,61344,天ささ,https://tabelog.com/tokyo/A1302/A130202/13039920/,天ぷら,高級和食,35.67560041,139.7674132,東京都中央区京橋3-6-21十合ビル1階
"0,1,0,1,0,0,0,1,0","0.0,3.0,0.0,3.0,0.0,0.0,0.0,3.0,0.0",0.46007675337881826,269.9616233105909,1.0,1.1007591103414016,60700,藤尾,https://tabelog.com/tokyo/A1302/A130202/13053769/,焼鳥、串焼き,Ｂ級和食,35.67517797,139.7723909,東京都中央区八丁堀3-9-5
"0,1,0,1,0,0,0,1,0","0.0,2.0,0.0,3.0,0.0,0.0,0.0,3.0,0.0",0.4220989271356514,288.9505364321743,1.0,1.085434246874986,61084,BEEF UP TOKYO charcoal grill & bar,https://tabelog.com/tokyo/A1302/A130202/13036705/,ステーキ、ワインバー、鉄板焼き,洋食・西洋料理,35.67539611,139.7672664,東京都中央区京橋3-6-18東京建物京橋ビル　B1
"0,1,0,1,0,0,0,1,0","0.0,2.0,0.0,3.0,0.0,0.0,0.0,3.0,0.0",0.3730861744087994,313.4569127956003,1.0,1.0673299834329555,60216,Babelico,https://tabelog.com/tokyo/A1302/A130202/13212078/,バル・バール、イタリアン,洋食・西洋料理,35.67881222,139.7677739,東京都中央区京橋1-4-41F～B1F
"0,1,0,1,0,0,0,1,0","0.0,3.0,0.0,3.0,0.0,0.0,0.0,0.0,3.0",0.7973278376053731,101.3360811973135,0.707106781187,1.065707127038409,58814,園林閣,https://tabelog.com/tokyo/A1302/A130202/13007733/,広東料理、中華料理、餃子,アジア・エスニック、中華料理,35.67687568,139.7689509,東京都中央区京橋2-7-15亜細亜ビル　１Ｆ
"0,1,0,1,0,0,0,1,0","0.0,3.0,0.0,3.0,0.0,0.0,0.0,3.0,0.0",0.3049594276958934,347.5202861520533,1.0,1.0454665238737235,63958,備長炭や いこる,https://tabelog.com/tokyo/A1302/A130202/13119170/,居酒屋、ろばた焼き、定食・食堂,Ｂ級和食,35.6736325,139.7691525,東京都中央区銀座1-19-3ウイステーリアビル　１Ｆ
"0,1,0,1,0,0,0,1,0","0.0,3.0,0.0,3.0,3.0,0.0,0.0,0.0,3.0",0.9121686065298177,43.91569673509117,0.5,1.0402170767385763,64291,京橋ZION,https://tabelog.com/tokyo/A1302/A130202/13195184/,スペイン料理、イタリアン、ダイニングバー,洋食・西洋料理,35.67707278,139.769995,東京都中央区京橋2-9-12日本工築1号館1F
"0,1,0,1,0,0,0,1,0","0.0,3.0,0.0,3.0,0.0,0.0,0.0,3.0,0.0",0.26673083146025034,366.63458426987484,1.0,1.0349615144784257,58886,宝月,https://tabelog.com/tokyo/A1302/A130202/13070037/,懐石・会席料理、割烹・小料理,高級和食,35.67980694,139.7713498,東京都中央区日本橋3-7-8
"0,1,0,1,0,0,0,1,0","0.0,3.0,0.0,3.0,0.0,0.0,0.0,3.0,0.0",0.260719864526872,369.640067736564,1.0,1.0334286853764563,65063,中華・香港居酒屋 龍記 東京・八重洲店,https://tabelog.com/tokyo/A1302/A130201/13209518/,居酒屋、中華料理,居酒屋,35.67937139,139.7676392,東京都中央区京橋1-4-13初音ビル
"0,1,0,1,0,0,0,1,0","0.0,3.0,0.0,3.0,0.0,0.0,0.0,3.0,0.0",0.25038012540567595,374.80993729716204,1.0,1.0308686663189264,60468,とんかつ富士,https://tabelog.com/tokyo/A1302/A130202/13054305/,とんかつ,Ｂ級和食,35.67640288,139.7659177,東京都中央区八重洲2-8-11
"0,1,0,1,0,0,0,1,0","0.0,3.0,0.0,3.0,0.0,0.0,0.0,3.0,0.0",0.2470639111059112,376.4680444470444,1.0,1.0300682385992443,62462,Bar Terra,https://tabelog.com/tokyo/A1301/A130101/13022998/,スペイン料理、ダイニングバー,洋食・西洋料理,35.67539083,139.7661969,東京都中央区京橋3-4-4
"0,1,0,1,0,0,0,1,0","0.0,3.0,0.0,3.0,0.0,0.0,0.0,3.0,0.0",0.24461488633200407,377.69255683399797,1.0,1.0294835805466833,61516,和どころ いちふじ,https://tabelog.com/tokyo/A1301/A130101/13203352/,割烹・小料理,高級和食,35.67424556,139.7671267,東京都中央区銀座1-9-5池田ビルB1F
"0,1,0,1,0,0,0,1,0","0.0,3.0,0.0,3.0,0.0,0.0,0.0,3.0,0.0",0.23670708312631872,381.64645843684065,1.0,1.0276333213759516,60077,かつ新,https://tabelog.com/tokyo/A1302/A130203/13048387/,とんかつ,Ｂ級和食,35.67614111,139.7742078,東京都中央区八丁堀2-18-3
"0,1,0,1,0,0,0,1,0","0.0,3.0,0.0,3.0,0.0,0.0,0.0,3.0,0.0",0.23365916889354196,383.170415553229,1.0,1.0269355418954107,62255,世界の山ちゃん 銀座京橋店,https://tabelog.com/tokyo/A1313/A131301/13126156/,居酒屋、鳥料理、鍋（その他）,焼肉・ホルモン・鍋,35.67576215,139.7659634,東京都中央区京橋3-3-13平和ビル3号館B1
"0,1,0,1,0,0,0,1,0","0.0,3.0,0.0,3.0,0.0,0.0,0.0,3.0,0.0",0.231462429912822,384.268785043589,1.0,1.0264379457430186,59465,かく山,https://tabelog.com/tokyo/A1302/A130203/13056498/,居酒屋、定食・食堂,居酒屋,35.676045,139.7742169,東京都中央区八丁堀2丁目18-7
"0,1,0,1,0,0,0,1,0","0.0,3.0,0.0,3.0,0.0,0.0,0.0,3.0,0.0",0.19247282819181488,403.76358590409257,1.0,1.0183544518448162,62719,一番どり 八重洲口店,https://tabelog.com/tokyo/A1302/A130201/13058789/,居酒屋、串焼き,居酒屋,35.67977778,139.7677056,東京都中央区八重洲2-1-4松勇八重洲ビル　Ｂ１Ｆ
"0,1,0,1,0,0,0,1,0","0.0,3.0,0.0,3.0,0.0,0.0,0.0,3.0,0.0",0.1897342008793437,405.13289956032816,1.0,1.0178403936685374,58732,鳥の利久 八重洲口店,https://tabelog.com/tokyo/A1302/A130201/13185261/,居酒屋、和食（その他）,Ｂ級和食,35.67972472,139.7675756,東京都中央区八重洲2-1-47F
"0,1,0,1,0,0,0,1,0","0.0,3.0,0.0,3.0,0.0,0.0,0.0,3.0,0.0",0.1897342008793437,405.13289956032816,1.0,1.0178403936685374,63168,はなの膳 八重洲,https://tabelog.com/tokyo/A1302/A130201/13189692/,和食（その他）,Ｂ級和食,35.67972472,139.7675756,東京都中央区八重洲2-1-43F
"0,1,0,1,0,0,0,1,0","0.0,3.0,0.0,3.0,0.0,0.0,0.0,3.0,0.0",0.17186599232373898,414.0670038381305,1.0,1.0146614801584928,59372,山城屋,https://tabelog.com/tokyo/A1302/A130203/13057319/,とんかつ,Ｂ級和食,35.67648335,139.7746115,東京都中央区八丁堀2-15-8
"0,1,0,1,0,0,0,1,0","0.0,3.0,0.0,3.0,0.0,0.0,0.0,3.0,0.0",0.16533727081380029,417.33136459309986,1.0,1.0135760519665784,58895,かわうめ,https://tabelog.com/tokyo/A1302/A130203/13042930/,串焼き,Ｂ級和食,35.67547194,139.77441,東京都中央区八丁堀3-19-9京橋第６長岡ビル　Ｂ１Ｆ
"0,1,0,1,0,0,0,1,0","0.0,3.0,0.0,3.0,0.0,0.0,0.0,3.0,0.0",0.14815389808786347,425.92305095606827,1.0,1.010915217769833,64268,築地 ナカシマルシェ 八重洲店,https://tabelog.com/tokyo/A1302/A130201/13196000/,バル・バール,バー・お酒,35.67989136,139.7674682,東京都中央区八重洲2-1八重洲地下街南1
"0,1,0,1,0,0,0,1,0","0.0,3.0,0.0,3.0,0.0,0.0,0.0,3.0,0.0",0.13649028152573145,431.75485923713427,1.0,1.0092718151969633,63889,心の巣,https://tabelog.com/tokyo/A1302/A130203/13186010/,居酒屋,居酒屋,35.67798864,139.774535,東京都中央区八丁堀1-7-8若狭ビル2Fこのお店は「中央区築地2-10-1」から移転しています。※移転前の情報は最新のものとは異なります。移転前の店舗情報を見る
"0,1,0,1,0,0,0,1,0","0.0,3.0,0.0,3.0,0.0,0.0,0.0,3.0,0.0",0.12718491642700008,436.40754178649996,1.0,1.0080555554960962,60933,ふくじゅう 東京駅八重洲地下街店,https://tabelog.com/tokyo/A1302/A130201/13039042/,お好み焼き,Ｂ級和食,35.67848944,139.7657644,東京都中央区八重洲2-1八重洲地下街外堀地下2番通り
"0,1,0,1,0,0,0,1,0","0.0,3.0,0.0,3.0,0.0,0.0,0.0,3.0,0.0",0.11238459496524672,443.80770251737664,1.0,1.0062953329840612,64079,玉乃光酒蔵 八重洲地下街店,https://tabelog.com/tokyo/A1302/A130201/13011510/,居酒屋、日本酒バー、魚介料理・海鮮料理,高級和食,35.67928278,139.7663225,東京都中央区八重洲地下街南1号八重洲地下街　オレンジロード
"0,1,0,1,0,0,0,1,0","0.0,3.0,0.0,3.0,0.0,0.0,0.0,3.0,0.0",0.11015124427115813,444.92437786442093,1.0,1.006048356996066,61617,ジェントルハウス,https://tabelog.com/tokyo/A1301/A130101/13113529/,バー,バー・お酒,35.67328783,139.7674211,東京都中央区銀座1-14-14
"0,1,0,1,0,0,0,1,0","0.0,3.0,0.0,3.0,0.0,0.0,0.0,3.0,0.0",0.10966509675341422,445.1674516232929,1.0,1.0059952452402225,63463,串揚右門,https://tabelog.com/tokyo/A1302/A130203/13083433/,居酒屋,居酒屋,35.67877187,139.7742394,東京都中央区日本橋兜町20-1
"0,1,0,1,0,0,0,1,0","0.0,3.0,0.0,3.0,0.0,0.0,0.0,3.0,0.0",0.10814998528924287,445.92500735537857,1.0,1.0058312081647016,61718,アン カルネ,https://tabelog.com/tokyo/A1302/A130203/13113018/,イタリアン、バー,洋食・西洋料理,35.67511444,139.7745811,東京都中央区八丁堀3-20-8
"0,1,0,1,0,0,0,1,0","0.0,3.0,0.0,3.0,0.0,0.0,0.0,3.0,0.0",0.10524975128643803,447.375124356781,1.0,1.0055235005438,58945,お食事処 すいしんたい乃家,https://tabelog.com/tokyo/A1302/A130201/13045111/,割烹・小料理、日本酒バー,高級和食,35.6795175,139.7665342,東京都中央区八重洲2-1八重洲地下街外堀地下2番通り
"0,1,0,1,0,0,0,1,0","0.0,3.0,0.0,3.0,0.0,0.0,0.0,3.0,0.0",0.10052266452483707,449.73866773758147,1.0,1.0050397037347196,64914,升寿司 南店,https://tabelog.com/tokyo/A1302/A130201/13048012/,寿司,高級和食,35.680535,139.7685125,東京都中央区八重洲1-8-7第１０７東京ビル１Ｆ
"0,1,0,1,0,0,0,1,0","0.0,3.0,0.0,3.0,0.0,0.0,0.0,3.0,0.0",0.09484575559544203,452.577122202279,1.0,1.0044877885541816,58683,やきとりのほっと屋 八丁堀店,https://tabelog.com/tokyo/A1302/A130203/13134860/,焼鳥,Ｂ級和食,35.67474806,139.7744475,東京都中央区八丁堀3-21-5
"0,1,0,1,0,0,0,1,0","0.0,3.0,0.0,3.0,0.0,0.0,0.0,3.0,0.0",0.0886501499497806,455.6749250251097,1.0,1.0039217345421498,63804,武平次 八丁堀本店,https://tabelog.com/tokyo/A1302/A130203/13137762/,居酒屋、創作料理,創作料理・無国籍料理,35.67760222,139.7749486,東京都中央区八丁堀1-8-9佐藤ビル1F
"0,1,0,1,0,0,0,1,0","0.0,3.0,0.0,3.0,0.0,0.0,0.0,3.0,0.0",0.0704969407601858,464.7515296199071,1.0,1.0024818295892177,64912,居酒屋 かあさん 東京八重洲口店,https://tabelog.com/tokyo/A1302/A130201/13030885/,居酒屋,居酒屋,35.68072596,139.7687197,東京都中央区八重洲1-7-10中坪ビルB1
"0,1,0,1,0,0,0,1,0","0.0,3.0,0.0,3.0,0.0,0.0,0.0,3.0,0.0",0.06843492430373795,465.782537848131,1.0,1.0023389341258067,62956,スターライトビアガーデン,https://tabelog.com/tokyo/A1302/A130202/13169305/,ビアガーデン,バー・お酒,35.68069138,139.7715571,東京都中央区日本橋2-4-1日本橋タカシマヤ屋上
"0,1,0,1,0,0,0,1,0","0.0,3.0,0.0,3.0,0.0,0.0,0.0,3.0,0.0",0.0631904298292643,468.40478508536785,1.0,1.0019945261437346,62716,ひょうたん屋 1丁目店,https://tabelog.com/tokyo/A1301/A130101/13002434/,うなぎ,高級和食,35.67318444,139.7671411,東京都中央区銀座1-13-9栄楽ビル　１Ｆ
"0,1,0,1,0,0,0,1,0","0.0,3.0,0.0,3.0,0.0,0.0,0.0,3.0,0.0",0.03938994522015491,480.30502738992254,1.0,1.0007754832051228,60753,大和屋三玄 日本橋高島屋特別食堂,https://tabelog.com/tokyo/A1302/A130202/13020876/,懐石・会席料理、天ぷら、寿司,高級和食,35.68056972,139.77237,東京都中央区日本橋2-4-1日本橋タカシマヤ8F
"0,1,0,1,0,0,0,1,0","0.0,3.0,0.0,3.0,0.0,0.0,0.0,3.0,0.0",0.03925444426897377,480.3727778655131,1.0,1.000770159124894,63652,野田岩 日本橋高島屋特別食堂,https://tabelog.com/tokyo/A1302/A130202/13000131/,うなぎ,高級和食,35.68057028,139.7723703,東京都中央区日本橋2-4-1日本橋タカシマヤ8F
"0,1,0,1,0,0,0,1,0","0.0,3.0,0.0,3.0,0.0,0.0,0.0,3.0,0.0",0.0390019115596524,480.4990442201738,1.0,1.0007602855356057,59360,大衆割烹 三州屋 銀座一丁目店,https://tabelog.com/tokyo/A1301/A130101/13002439/,居酒屋、定食・食堂,高級和食,35.67467722,139.7653375,東京都中央区銀座1-6-15
"0,1,0,1,0,0,0,1,0","0.0,3.0,0.0,3.0,0.0,0.0,0.0,3.0,0.0",0.03835926823528644,480.8203658823568,1.0,1.0007354462891513,63674,赤のれん,https://tabelog.com/tokyo/A1313/A131301/13177293/,居酒屋,居酒屋,35.67334333,139.7734344,東京都中央区新富1-14-4宮島ビル1F
"0,1,0,1,0,0,0,1,0","0.0,3.0,0.0,3.0,0.0,0.0,0.0,3.0,0.0",0.035996165162186004,482.001917418907,1.0,1.0006476522264884,58414,こうじのはな 東京駅前店,https://tabelog.com/tokyo/A1302/A130201/13186245/,和食（その他）、日本酒バー,Ｂ級和食,35.68026528,139.7670392,東京都中央区八重洲2-1-46F
"0,1,0,1,0,0,0,1,0","0.0,3.0,0.0,3.0,0.0,0.0,0.0,3.0,0.0",0.033607235532068555,483.1963822339657,1.0,1.0005645637739264,61216,天一 日本橋高島屋店,https://tabelog.com/tokyo/A1302/A130202/13035168/,天ぷら,高級和食,35.68060667,139.7723497,東京都中央区日本橋2-11-1タカシマヤ東京店新館8F
"0,1,0,1,0,0,0,1,0","0.0,3.0,0.0,3.0,0.0,0.0,0.0,3.0,0.0",0.030027833001693465,484.98608349915327,1.0,1.0004507337969109,65006,春帆楼 日本橋高島屋店,https://tabelog.com/tokyo/A1302/A130202/13010977/,ふぐ、寿司、魚介料理・海鮮料理,高級和食,35.68093083,139.7712869,東京都中央区日本橋2-4-1日本橋タカシマヤB1F
"0,1,0,1,0,0,0,1,0","0.0,3.0,0.0,3.0,0.0,0.0,0.0,3.0,0.0",0.026024649873494014,486.987675063253,1.0,1.0003385838809968,52614,すし京辰  東京駅サウスタワー店,https://tabelog.com/tokyo/A1302/A130201/13052222/,寿司、アイスクリーム,高級和食,35.67852944,139.7651661,東京都千代田区丸の内1-9-2グラントウキョウサウスタワーB1Ｆ
"0,1,0,1,0,0,0,1,0","0.0,3.0,0.0,3.0,0.0,0.0,0.0,3.0,0.0",0.0221338458560723,488.93307707196385,1.0,1.000244923572412,63159,しうまい家 松富,https://tabelog.com/tokyo/A1302/A130202/13045361/,割烹・小料理、飲茶・点心、魚介料理・海鮮料理,高級和食,35.68106165,139.7694809,東京都中央区日本橋3-1-3
"0,1,0,1,0,0,0,1,0","0.0,3.0,0.0,3.0,0.0,0.0,0.0,3.0,0.0",0.01679700615783611,491.60149692108195,1.0,1.0001410597590052,60334,草間,https://tabelog.com/tokyo/A1302/A130202/13050124/,居酒屋、和食（その他）,Ｂ級和食,35.68094603,139.7685816,東京都中央区八重洲1丁目7-7吉川ビルB1F
"0,1,0,1,0,0,0,1,0","0.0,3.0,0.0,3.0,0.0,0.0,0.0,3.0,0.0",0.013473473625855832,493.2632631870721,1.0,1.0000907631268008,59953,炭膳 茅心,https://tabelog.com/tokyo/A1302/A130203/13040926/,炭火焼き,創作料理・無国籍料理,35.67825111,139.7751406,東京都中央区日本橋茅場町3-2-3邦山堂ビル　１Ｆ
"0,1,0,1,0,0,0,1,0","0.0,3.0,0.0,3.0,0.0,0.0,0.0,0.0,3.0",0.680112716066687,159.94364196665654,0.707106781187,0.9810980106776315,64581,はなの舞 京橋店,https://tabelog.com/tokyo/A1302/A130202/13043931/,居酒屋,居酒屋,35.67745694,139.7685566,東京都中央区京橋2-8-20京橋ビル　B1
"0,1,0,1,0,0,0,1,0","0.0,3.0,0.0,3.0,3.0,0.0,0.0,0.0,3.0",0.8331241584698228,83.43792076508863,0.5,0.9716459558018293,58611,酒処 舌菜魚,https://tabelog.com/tokyo/A1302/A130202/13038176/,居酒屋、魚介料理・海鮮料理、和食（その他）,Ｂ級和食,35.67636083,139.7692089,東京都中央区京橋2-6-13イーストビルB１F
"0,1,0,1,0,0,0,1,0","0.0,2.0,0.0,3.0,3.0,0.0,0.0,3.0,0.0",0.518525352048312,240.73732397584402,0.816496580928,0.9672306898478213,61401,RINN’S CAFE DINING Full Full Range 八丁堀店,https://tabelog.com/tokyo/A1302/A130202/13174876/,インドカレー、バー、ダイニングバー,バー・お酒,35.67605111,139.7725894,東京都中央区八丁堀3-7-7原田ビル1F
"0,1,0,1,0,0,0,1,0","0.0,3.0,0.0,3.0,3.0,0.0,0.0,0.0,3.0",0.7962413837842581,101.87930810787093,0.5,0.9402129233586775,64243,とり安,https://tabelog.com/tokyo/A1302/A130202/13020135/,鳥料理、焼鳥、居酒屋,Ｂ級和食,35.67759722,139.7700447,東京都中央区京橋1-6-8コルマ京橋ビル１F
"0,1,0,1,0,0,0,1,0","0.0,3.0,0.0,3.0,0.0,0.0,0.0,0.0,3.0",0.6048414735274774,197.57926323626128,0.707106781187,0.9305015895198084,59397,八丁堀　朋,https://tabelog.com/tokyo/A1302/A130203/13055793/,割烹・小料理、居酒屋、日本酒バー,高級和食,35.67673722,139.7722253,東京都中央区八丁堀2-1-9第一カワナビル地B1F
"0,1,0,1,0,0,0,1,0","0.0,3.0,0.0,3.0,0.0,3.0,0.0,0.0,3.0",0.7832626398488806,108.36868007555971,0.5,0.9292472023003552,63968,京ばし とり安,https://tabelog.com/tokyo/A1302/A130202/13007704/,鳥料理、焼鳥、居酒屋,Ｂ級和食,35.67642788,139.7688872,東京都中央区京橋2-6-14日立第六ビル　１Ｆ
"0,1,0,1,0,0,0,1,0","0.0,3.0,0.0,3.0,0.0,0.0,0.0,0.0,3.0",0.5957076708138068,202.14616459309661,0.707106781187,0.9245905196714981,61563,とめ手羽 八重洲店,https://tabelog.com/tokyo/A1302/A130202/13158578/,居酒屋、鳥料理、馬肉料理,創作料理・無国籍料理,35.67829917,139.7710653,東京都中央区京橋1-11-2八重洲MIDビルB1F
"0,1,0,1,0,0,0,1,0","0.0,3.0,0.0,3.0,0.0,0.0,0.0,0.0,3.0",0.5872833038823252,206.3583480588374,0.707106781187,0.9191853344233356,60385,ブルーパパイアタイランド 京橋エドグラン店,https://tabelog.com/tokyo/A1302/A130202/13202740/,タイ料理、ダイニングバー、アジア・エスニック料理（その他）,バー・お酒,35.67712611,139.7678314,東京都中央区京橋2-2-1京橋エドグランB1F
"0,1,0,1,0,0,0,1,0","0.0,3.0,0.0,3.0,3.0,0.0,0.0,0.0,3.0",0.7582346437090157,120.88267814549212,0.5,0.9082509427028073,58598,三喜屋,https://tabelog.com/tokyo/A1302/A130202/13042604/,中華料理、居酒屋、餃子,アジア・エスニック、中華料理,35.67585097,139.7691762,東京都中央区京橋2-12-10
"0,1,0,1,0,0,0,1,0","0.0,3.0,0.0,3.0,3.0,0.0,0.0,0.0,3.0",0.7485067137959982,125.7466431020009,0.5,0.9001457107589217,63232,新潟・佐渡島 両津港直送 土風炉  京橋店,https://tabelog.com/tokyo/A1302/A130202/13179821/,郷土料理（その他）、魚介料理・海鮮料理、焼鳥,高級和食,35.67615139,139.7688147,東京都中央区京橋2-5-7日土地京橋ビル　Ｂ１Ｆ
"0,1,0,1,0,0,0,1,0","0.0,3.0,0.0,3.0,3.0,0.0,0.0,0.0,3.0",0.739288016257403,130.3559918712985,0.5,0.8924946896098633,61896,男前料理と五島列島直送の魚 京ばし　無花果,https://tabelog.com/tokyo/A1302/A130202/13102098/,居酒屋、魚介料理・海鮮料理、もつ鍋,高級和食,35.67652944,139.7686158,東京都中央区京橋2-6-16エターナルビル2F
"0,1,0,1,0,0,0,1,0","0.0,3.0,0.0,3.0,3.0,0.0,0.0,3.0,0.0",0.32358672371841724,338.20663814079137,0.816496580928,0.8782795878497267,61378,加賀屋 東京駅前店,https://tabelog.com/tokyo/A1302/A130202/13050800/,居酒屋、もつ焼き、魚介料理・海鮮料理,高級和食,35.67868806,139.7672344,東京都中央区八重洲2-3-7
"0,1,0,1,0,0,0,1,0","0.0,3.0,0.0,3.0,3.0,3.0,0.0,0.0,3.0",0.7754169300365195,112.29153498174023,0.408248290464,0.8763207643630996,61261,京橋 かなえ,https://tabelog.com/tokyo/A1302/A130202/13009030/,和食（その他）、居酒屋、魚介料理・海鮮料理,Ｂ級和食,35.67623444,139.7689297,東京都中央区京橋2-5-7日土地京橋ビルB1F
"0,1,0,1,0,0,0,1,0","0.0,3.0,0.0,3.0,0.0,0.0,0.0,0.0,3.0",0.5133303974665571,243.33480126672148,0.707106781187,0.8737895038069371,63135,TAVERNA UOKIN 京橋,https://tabelog.com/tokyo/A1302/A130202/13202693/,イタリアン、バル・バール、パスタ,洋食・西洋料理,35.67744722,139.7675264,東京都中央区京橋2-2-1京橋エドグラン1F
"0,1,0,1,0,0,0,1,0","0.0,3.0,0.0,3.0,0.0,0.0,0.0,0.0,3.0",0.5016249485965266,249.1875257017367,0.707106781187,0.8669645835064244,62666,国泰飯店,https://tabelog.com/tokyo/A1302/A130202/13042651/,中華料理,アジア・エスニック、中華料理,35.67656691,139.7672949,東京都中央区京橋2-4-12京橋第一生命ビル　２Ｆ
"0,1,0,1,0,0,0,1,0","0.0,3.0,0.0,3.0,0.0,0.0,0.0,0.0,3.0",0.4883525333030515,255.82373334847424,0.707106781187,0.8593533596743007,62517,ラヴァロック,https://tabelog.com/tokyo/A1302/A130202/13167454/,洋食・欧風料理（その他）,洋食・西洋料理,35.67786914,139.7676237,東京都中央区京橋2-1-3コートヤード・バイ・マリオット東京ステーション1F
"0,1,0,1,0,0,0,1,0","0.0,3.0,0.0,3.0,0.0,0.0,0.0,0.0,3.0",0.48118476432351,259.407617838245,0.707106781187,0.8553004018571906,58997,焼肉ビストロ 牛印 京橋エドグラン店,https://tabelog.com/tokyo/A1302/A130202/13202859/,ビストロ、焼肉,焼肉・ホルモン・鍋,35.67764701,139.7674357,東京都中央区京橋2-2-1京橋エドグランB1F
"0,1,0,1,0,0,0,1,0","0.0,2.0,0.0,3.0,3.0,0.0,0.0,3.0,0.0",0.23927325314360348,380.36337342819826,0.816496580928,0.8508339181864987,60531,京橋 かよう亭,https://tabelog.com/tokyo/A1301/A130101/13110838/,居酒屋,居酒屋,35.67557753,139.7660653,東京都中央区京橋3-3-12山京ビル　Ｂ１Ｆ
"0,1,0,1,0,0,0,1,0","0.0,3.0,0.0,3.0,0.0,0.0,0.0,0.0,3.0",0.4535636977475308,273.2181511262346,0.707106781187,0.840071442149067,59348,あじわい東京 八丁堀店,https://tabelog.com/tokyo/A1302/A130202/13186269/,インド料理、ネパール料理、居酒屋,居酒屋,35.67597528,139.7729361,東京都中央区八丁堀3-14-2東八重洲シティービルB1F
"0,1,0,1,0,0,0,1,0","0.0,3.0,0.0,3.0,3.0,0.0,0.0,3.0,0.0",0.16966938106595875,415.1653094670206,0.816496580928,0.8339390658423264,59616,串かつ でんがな 八重洲店,https://tabelog.com/tokyo/A1302/A130201/13205301/,居酒屋、串揚げ・串かつ、和食（その他）,Ｂ級和食,35.68023444,139.7686147,東京都中央区日本橋3-3-17財成八重洲ビル1F
"0,1,0,1,0,0,0,1,0","0.0,3.0,0.0,3.0,0.0,0.0,0.0,0.0,3.0",0.43145083779446,284.27458110277,0.707106781187,0.8283416115550041,63766,ビラビアンキ 京橋エドグラン店,https://tabelog.com/tokyo/A1302/A130202/13201113/,イタリアン、ダイニングバー、バル・バール,洋食・西洋料理,35.6776575,139.7671419,東京都中央区京橋2-2-27京橋エドグランB1F
"0,1,0,1,0,0,0,1,0","0.0,2.0,0.0,3.0,3.0,0.0,0.0,3.0,0.0",0.023416171454651476,488.29191427267426,0.816496580928,0.8168322861838042,58739,和風居酒屋 昇,https://tabelog.com/tokyo/A1302/A130203/13184926/,居酒屋、焼鳥、もつ鍋,居酒屋,35.67744028,139.7753564,東京都中央区八丁堀1-8-6カサイビルB1F
"0,1,0,1,0,0,0,1,0","0.0,3.0,0.0,3.0,3.0,0.0,0.0,3.0,0.0",0.007720316505043797,496.1398417474781,0.816496580928,0.8165330795219534,60337,サニーズ,https://tabelog.com/tokyo/A1302/A130201/13061281/,居酒屋、定食・食堂,居酒屋,35.679455,139.7657475,東京都中央区八重洲2-1八重洲地下街南1号外堀地下1番通り
"0,1,0,1,0,0,0,1,0","0.0,3.0,0.0,3.0,0.0,0.0,0.0,0.0,3.0",0.38327705915599564,308.3614704220022,0.707106781187,0.8043017493921473,63816,くふ楽 銀座店,https://tabelog.com/tokyo/A1302/A130202/13033926/,焼鳥、しゃぶしゃぶ、居酒屋,焼肉・ホルモン・鍋,35.67425667,139.7683742,東京都中央区銀座1-16-1東貨ビルB1F
"0,1,0,1,0,0,0,1,0","0.0,3.0,0.0,3.0,0.0,0.0,0.0,0.0,3.0",0.36915179936906917,315.4241003154654,0.707106781187,0.7976672558012027,64846,バンザイヴィーノ 京橋,https://tabelog.com/tokyo/A1302/A130201/13155008/,イタリアン、ダイニングバー、ビストロ,洋食・西洋料理,35.67604137,139.7666486,東京都中央区京橋3-1東京スクエアガーデン1F
"0,1,0,1,0,0,0,1,0","0.0,3.0,0.0,3.0,0.0,0.0,0.0,0.0,3.0",0.36884805325253794,315.575973373731,0.707106781187,0.7975267308298745,64757,随園別館 京橋店,https://tabelog.com/tokyo/A1302/A130201/13155011/,中華料理、北京料理,アジア・エスニック、中華料理,35.67603917,139.7666475,東京都中央区京橋3-1-1東京スクエアガーデン2F
"0,1,0,1,0,0,0,1,0","0.0,3.0,0.0,3.0,0.0,0.0,0.0,0.0,3.0",0.3687671608064677,315.61641959676615,0.707106781187,0.7974893221161417,59198,ぶーみんVinum 東京スクエアガーデン店,https://tabelog.com/tokyo/A1302/A130202/13154677/,ビストロ、ワインバー、イタリアン,バー・お酒,35.67603861,139.7666472,東京都中央区京橋3-1東京スクエアガーデンB1F
"0,1,0,1,0,0,0,1,0","0.0,3.0,0.0,3.0,0.0,0.0,0.0,0.0,3.0",0.3679624530460903,316.01877347695483,0.707106781187,0.7971175364095913,64903,博多もつ鍋 幸 とりもつえん 京橋店,https://tabelog.com/tokyo/A1302/A130202/13198187/,居酒屋、郷土料理（その他）、もつ鍋,高級和食,35.67597556,139.7666614,東京都中央区京橋3-1-1東京スクエアガーデン2F
"0,1,0,1,0,0,0,1,0","0.0,3.0,0.0,3.0,0.0,0.0,0.0,0.0,3.0",0.3531251368448554,323.4374315775723,0.707106781187,0.7903779869604782,59327,ひろ坊,https://tabelog.com/tokyo/A1302/A130202/13124656/,居酒屋、焼酎バー、和食（その他）,Ｂ級和食,35.67489048,139.7728652,東京都中央区八丁堀3-17-16
"0,1,0,1,0,0,0,1,0","0.0,3.0,0.0,3.0,3.0,0.0,0.0,0.0,3.0",0.6026286545107228,198.68567274463862,0.5,0.7830461641802507,58410,咲くら 京橋店,https://tabelog.com/tokyo/A1302/A130202/13014795/,居酒屋、魚介料理・海鮮料理、和食（その他）,Ｂ級和食,35.67837889,139.7693539,東京都中央区京橋1-7-1ＴＯＤＡ　ＢＵＩＬＤＩＮＧ　Ｂ１Ｆ
"0,1,0,1,0,0,0,1,0","0.0,3.0,0.0,3.0,0.0,0.0,0.0,0.0,3.0",0.3342463625582292,332.8768187208854,0.707106781187,0.7821257129665327,64816,貝焼き祥音,https://tabelog.com/tokyo/A1302/A130203/13027790/,居酒屋,居酒屋,35.6756325,139.77349,東京都中央区八丁堀3-15-11洋邦ビル2F
"0,1,0,1,0,0,0,1,0","0.0,3.0,0.0,3.0,0.0,0.0,0.0,0.0,3.0",0.3265431129417981,336.72844352910096,0.707106781187,0.7788648179303773,63857,TOKYO Mar Mare,https://tabelog.com/tokyo/A1302/A130202/13146313/,バル・バール、スペイン料理、イタリアン,洋食・西洋料理,35.67785972,139.7666175,東京都中央区八重洲2-5-12プレリー八重洲ビル1F
"0,1,0,1,0,0,0,1,0","0.0,3.0,0.0,3.0,0.0,0.0,0.0,0.0,3.0",0.3184468671984874,340.7765664007563,0.707106781187,0.7755052593171312,63267,大衆割烹 三州屋 日本橋店,https://tabelog.com/tokyo/A1302/A130202/13032221/,居酒屋、魚介料理・海鮮料理,高級和食,35.67964083,139.7710403,東京都中央区日本橋3-7-13
"0,1,0,1,0,0,0,1,0","0.0,3.0,0.0,3.0,0.0,0.0,0.0,0.0,3.0",0.30841070525512726,345.7946473724364,0.707106781187,0.7714383728568115,60786,純米酒専門　粋酔 日本橋東京店,https://tabelog.com/tokyo/A1302/A130202/13169597/,居酒屋、日本酒バー、魚介料理・海鮮料理,高級和食,35.67964,139.7712358,東京都中央区日本橋3-7-10タンペイ日本橋ビルB1F
"0,1,0,1,0,0,0,1,0","0.0,3.0,0.0,3.0,0.0,0.0,0.0,0.0,3.0",0.3010587766543748,349.4706116728126,0.707106781187,0.7685287157944254,64795,重慶府 八重洲,https://tabelog.com/tokyo/A1302/A130202/13033944/,四川料理、飲茶・点心、居酒屋,アジア・エスニック、中華料理,35.67777444,139.7664247,東京都中央区八重洲2-6-5八重洲玉の玉ビル　Ｂ１Ｆ
"0,1,0,1,0,0,0,1,0","0.0,3.0,0.0,3.0,0.0,0.0,0.0,0.0,3.0",0.2985786210355641,350.71068948221796,0.707106781187,0.7675605467580384,63789,香鶏酒房鳥八 日本橋店,https://tabelog.com/tokyo/A1302/A130202/13184823/,焼鳥、居酒屋、水炊き,焼肉・ホルモン・鍋,35.67974028,139.7710089,東京都中央区日本橋3-7-13日本橋お起奈ビル　B1F
"0,1,0,1,0,0,0,1,0","0.0,3.0,0.0,3.0,3.0,3.0,0.0,0.0,3.0",0.6499812519040409,175.00937404797955,0.408248290464,0.7675560529977018,59135,ぜん,https://tabelog.com/tokyo/A1302/A130203/13178721/,魚介料理・海鮮料理、割烹・小料理、居酒屋,高級和食,35.6761075,139.7718458,東京都中央区八丁堀3-1-5アルカディア八丁堀ビル　1F
"0,1,0,1,0,0,0,1,0","0.0,3.0,0.0,3.0,0.0,3.0,0.0,0.0,3.0",0.5804230920936096,209.7884539531952,0.5,0.7660880927383658,61886,頤和園 京橋店,https://tabelog.com/tokyo/A1302/A130202/13205123/,中華料理,アジア・エスニック、中華料理,35.67707056,139.7677769,東京都中央区京橋2-2-1京橋エドグランサウス6F
"0,1,0,1,0,0,0,1,0","0.0,3.0,0.0,3.0,0.0,0.0,0.0,0.0,3.0",0.2772683774846237,361.36581125768816,0.707106781187,0.7595246889686705,61301,村さ来 八重洲店,https://tabelog.com/tokyo/A1302/A130202/13059334/,居酒屋、魚介料理・海鮮料理、和食（その他）,Ｂ級和食,35.67652694,139.7660567,東京都中央区八重洲2-8-10松岡八重洲ビル　１Ｆ
"0,1,0,1,0,0,0,1,0","0.0,3.0,0.0,3.0,0.0,0.0,0.0,0.0,3.0",0.2761796285890707,361.91018570546464,0.707106781187,0.7591279123096429,59578,中華料理 菜香菜 日本橋店,https://tabelog.com/tokyo/A1302/A130202/13196143/,中華料理,アジア・エスニック、中華料理,35.6791,139.7727231,東京都中央区日本橋3-13-5KDX日本橋313ビル1F
"0,1,0,1,0,0,0,1,0","0.0,3.0,0.0,3.0,3.0,0.0,0.0,0.0,3.0",0.570381970222053,214.80901488897354,0.5,0.7585087949090576,61734,日本料理　花,https://tabelog.com/tokyo/A1302/A130203/13148899/,京料理、懐石・会席料理、割烹・小料理,高級和食,35.67702361,139.7723789,東京都中央区八丁堀2-1-7白鳳ビルB1F
"0,1,0,1,0,0,0,1,0","0.0,3.0,0.0,3.0,0.0,0.0,0.0,0.0,3.0",0.2660910492053174,366.9544753973413,0.707106781187,0.75551601337575,61873,萬寿園,https://tabelog.com/tokyo/A1302/A130202/13050732/,中華料理,アジア・エスニック、中華料理,35.67982328,139.7713009,東京都中央区日本橋3-7-7小村ビル　１Ｆ・Ｂ１Ｆ
"0,1,0,1,0,0,0,1,0","0.0,3.0,0.0,3.0,0.0,0.0,0.0,0.0,3.0",0.2608496101470687,369.57519492646566,0.707106781187,0.7536859552319372,61690,桂園 新富町店,https://tabelog.com/tokyo/A1302/A130202/13052225/,中華料理,アジア・エスニック、中華料理,35.67345583,139.7710739,東京都中央区新富1-3-16第2アサヒビルB1F・1F
"0,1,0,1,0,0,0,1,0","0.0,3.0,0.0,3.0,0.0,0.0,0.0,0.0,3.0",0.25797838307346,371.01080846327,0.707106781187,0.7526970480433657,64644,俺のイタリアン 八重洲,https://tabelog.com/tokyo/A1302/A130202/13133706/,イタリアン、バル・バール、居酒屋,洋食・西洋料理,35.67783972,139.7662006,東京都中央区八重洲2-6-4松岡ビル1F
"0,1,0,1,0,0,0,1,0","0.0,2.0,0.0,3.0,0.0,3.0,0.0,0.0,3.0",0.5606014685242457,219.6992657378771,0.5,0.7511817400014067,62590,アンジェリオン オ プラザ東京,https://tabelog.com/tokyo/A1302/A130201/13167261/,バイキング、フレンチ、ダイニングバー,洋食・西洋料理,35.67574583,139.7679036,東京都中央区京橋3-7-1京橋相互館110タワー
"0,1,0,1,0,0,0,1,0","0.0,3.0,0.0,3.0,0.0,0.0,0.0,0.0,3.0",0.25132447280643655,374.3377635967817,0.707106781187,0.750442529865834,58848,カフェ ラ・ボエム G-Zone 銀座,https://tabelog.com/tokyo/A1301/A130101/13002645/,イタリアン、洋食、ワインバー,バー・お酒,35.67521833,139.7663167,東京都中央区銀座1-2-3Ｇ－Ｚｏｎｅ　銀座内１Ｆ
"0,1,0,1,0,0,0,1,0","0.0,3.0,0.0,3.0,0.0,0.0,0.0,0.0,3.0",0.24889776980276862,375.5511150986157,0.707106781187,0.7496333102342717,59644,La Cornice,https://tabelog.com/tokyo/A1302/A130203/13060496/,イタリアン,洋食・西洋料理,35.67808866,139.7738155,東京都中央区八丁堀1-4-8森田ビル　１F
"0,1,0,1,0,0,0,1,0","0.0,3.0,0.0,3.0,0.0,0.0,0.0,0.0,3.0",0.24040989536859456,379.7950523157027,0.707106781187,0.7468580305460594,62931,銀ゼロ,https://tabelog.com/tokyo/A1301/A130101/13042969/,居酒屋、日本酒バー、魚介料理・海鮮料理,高級和食,35.67538583,139.7661597,東京都中央区京橋3-4-4イーストサイドビル　１Ｆ
"0,1,0,1,0,0,0,1,0","0.0,3.0,0.0,3.0,0.0,0.0,0.0,0.0,3.0",0.2358690840198883,382.06545799005585,0.707106781187,0.7454087635629065,64403,薩摩魚鮮水産 八重洲中央口1号店,https://tabelog.com/tokyo/A1302/A130201/13163602/,居酒屋,居酒屋,35.67993472,139.7686694,東京都中央区日本橋3-4-15八重洲通りビルB1F
"0,1,0,1,0,0,0,1,0","0.0,3.0,0.0,3.0,0.0,0.0,0.0,0.0,3.0",0.23364789292344257,383.1760535382787,0.707106781187,0.7447088947149513,64155,ブラッスリー ドンピエール,https://tabelog.com/tokyo/A1301/A130101/13014922/,ビストロ、西洋各国料理（その他）、バル・バール,洋食・西洋料理,35.67406556,139.7672772,東京都中央区銀座1-10-19銀座一ビルヂング　１Ｆ
"0,1,0,1,0,0,0,1,0","0.0,3.0,0.0,3.0,0.0,0.0,0.0,0.0,3.0",0.23185604760920717,384.0719761953964,0.707106781187,0.7441486590816131,61979,Bistro B.V.,https://tabelog.com/tokyo/A1302/A130202/13122534/,豚料理、バル・バール、ビストロ,洋食・西洋料理,35.67332889,139.7711119,東京都中央区新富1-3-15京橋プリズムビル1F
"0,1,0,1,0,0,0,1,0","0.0,3.0,0.0,3.0,0.0,0.0,0.0,0.0,3.0",0.23139043438791657,384.3047828060417,0.707106781187,0.7440037184895171,63044,四万十,https://tabelog.com/tokyo/A1302/A130203/13010910/,郷土料理（その他）,高級和食,35.67665083,139.7742889,東京都中央区八丁堀2-15-10千曲ビル　１Ｆ
"0,1,0,1,0,0,0,1,0","0.0,3.0,0.0,3.0,0.0,0.0,0.0,0.0,3.0",0.22547270712504813,387.2636464374759,0.707106781187,0.7421845738482427,59975,龍記 京橋店,https://tabelog.com/tokyo/A1302/A130202/13172272/,居酒屋、中華料理,アジア・エスニック、中華料理,35.67560943,139.7659721,東京都中央区京橋3-3-13平和ビル3号館2F
"0,1,0,1,0,0,0,1,0","0.0,3.0,0.0,3.0,0.0,0.0,0.0,0.0,3.0",0.20663184881199834,396.68407559400083,0.707106781187,0.7366795239067423,60351,中洲焼肉屋台,https://tabelog.com/tokyo/A1302/A130202/13159401/,焼肉、居酒屋、ホルモン,焼肉・ホルモン・鍋,35.67557722,139.7742125,東京都中央区八丁堀3-14-6
"0,1,0,1,0,0,0,1,0","0.0,3.0,0.0,3.0,0.0,0.0,0.0,0.0,3.0",0.20173084348888962,399.1345782555552,0.707106781187,0.7353198849580628,64313,キャンディストア・ロック,https://tabelog.com/tokyo/A1301/A130101/13022061/,イタリアン、創作料理、ワインバー,バー・お酒,35.67349139,139.7680006,東京都中央区銀座1-15-7マック銀座ビル　Ｂ１Ｆ
"0,1,0,1,0,0,0,1,0","0.0,3.0,0.0,3.0,0.0,0.0,0.0,0.0,3.0",0.18987970613786342,405.0601469310683,0.707106781187,0.7321572937579747,59021,富昌丸,https://tabelog.com/tokyo/A1302/A130201/13189696/,居酒屋、魚介料理・海鮮料理、鍋（その他）,高級和食,35.67972361,139.767575,東京都中央区八重洲2-1-410F
"0,1,0,1,0,0,0,1,0","0.0,2.0,0.0,3.0,0.0,0.0,0.0,0.0,3.0",0.18930101350954612,405.34949324522694,0.707106781187,0.7320074273637811,63589,とりまさ teppan tokyo！,https://tabelog.com/tokyo/A1302/A130201/13213527/,居酒屋、鉄板焼き,洋食・西洋料理,35.67973778,139.7675956,東京都中央区八重洲2-1-4
"0,1,0,1,0,0,0,1,0","0.0,3.0,0.0,3.0,0.0,0.0,0.0,0.0,3.0",0.18683558468125863,406.5822076593707,0.707106781187,0.7313737318930641,60277,笑笑 八重洲中央口駅前店,https://tabelog.com/tokyo/A1302/A130201/13073227/,居酒屋、魚介料理・海鮮料理、創作料理,高級和食,35.67974556,139.7675853,東京都中央区八重洲2-1-4東京駅前八重洲ビル　８Ｆ
"0,1,0,1,0,0,0,1,0","0.0,3.0,0.0,3.0,0.0,0.0,0.0,0.0,3.0",0.18679458620420747,406.60270689789627,0.707106781187,0.7313632595606653,64292,九州 熱中屋 東京駅中央通りLIVE,https://tabelog.com/tokyo/A1302/A130201/13173961/,居酒屋、もつ鍋、餃子,居酒屋,35.67973472,139.7675647,東京都中央区八重洲2-1-4松勇八重洲B1F
"0,1,0,1,0,0,0,1,0","0.0,3.0,0.0,3.0,3.0,0.0,0.0,0.0,3.0",0.5315109530938014,234.24452345309933,0.5,0.7297286435783381,63375,京橋テラス,https://tabelog.com/tokyo/A1302/A130202/13152418/,バル・バール、ワインバー、ハンバーグ,バー・お酒,35.67477306,139.7689311,東京都中央区京橋3-9-6GM-3ビル1F
"0,1,0,1,0,0,0,1,0","0.0,3.0,0.0,3.0,0.0,0.0,0.0,0.0,3.0",0.17624426577087957,411.8778671145602,0.707106781187,0.7287400367875476,60472,木村屋本店 東京駅八重洲J,https://tabelog.com/tokyo/A1302/A130201/13115675/,居酒屋、もつ鍋、しゃぶしゃぶ,焼肉・ホルモン・鍋,35.68030778,139.769085,東京都中央区日本橋3-3-3八重洲山川ビル1F
"0,1,0,1,0,0,0,1,0","0.0,3.0,0.0,3.0,0.0,0.0,0.0,0.0,3.0",0.1690372799974982,415.4813600012509,0.707106781187,0.72703067475104,58494,炭火職人,https://tabelog.com/tokyo/A1302/A130201/13030664/,焼肉,焼肉・ホルモン・鍋,35.68024667,139.7686497,東京都中央区日本橋3-3-17財成ビル　B1F
"0,1,0,1,0,0,0,1,0","0.0,2.0,0.0,3.0,0.0,0.0,0.0,0.0,3.0",0.1680991608177619,415.95041959111904,0.707106781187,0.7268131313258145,59264,スポーツバー スポカン,https://tabelog.com/tokyo/A1302/A130201/13193783/,スポーツバー、バー、ダイニングバー,バー・お酒,35.67589583,139.7655508,東京都中央区八重洲2-10-10新八重洲ビルB1F
"0,1,0,1,0,0,0,1,0","0.0,3.0,0.0,3.0,0.0,0.0,0.0,0.0,3.0",0.16789200261589896,416.0539986920505,0.707106781187,0.7267652472032334,64474,魚然 八丁堀店,https://tabelog.com/tokyo/A1302/A130203/13158638/,和食（その他）,Ｂ級和食,35.67552861,139.7744181,東京都中央区八丁堀3‐19-9京橋第6長岡ビルB1F
"0,1,0,1,0,0,0,1,0","0.0,3.0,0.0,3.0,0.0,0.0,0.0,0.0,3.0",0.1672784165680921,416.36079171595395,0.707106781187,0.7266237462741828,64981,モンスーンカフェ G-Zone 銀座,https://tabelog.com/tokyo/A1301/A130101/13004871/,ダイニングバー、タイ料理、ベトナム料理,バー・お酒,35.67510083,139.7658714,東京都中央区銀座1-2-3
"0,1,0,1,0,0,0,1,0","0.0,3.0,0.0,3.0,0.0,0.0,0.0,0.0,3.0",0.16715465482831654,416.4226725858417,0.707106781187,0.726595264663054,62339,魚や一丁 銀座本店,https://tabelog.com/tokyo/A1301/A130101/13020785/,魚介料理・海鮮料理、居酒屋,高級和食,35.67510056,139.7658708,東京都中央区銀座1-2-3東京高速道路下・中央通り側　２F
"0,1,0,1,0,0,0,1,0","0.0,2.0,0.0,3.0,3.0,0.0,0.0,0.0,3.0",0.5255384072629685,237.23079636851574,0.5,0.7253899761566173,63470,キュイズィーヌ プティ・ボワ,https://tabelog.com/tokyo/A1302/A130203/13031109/,鉄板焼き、ステーキ、ビストロ,洋食・西洋料理,35.67691167,139.7726489,東京都中央区八丁堀2-3-8
"0,1,0,1,0,0,0,1,0","0.0,3.0,0.0,3.0,0.0,0.0,0.0,0.0,3.0",0.16165877877950413,419.17061061024793,0.707106781187,0.725350646760917,64296,おでん処しおの,https://tabelog.com/tokyo/A1302/A130201/13161307/,おでん、割烹・小料理、魚介料理・海鮮料理,高級和食,35.67598694,139.7654922,東京都中央区八重洲2-10-7SHIONO八重洲ビル2号館2F
"0,1,0,1,0,0,0,1,0","0.0,2.0,0.0,3.0,0.0,0.0,0.0,0.0,3.0",0.16104574575659125,419.47712712170437,0.707106781187,0.7252142664249626,59118,三代目網元 魚鮮水産 八丁堀店,https://tabelog.com/tokyo/A1302/A130203/13212116/,居酒屋、魚介料理・海鮮料理、焼鳥,高級和食,35.67691922,139.7746682,東京都中央区八丁堀2-14-4ヤブ原ビル2F
"0,1,0,1,0,0,0,1,0","0.0,3.0,0.0,3.0,0.0,0.0,0.0,0.0,3.0",0.1542396973958479,422.88015130207606,0.707106781187,0.7237332963549229,61920,青葉,https://tabelog.com/tokyo/A1302/A130202/13025344/,うなぎ,高級和食,35.67297194,139.7711292,東京都中央区新富町1-5-5
"0,1,0,1,0,0,0,1,0","0.0,3.0,0.0,3.0,0.0,0.0,0.0,0.0,3.0",0.1509127336490227,424.54363317548865,0.707106781187,0.7230315713559269,61743,回転寿司酒場 銀座沼津港,https://tabelog.com/tokyo/A1301/A130101/13174634/,回転寿司、寿司、魚介料理・海鮮料理,高級和食,35.67420417,139.7664675,東京都中央区銀座1-8-19キラリトギンザ8F
"0,1,0,1,0,0,0,1,0","0.0,3.0,0.0,3.0,0.0,0.0,0.0,0.0,3.0",0.1509127336490227,424.54363317548865,0.707106781187,0.7230315713559269,58521,トラットリア デル パチョッコーネ 銀座,https://tabelog.com/tokyo/A1301/A130101/13174749/,ピザ、イタリアン,洋食・西洋料理,35.67420417,139.7664675,東京都中央区銀座1-8-19キラリトギンザ7F
"0,1,0,1,0,0,0,1,0","0.0,3.0,0.0,3.0,0.0,0.0,0.0,0.0,3.0",0.15079092772503805,424.604536137481,0.707106781187,0.723006157570029,62286,俺のイタリアン TOKYO,https://tabelog.com/tokyo/A1301/A130101/13173949/,イタリアン、ピザ、パスタ,洋食・西洋料理,35.67420361,139.7664672,東京都中央区銀座1-8-19キラリト　ギンザB1F
"0,1,0,1,0,0,0,1,0","0.0,3.0,0.0,3.0,0.0,0.0,0.0,0.0,3.0",0.14698410814033422,426.5079459298329,0.707106781187,0.7222217997580863,64784,美少年,https://tabelog.com/tokyo/A1302/A130202/13033811/,居酒屋、ちゃんこ鍋、日本酒バー,バー・お酒,35.68029944,139.7684606,東京都中央区八重洲1-8-9一六堂ビル　１Ｆ・２Ｆ
"0,1,0,1,0,0,0,1,0","0.0,3.0,0.0,3.0,0.0,0.0,0.0,0.0,3.0",0.14224168703017936,428.8791564849103,0.707106781187,0.7212715837527439,64546,わがん,https://tabelog.com/tokyo/A1302/A130203/13179693/,沖縄料理,高級和食,35.67656648,139.7747794,東京都中央区八丁堀2-15-52F
"0,1,0,1,0,0,0,1,0","0.0,3.0,0.0,3.0,0.0,0.0,0.0,0.0,3.0",0.14084261751157123,429.5786912442144,0.707106781187,0.7209969784316094,60174,吟彩,https://tabelog.com/tokyo/A1302/A130203/13045546/,居酒屋、魚介料理・海鮮料理,高級和食,35.67798924,139.7745092,東京都中央区八丁堀1-7-8若狭ビル２階
"0,1,0,1,0,0,0,1,0","0.0,3.0,0.0,3.0,3.0,0.0,0.0,0.0,3.0",0.5179372501098524,241.03137494507382,0.5,0.719902073237295,58864,クイントアロー,https://tabelog.com/tokyo/A1302/A130203/13153235/,洋食、スポーツバー、バー,洋食・西洋料理,35.67605194,139.7725931,東京都中央区八丁堀3-7-7原田ビル3Ｆ
"0,1,0,1,0,0,0,1,0","0.0,3.0,0.0,3.0,0.0,0.0,0.0,0.0,3.0",0.13227716866977868,433.86141566511066,0.707106781187,0.719372816661356,63378,牛たん 荒 八重洲店,https://tabelog.com/tokyo/A1302/A130201/13131647/,牛タン、居酒屋、定食・食堂,Ｂ級和食,35.68044806,139.7687675,東京都中央区日本橋3-3-18富士八重洲ビル　１・２F
"0,1,0,1,0,0,0,1,0","0.0,3.0,0.0,3.0,0.0,0.0,0.0,0.0,3.0",0.13184840930982705,434.0757953450865,0.707106781187,0.7192941005162851,60254,浪漫酒房 八重洲店,https://tabelog.com/tokyo/A1302/A130201/13034638/,居酒屋,居酒屋,35.68038056,139.7684917,東京都中央区八重洲1-8-9八洲ビルA　Ｂ１Ｆ
"0,1,0,1,0,0,0,1,0","0.0,3.0,0.0,3.0,0.0,0.0,0.0,0.0,3.0",0.12983951705743277,435.0802414712836,0.707106781187,0.7189285779475645,61579,目分量,https://tabelog.com/tokyo/A1302/A130203/13159343/,ダイニングバー、バー・お酒（その他）,バー・お酒,35.67605222,139.7747881,東京都中央区八丁堀2-21-11エコアクワイエ
"0,1,0,1,0,0,0,1,0","0.0,3.0,0.0,3.0,0.0,0.0,0.0,0.0,3.0",0.11888117079620986,440.55941460189507,0.707106781187,0.7170304964015669,63464,すみだ川,https://tabelog.com/tokyo/A1302/A130202/13037408/,魚介料理・海鮮料理、天ぷら、割烹・小料理,高級和食,35.68036806,139.7682439,東京都中央区八重洲1-8-11
"0,1,0,1,0,0,0,1,0","0.0,3.0,0.0,3.0,0.0,0.0,0.0,0.0,3.0",0.10947412656170467,445.26293671914766,0.707106781187,0.7155309807314062,62539,帆絵夢,https://tabelog.com/tokyo/A1302/A130201/13039393/,お好み焼き、もんじゃ焼き,Ｂ級和食,35.68042028,139.7682647,東京都中央区八重洲1-8-11
"0,1,0,1,0,0,0,1,0","0.0,3.0,0.0,3.0,0.0,0.0,0.0,0.0,3.0",0.09946248699755597,450.268756501222,0.707106781187,0.7140677743181938,63303,バンビ,https://tabelog.com/tokyo/A1301/A130101/13183910/,ビストロ、ワインバー、ダイニングバー,バー・お酒,35.67492028,139.7655617,東京都中央区銀座1-6-17
"0,1,0,1,0,0,0,1,0","0.0,3.0,0.0,3.0,0.0,0.0,0.0,0.0,3.0",0.09918694933175391,450.40652533412305,0.707106781187,0.7140294468141631,62946,北海道料理ユック 銀座店,https://tabelog.com/tokyo/A1301/A130101/13014924/,居酒屋、郷土料理（その他）、魚介料理・海鮮料理,高級和食,35.67471972,139.7656867,東京都中央区銀座1-6-5銀座BビルB1F
"0,1,0,1,0,0,0,1,0","0.0,3.0,0.0,3.0,0.0,0.0,0.0,0.0,3.0",0.08757739369752118,456.2113031512394,0.707106781187,0.7125095086290782,62052,カイバル,https://tabelog.com/tokyo/A1301/A130101/13026440/,インド料理、インドカレー,アジア・エスニック、中華料理,35.67305833,139.7676558,東京都中央区銀座1-14-6銀座1丁目ビル1F
"0,1,0,1,0,0,0,1,0","0.0,3.0,0.0,3.0,0.0,0.0,0.0,0.0,3.0",0.08423946760021829,457.88026619989085,0.707106781187,0.7121069357207301,63606,やえす館,https://tabelog.com/tokyo/A1302/A130201/13036742/,焼肉,焼肉・ホルモン・鍋,35.68054167,139.7682636,東京都中央区八重洲1-8-6
"0,1,0,1,0,0,0,1,0","0.0,3.0,0.0,3.0,0.0,0.0,0.0,0.0,3.0",0.0840925165775476,457.9537417112262,0.707106781187,0.7120895669396828,63817,夢や京町しずく 八重洲店,https://tabelog.com/tokyo/A1302/A130202/13104843/,居酒屋、魚介料理・海鮮料理、鍋（その他）,高級和食,35.68071083,139.7689614,東京都中央区日本橋3-2-17日伸ビル2F
"0,1,0,1,0,0,0,1,0","0.0,3.0,0.0,3.0,0.0,0.0,0.0,0.0,3.0",0.080791431379605,459.6042843101975,0.707106781187,0.7117072820931125,62896,美味門,https://tabelog.com/tokyo/A1302/A130201/13153119/,居酒屋,居酒屋,35.6806603,139.7686422,東京都中央区八重洲1-7-10YKビルB1F
"0,1,0,1,0,0,0,1,0","0.0,3.0,0.0,3.0,0.0,0.0,0.0,0.0,3.0",0.07241090390631769,463.79454804684116,0.707106781187,0.7108047122835708,59006,八重洲個室バル バンケット,https://tabelog.com/tokyo/A1302/A130201/13211722/,焼鳥、鳥料理,Ｂ級和食,35.68070917,139.7686842,東京都中央区八重洲1-7-10今井ビル4F
"0,1,0,1,0,0,0,1,0","0.0,3.0,0.0,3.0,0.0,0.0,0.0,0.0,3.0",0.06986646459168583,465.0667677041571,0.707106781187,0.710550014337162,64654,菜のHana 八重洲店,https://tabelog.com/tokyo/A1302/A130201/13152698/,ダイニングバー,バー・お酒,35.68071861,139.7686733,東京都中央区八重洲1-7-10YKビルB1F
"0,1,0,1,0,0,0,1,0","0.0,3.0,0.0,3.0,0.0,0.0,0.0,0.0,3.0",0.06868952476880247,465.65523761559876,0.707106781187,0.7104352544834497,61597,東京吉兆 日本橋タカシマヤ店,https://tabelog.com/tokyo/A1302/A130202/13117403/,懐石・会席料理,高級和食,35.68069028,139.7715567,東京都中央区日本橋2-4-1日本橋タカシマヤB1F
"0,1,0,1,0,0,0,1,0","0.0,3.0,0.0,3.0,0.0,0.0,0.0,0.0,3.0",0.0676921362470157,466.15393187649215,0.707106781187,0.7103395141125717,60925,完全個室と京料理 はんなり邸 八重洲本店,https://tabelog.com/tokyo/A1302/A130201/13163724/,居酒屋、しゃぶしゃぶ、京料理,高級和食,35.68073583,139.768705,東京都中央区八重洲1-7-10今井ビル2F
"0,1,0,1,0,0,0,1,0","0.0,3.0,0.0,3.0,0.0,0.0,0.0,0.0,3.0",0.05976712798195717,470.1164360090214,0.707106781187,0.7096281488126098,63949,鳥駒,https://tabelog.com/tokyo/A1302/A130202/13049830/,割烹・小料理、天ぷら、焼鳥,高級和食,35.68088264,139.7693929,東京都中央区日本橋3-1-15
"0,1,0,1,0,0,0,1,0","0.0,3.0,0.0,3.0,0.0,0.0,0.0,0.0,3.0",0.057916508966867584,471.0417455165662,0.707106781187,0.7094746803169999,61317,la radice,https://tabelog.com/tokyo/A1302/A130203/13211316/,イタリアン、バル・バール,洋食・西洋料理,35.67905417,139.7743567,東京都中央区日本橋兜町16-1第11大協ビル1Fこのお店は「文京区根津1-16-8」から移転しています。※移転前の情報は最新のものとは異なります。移転前の店舗情報を見る
"0,1,0,1,0,0,0,1,0","0.0,3.0,0.0,3.0,0.0,0.0,0.0,0.0,3.0",0.05688895308321639,471.5555234583918,0.707106781187,0.709391537152019,58493,さつま黒宝庵 八重洲本店,https://tabelog.com/tokyo/A1302/A130201/13145856/,居酒屋、郷土料理（その他）、しゃぶしゃぶ,焼肉・ホルモン・鍋,35.68072923,139.7684656,東京都中央区八重洲1-7-12第2ロータリービルB1F
"0,1,0,1,0,0,0,1,0","0.0,3.0,0.0,3.0,0.0,0.0,0.0,0.0,3.0",0.05082067558184838,474.5896622090758,0.707106781187,0.708930702584248,58687,タナゴコロ ザバー,https://tabelog.com/tokyo/A1301/A130101/13122362/,バー,バー・お酒,35.67393833,139.7660192,東京都中央区銀座1-8-15B1F
"0,1,0,1,0,0,0,1,0","0.0,3.0,0.0,3.0,0.0,0.0,0.0,0.0,3.0",0.04230588859396869,478.84705570301566,0.707106781187,0.70837122203667,64072,原価ビストロBAN！ 八丁堀,https://tabelog.com/tokyo/A1302/A130203/13212220/,ビストロ、バル・バール、居酒屋,洋食・西洋料理,35.67605972,139.7752786,東京都中央区八丁堀2-21-5西勘ビル1F・2F
"0,1,0,1,0,0,0,1,0","0.0,3.0,0.0,3.0,0.0,0.0,0.0,0.0,3.0",0.03994657820786893,480.02671089606554,0.707106781187,0.7082342332240918,61789,BAR 傑作,https://tabelog.com/tokyo/A1301/A130101/13035475/,バー,バー・お酒,35.67506389,139.765125,東京都中央区銀座1-5-16第三太陽ビル別館わき１Ｆ
"0,1,0,1,0,0,0,1,0","0.0,3.0,0.0,3.0,0.0,0.0,0.0,0.0,3.0",0.03938994522015491,480.30502738992254,0.707106781187,0.7082030554752264,63742,帝国ホテル 日本橋高島屋特別食堂,https://tabelog.com/tokyo/A1302/A130202/13020877/,フレンチ,洋食・西洋料理,35.68056972,139.77237,東京都中央区日本橋2-4-1日本橋タカシマヤ8F
"0,1,0,1,0,0,0,1,0","0.0,3.0,0.0,3.0,0.0,0.0,0.0,0.0,3.0",0.038063570035035584,480.9682149824822,0.707106781187,0.7081305214180589,59224,焼とり 焼とん 石川屋 八丁堀店,https://tabelog.com/tokyo/A1302/A130203/13102641/,焼鳥,Ｂ級和食,35.676047,139.7753,東京都中央区八丁堀2-21-5西勘ビル１Ｆ・２Ｆ
"0,1,0,1,0,0,0,1,0","0.0,3.0,0.0,3.0,0.0,0.0,0.0,0.0,3.0",0.031481007397810346,484.2594963010948,0.707106781187,0.7078072151559215,64226,東京ココジャスミン,https://tabelog.com/tokyo/A1302/A130203/13182866/,台湾料理、バー・お酒（その他）,バー・お酒,35.67636645,139.7753794,東京都中央区八丁堀2-22-3
"0,1,0,1,0,0,0,1,0","0.0,3.0,0.0,3.0,0.0,0.0,0.0,0.0,3.0",0.03072225796551095,484.6388710172445,0.707106781187,0.7077738742949611,60090,アロヒディン 日本橋店,https://tabelog.com/tokyo/A1302/A130202/13182537/,トルコ料理、ロシア料理、西洋各国料理（その他）,洋食・西洋料理,35.68000139,139.7735194,東京都中央区日本橋2-16-4日本橋山田ビル1F
"0,1,0,1,0,0,0,1,0","0.0,3.0,0.0,3.0,0.0,0.0,0.0,0.0,3.0",0.025629321108084697,487.18533944595765,0.707106781187,0.7075711003852978,61027,日本海庄や 八重洲店,https://tabelog.com/tokyo/A1302/A130202/13028398/,魚介料理・海鮮料理、居酒屋,高級和食,35.6805175,139.7674308,東京都中央区八重洲1-9-13八重洲駅前合同ビル　Ｂ１Ｆ・１Ｆ・２Ｆ・３Ｆ
"0,1,0,1,0,0,0,1,0","0.0,3.0,0.0,3.0,0.0,0.0,0.0,0.0,3.0",0.02417899748984553,487.91050125507724,0.707106781187,0.7075200519558537,64383,魚馳走亭 ちゃぽん 八重洲店,https://tabelog.com/tokyo/A1302/A130201/13011522/,居酒屋、魚介料理・海鮮料理,高級和食,35.68073194,139.7679528,東京都中央区八重洲1-8-3黒龍八重洲ビル　１Ｆ
"0,1,0,1,0,0,0,1,0","0.0,3.0,0.0,3.0,0.0,0.0,0.0,0.0,3.0",0.01764071712753844,491.1796414362308,0.707106781187,0.7073267949828945,59650,庄や 八重洲口店,https://tabelog.com/tokyo/A1302/A130202/13027958/,居酒屋、魚介料理・海鮮料理、居酒屋・ダイニングバー（その他）,高級和食,35.68076389,139.7679528,東京都中央区八重洲1-8-3黒龍八重洲ビル　２Ｆ
"0,1,0,1,0,0,0,1,0","0.0,3.0,0.0,3.0,0.0,0.0,0.0,0.0,3.0",0.006507766662758058,496.74611666862097,0.707106781187,0.7071367272507749,61004,銀座イタリー亭,https://tabelog.com/tokyo/A1301/A130101/13002469/,イタリアン、パスタ、ピザ,洋食・西洋料理,35.67439917,139.7653217,東京都中央区銀座1-6-8第２上一ビルディング1F・B1F
"0,1,0,1,0,0,0,1,0","0.0,3.0,0.0,3.0,0.0,0.0,0.0,0.0,3.0",0.006203069578499935,496.89846521075003,0.707106781187,0.7071339887688864,58704,グルガオン,https://tabelog.com/tokyo/A1301/A130101/13002457/,インド料理、インドカレー,アジア・エスニック、中華料理,35.67452778,139.76523,東京都中央区銀座1-6-13銀座１０６ビル　Ｂ１Ｆ
"0,1,0,1,0,0,0,1,0","0.0,3.0,0.0,3.0,0.0,0.0,0.0,0.0,3.0",0.004662983804759278,497.66850809762036,0.707106781187,0.7071221559376876,61664,やえす初藤,https://tabelog.com/tokyo/A1302/A130201/13021045/,居酒屋、和食（その他）,Ｂ級和食,35.68063418,139.7674512,東京都中央区八重洲2-1八重洲地下街北1号
"0,1,0,1,0,0,0,1,0","0.0,3.0,0.0,3.0,3.0,0.0,0.0,0.0,3.0",0.4707430884871011,264.62845575644945,0.5,0.6867307007542146,63325,脳天屋 本家 八丁堀店,https://tabelog.com/tokyo/A1302/A130203/13192922/,魚介料理・海鮮料理、居酒屋,高級和食,35.67696639,139.7729458,東京都中央区八丁堀2-3-4
"0,1,0,1,0,0,0,1,0","0.0,3.0,0.0,3.0,3.0,0.0,0.0,0.0,3.0",0.4625429716633829,268.72851416830855,0.5,0.6811358165852043,62653,八重洲ZION,https://tabelog.com/tokyo/A1302/A130202/13154077/,スペイン料理、イタリアン、バル・バール,洋食・西洋料理,35.67821083,139.7677447,東京都中央区八重洲2-3-11日本ふとん協会ビル1Ｆ
"0,1,0,1,0,0,0,1,0","0.0,3.0,0.0,3.0,3.0,0.0,0.0,0.0,3.0",0.4415597529979071,279.22012350104643,0.5,0.6670644762446676,64366,鶴橋きっちん,https://tabelog.com/tokyo/A1302/A130201/13163120/,鉄板焼き、お好み焼き、ホルモン,洋食・西洋料理,35.67594861,139.7670925,東京都中央区京橋3-1東京スクエアガーデンB1F
"0,1,0,1,0,0,0,1,0","0.0,3.0,0.0,3.0,3.0,0.0,0.0,0.0,3.0",0.4331133839135803,283.44330804320987,0.5,0.6615037439992856,58981,豚バルBYO-塊- 八重洲店,https://tabelog.com/tokyo/A1302/A130202/13127699/,バル・バール、スペイン料理、ワインバー,バー・お酒,35.67916083,139.7707861,東京都中央区日本橋3-5-12ニュー八重洲ビル　１F
"0,1,0,1,0,0,0,1,0","0.0,3.0,0.0,3.0,3.0,0.0,0.0,0.0,3.0",0.42012276007842025,289.9386199607899,0.5,0.6530720737682096,62969,アルザス,https://tabelog.com/tokyo/A1302/A130202/13168521/,ワインバー、洋食・欧風料理（その他）、ダイニングバー,バー・お酒,35.67866306,139.7679597,東京都中央区京橋1-4-11竹本ビルB1F
"0,1,0,1,0,0,0,1,0","0.0,3.0,0.0,3.0,3.0,0.0,0.0,0.0,3.0",0.40666509463045075,296.6674526847746,0.5,0.6444970901336898,62781,一の倉 八重洲店,https://tabelog.com/tokyo/A1302/A130202/13048686/,居酒屋、焼鳥、魚介料理・海鮮料理,高級和食,35.67864444,139.7678222,東京都中央区京橋1-4-13セントラル京橋ビルB1
"0,1,0,1,0,0,0,1,0","0.0,3.0,0.0,3.0,3.0,0.0,0.0,0.0,3.0",0.39902873225766816,300.48563387116593,0.5,0.6397061271921364,62750,旬鮮酒場 天狗 東京駅前店,https://tabelog.com/tokyo/A1302/A130201/13036946/,居酒屋、焼鳥、串焼き,居酒屋,35.67926278,139.7690494,東京都中央区京橋1-1-6越前屋ビルB1・B2F
"0,1,0,1,0,0,0,1,0","0.0,3.0,0.0,3.0,3.0,0.0,0.0,0.0,3.0",0.38981909520476155,305.09045239761923,0.5,0.6340023083445824,63818,シュガー スプーン 日本橋店,https://tabelog.com/tokyo/A1302/A130202/13037570/,イタリアン、ワインバー、ダイニングバー,バー・お酒,35.67927278,139.7711628,東京都中央区日本橋3-6-10くりはらビル　Ｂ１Ｆ
"0,1,0,1,0,0,0,1,0","0.0,3.0,0.0,3.0,3.0,0.0,0.0,0.0,3.0",0.38081718617332444,309.5914069133378,0.5,0.6285075411520282,62911,鳥どり　総本家 八重洲二丁目店,https://tabelog.com/tokyo/A1302/A130202/13028309/,居酒屋、焼鳥、鳥料理,Ｂ級和食,35.67774889,139.7668856,東京都中央区八重洲2-5-9八重洲共同ビル　Ｂ１Ｆ
"0,1,0,1,0,0,0,1,0","0.0,3.0,0.0,3.0,3.0,0.0,0.0,0.0,3.0",0.3689284280590713,315.53578597046436,0.5,0.621376041564315,64467,レ ロジェ ビストロ ド ロア,https://tabelog.com/tokyo/A1302/A130202/13154815/,フレンチ、カフェ、ビストロ,洋食・西洋料理,35.67603972,139.7666478,東京都中央区京橋3-1-1東京スクエアガーデン1F
"0,1,0,1,0,0,0,1,0","0.0,3.0,0.0,3.0,0.0,3.0,0.0,0.0,3.0",0.368381057929553,315.8094710352235,0.5,0.6210512087109216,61969,ビフトロ バイ ラ コクシネル,https://tabelog.com/tokyo/A1302/A130201/13154999/,ビストロ,洋食・西洋料理,35.67603583,139.7666458,東京都中央区京橋3-1-1東京スクエアガーデンB1F
"0,1,0,1,0,0,0,1,0","0.0,3.0,0.0,3.0,3.0,0.0,0.0,0.0,3.0",0.3585054779952991,320.74726100235046,0.5,0.615244811235851,64773,ナンクルナイサ　きばいやんせー 京橋店,https://tabelog.com/tokyo/A1302/A130201/13154971/,沖縄料理、居酒屋、和食（その他）,Ｂ級和食,35.67611917,139.7665681,東京都中央区京橋3-1-1東京スクエアガーデンB1F
"0,1,0,1,0,0,0,1,0","0.0,3.0,0.0,3.0,3.0,0.0,0.0,0.0,3.0",0.3472860278923705,326.35698605381475,0.5,0.6087754800985831,58430,ハチョボリーノ,https://tabelog.com/tokyo/A1302/A130203/13209734/,イタリアン、パスタ、ピザ,洋食・西洋料理,35.67486694,139.7728836,東京都中央区八丁堀3-17-16セントラル京橋三立ビル別館102
"0,1,0,1,0,0,0,1,0","0.0,3.0,0.0,3.0,3.0,0.0,0.0,0.0,3.0",0.34671904101166867,326.6404794941657,0.5,0.6084522112705739,58629,なか御食事処,https://tabelog.com/tokyo/A1302/A130202/13080659/,レストラン（その他）、割烹・小料理,高級和食,35.67380262,139.7692754,東京都中央区銀座1-18-6
"0,1,0,1,0,0,0,1,0","0.0,3.0,0.0,3.0,3.0,0.0,0.0,0.0,3.0",0.3439717857958095,328.01410710209524,0.5,0.6068909205314892,62354,すぎのこ,https://tabelog.com/tokyo/A1302/A130202/13155185/,居酒屋、鍋（その他）、焼鳥,焼肉・ホルモン・鍋,35.67637,139.7664406,東京都中央区京橋3-1-1東京スクエアガーデンB1F
"0,1,0,1,0,0,0,1,0","0.0,3.0,0.0,3.0,0.0,3.0,0.0,0.0,3.0",0.341901822483194,329.049088758403,0.5,0.6057201137632211,58850,北の味紀行と地酒 北海道 八重洲店,https://tabelog.com/tokyo/A1302/A130202/13022789/,居酒屋、魚介料理・海鮮料理、懐石・会席料理,高級和食,35.67707889,139.7664425,東京都中央区八重洲2-7-12ヒューリックビルB1～2F
"0,1,0,1,0,0,0,1,0","0.0,3.0,0.0,3.0,0.0,3.0,0.0,0.0,3.0",0.33456575968926505,332.71712015536747,0.5,0.6016097136486869,58766,ソフィア,https://tabelog.com/tokyo/A1302/A130202/13040138/,西洋各国料理（その他）、郷土料理（その他）、レストラン（その他）,洋食・西洋料理,35.67784194,139.7666564,東京都中央区八重洲2-5-12プレリー八重洲ビル２Ｆ
"0,1,0,1,0,0,0,1,0","0.0,3.0,0.0,3.0,3.0,3.0,0.0,0.0,3.0",0.4399334078168225,280.03329609158874,0.408248290464,0.6001733666033418,63517,帰農庵 時代おくれ,https://tabelog.com/tokyo/A1302/A130202/13032633/,野菜料理、居酒屋、日本酒バー,バー・お酒,35.67908139,139.7690958,東京都中央区京橋1-1-9レオ八重洲ビルB1F
"0,1,0,1,0,0,0,1,0","0.0,3.0,0.0,3.0,3.0,0.0,0.0,0.0,3.0",0.32902618367635805,335.48690816182096,0.5,0.5985467647098499,63093,宗佑,https://tabelog.com/tokyo/A1302/A130203/13113731/,居酒屋、魚介料理・海鮮料理、おでん,高級和食,35.6747625,139.7729103,東京都中央区八丁堀3-17-14
"0,1,0,1,0,0,0,1,0","0.0,3.0,0.0,3.0,3.0,0.0,0.0,0.0,3.0",0.3238586747514604,338.0706626242698,0.5,0.5957217817167442,64481,南インド料理ダクシン 八重洲店,https://tabelog.com/tokyo/A1302/A130202/13117635/,インドカレー、インド料理、居酒屋,居酒屋,35.67786028,139.7666017,東京都中央区八重洲2-5-12プレリービルB1F
"0,1,0,1,0,0,0,1,0","0.0,2.0,0.0,3.0,3.0,0.0,0.0,0.0,3.0",0.31640754652889413,341.7962267355529,0.5,0.591704094544253,59837,炭焼と海鮮 いち,https://tabelog.com/tokyo/A1302/A130203/13202402/,居酒屋,居酒屋,35.67579778,139.7736617,東京都中央区八丁堀3-14-2東八重洲シティビルB1F
"0,1,0,1,0,0,0,1,0","0.0,3.0,0.0,3.0,0.0,3.0,0.0,0.0,3.0",0.31634800520683554,341.82599739658224,0.5,0.5916722575872085,61796,beer & wine厨房　tamaya 八丁堀店,https://tabelog.com/tokyo/A1302/A130203/13122796/,バル・バール、ワインバー、イタリアン,バー・お酒,35.67584611,139.7736792,東京都中央区八丁堀3-14-2東八重洲シティービル1F
"0,1,0,1,0,0,0,1,0","0.0,3.0,0.0,3.0,3.0,0.0,0.0,0.0,3.0",0.31239605492761563,343.8019725361922,0.5,0.5895687365645653,58761,聚中縁餃子,https://tabelog.com/tokyo/A1302/A130203/13007685/,中華料理、刀削麺、中国鍋・火鍋,アジア・エスニック、中華料理,35.67825111,139.7733166,東京都中央区八丁堀1-3-9双鶴八重洲ビル　１Ｆ
"0,1,0,1,0,0,0,1,0","0.0,3.0,0.0,3.0,3.0,0.0,0.0,0.0,3.0",0.3112924731100718,344.3537634449641,0.5,0.5889847229045799,59280,うら八,https://tabelog.com/tokyo/A1302/A130203/13045728/,ダイニングバー、割烹・小料理、定食・食堂,高級和食,35.67610194,139.7737814,東京都中央区八丁堀2-19-11木下ビル　１Ｆ
"0,1,0,1,0,0,0,1,0","0.0,3.0,0.0,3.0,3.0,0.0,0.0,0.0,3.0",0.3080048490062633,345.99757549686836,0.5,0.5872537671325498,63056,焼酎ダイニング だけん,https://tabelog.com/tokyo/A1302/A130203/13189299/,郷土料理（その他）、焼酎バー、居酒屋,高級和食,35.67601861,139.7737792,東京都中央区八丁堀2-19-10秦昌堂ビル1F
"0,1,0,1,0,0,0,1,0","0.0,3.0,0.0,3.0,3.0,0.0,0.0,0.0,3.0",0.30800398349004776,345.9980082549761,0.5,0.5872533131841298,63160,よっくん家,https://tabelog.com/tokyo/A1302/A130203/13029750/,お好み焼き、鉄板焼き、もんじゃ焼き,洋食・西洋料理,35.67577778,139.7737028,東京都中央区八丁堀3-14-2東八重洲シティービル　Ｂ１Ｆ
"0,1,0,1,0,0,0,1,0","0.0,3.0,0.0,3.0,3.0,0.0,0.0,0.0,3.0",0.3080016683788052,345.9991658105974,0.5,0.5872520989525091,59143,ほたる,https://tabelog.com/tokyo/A1302/A130203/13034306/,鳥料理、居酒屋、鍋（その他）,焼肉・ホルモン・鍋,35.67827235,139.7733294,東京都中央区八丁堀1-3-7双鶴八重洲ビル　Ｂ１Ｆ
"0,1,0,1,0,0,0,1,0","0.0,3.0,0.0,3.0,3.0,0.0,0.0,0.0,3.0",0.30453918919997863,347.7304054000107,0.5,0.5854435222620371,61458,素材屋 東京駅前店,https://tabelog.com/tokyo/A1302/A130201/13041637/,居酒屋、郷土料理（その他）、創作料理,高級和食,35.67950833,139.7683919,東京都中央区京橋1-1-1八重洲ダイビルB2
"0,1,0,1,0,0,0,1,0","0.0,3.0,0.0,3.0,3.0,0.0,0.0,0.0,3.0",0.30407231395287815,347.9638430235609,0.5,0.5852007964046679,62796,パパミラノ イタリアワイン食堂 日本橋店,https://tabelog.com/tokyo/A1302/A130202/13072522/,イタリアン、パスタ、ピザ,洋食・西洋料理,35.67981513,139.7700515,東京都中央区日本橋3-6-2日本橋フロントB1F
"0,1,0,1,0,0,0,1,0","0.0,3.0,0.0,3.0,3.0,0.0,0.0,0.0,3.0",0.29885582535421984,350.57208732289007,0.5,0.5825073427418336,62516,屋台屋 博多劇場 八重洲店,https://tabelog.com/tokyo/A1302/A130202/13129485/,居酒屋、もつ鍋、餃子,居酒屋,35.67776194,139.7664061,東京都中央区八重洲2-6-5八重洲五の五ビル1FA
"0,1,0,1,0,0,0,1,0","0.0,3.0,0.0,3.0,3.0,0.0,0.0,0.0,3.0",0.2961189630247704,351.9405184876148,0.5,0.5811079420063585,58911,三六 八重洲店,https://tabelog.com/tokyo/A1302/A130201/13111353/,もつ焼き、ホルモン、居酒屋,焼肉・ホルモン・鍋,35.67970722,139.7688869,東京都中央区八重洲2-1八重洲地下街八重洲地下1番通り
"0,1,0,1,0,0,0,1,0","0.0,3.0,0.0,3.0,3.0,0.0,0.0,0.0,3.0",0.2923694890178524,353.8152554910738,0.5,0.5792062828635064,61024,もつ鍋 一慶 八丁堀すずらん通り店,https://tabelog.com/tokyo/A1302/A130203/13061516/,もつ鍋、郷土料理（その他）、居酒屋,高級和食,35.67544667,139.7736486,東京都中央区八丁堀3-16-3
"0,1,0,1,0,0,0,1,0","0.0,3.0,0.0,3.0,3.0,0.0,0.0,0.0,3.0",0.2903044548319133,354.84777258404335,0.5,0.5781666511441613,63238,うすけぼー 昭和通店,https://tabelog.com/tokyo/A1302/A130202/13051482/,洋食、居酒屋、ビアホール・ビアレストラン,洋食・西洋料理,35.67925556,139.7723661,東京都中央区日本橋3-13-11油脂工業会館B1F
"0,1,0,1,0,0,0,1,0","0.0,3.0,0.0,3.0,3.0,0.0,0.0,0.0,3.0",0.2895116010161407,355.24419949192963,0.5,0.5777689565240842,61501,飯場 銀座店,https://tabelog.com/tokyo/A1302/A130202/13007586/,居酒屋、串揚げ・串かつ、魚介料理・海鮮料理,高級和食,35.67390833,139.7680775,東京都中央区銀座1-15-2銀座スイムビル　Ｂ１Ｆ
"0,1,0,1,0,0,0,1,0","0.0,3.0,0.0,3.0,0.0,3.0,0.0,0.0,3.0",0.26257055119375083,368.7147244031246,0.5,0.564750647944905,63823,アーンドラ・ダイニング 銀座,https://tabelog.com/tokyo/A1301/A130101/13136701/,インド料理、インドカレー、ダイニングバー,バー・お酒,35.674555,139.7669117,東京都中央区銀座1-8-2銀座プルミエビル２Ｆ
"0,1,0,1,0,0,0,1,0","0.0,3.0,0.0,3.0,3.0,0.0,0.0,0.0,3.0",0.26018123429206,369.90938285397,0.5,0.5636437480161913,62559,武平次 八丁堀桜橋店,https://tabelog.com/tokyo/A1302/A130203/13167910/,居酒屋,居酒屋,35.67615535,139.7740793,東京都中央区八丁堀2-18-2
"0,1,0,1,0,0,0,1,0","0.0,3.0,0.0,3.0,3.0,0.0,0.0,0.0,3.0",0.25814252176784114,370.92873911607944,0.5,0.5627055726973569,61887,木村屋本店 銀座一丁目店,https://tabelog.com/tokyo/A1301/A130101/13108317/,居酒屋、しゃぶしゃぶ、もつ鍋,焼肉・ホルモン・鍋,35.67452556,139.76691,東京都中央区銀座1-8-2
"0,1,0,1,0,0,0,1,0","0.0,3.0,0.0,3.0,3.0,0.0,0.0,0.0,3.0",0.25786985386427014,371.06507306786494,0.5,0.5625805378183465,61398,アロヒディン,https://tabelog.com/tokyo/A1302/A130203/13139519/,ロシア料理、トルコ料理,洋食・西洋料理,35.67803774,139.7737893,東京都中央区八丁堀1-4-8森田ビルB1F
"0,1,0,1,0,0,0,1,0","0.0,3.0,0.0,3.0,3.0,0.0,0.0,0.0,3.0",0.2532818402457002,373.3590798771499,0.5,0.5604923644424146,58550,金の独楽,https://tabelog.com/tokyo/A1301/A130101/13042322/,居酒屋、野菜料理、日本酒バー,バー・お酒,35.67537917,139.76624,東京都中央区京橋3-4-4イーストサイドビル2～4F
"0,1,0,1,0,0,0,1,0","0.0,3.0,0.0,3.0,3.0,0.0,0.0,0.0,3.0",0.24441355148060426,377.79322425969787,0.5,0.5565410893612097,59895,日本橋すし鉄 本店,https://tabelog.com/tokyo/A1302/A130201/13006490/,寿司、魚介料理・海鮮料理,高級和食,35.68003389,139.7693308,東京都中央区日本橋3-3-12
"0,1,0,1,0,0,0,1,0","0.0,3.0,0.0,3.0,0.0,3.0,0.0,0.0,3.0",0.2403273839649927,379.83630801750365,0.5,0.5547587326788619,58751,バール ドンピエール トゥット フェリーチェ,https://tabelog.com/tokyo/A1301/A130101/13175681/,地中海料理、イタリアン、バル・バール,洋食・西洋料理,35.6742325,139.7671092,東京都中央区銀座1-9-5ホテルユニゾ銀座一丁目1F
"0,1,0,1,0,0,0,1,0","0.0,3.0,0.0,3.0,3.0,0.0,0.0,0.0,3.0",0.23917973848726887,380.41013075636556,0.5,0.5542625256165514,63179,パルコ ディ ジョイア,https://tabelog.com/tokyo/A1301/A130101/13167304/,イタリアン,洋食・西洋料理,35.67557694,139.766065,東京都中央区京橋3-3-12山京ビル2F
"0,1,0,1,0,0,0,1,0","0.0,3.0,0.0,3.0,3.0,0.0,0.0,0.0,3.0",0.23892410401970846,380.53794799014577,0.5,0.5541522601971596,59183,バンカレッラ ジョイア,https://tabelog.com/tokyo/A1301/A130101/13127154/,イタリアン、ワインバー、ダイニングバー,バー・お酒,35.67557528,139.7660642,東京都中央区京橋3-3-12山京ビルB1F、2F
"0,1,0,1,0,0,0,1,0","0.0,3.0,0.0,3.0,3.0,0.0,0.0,0.0,3.0",0.2312373637792465,384.38131811037675,0.5,0.550881764453658,64904,スペインバルリーガ,https://tabelog.com/tokyo/A1302/A130203/13149499/,バル・バール、ワインバー、スペイン料理,バー・お酒,35.67585528,139.7741681,東京都中央区八丁堀2-19-71F
"0,1,0,1,0,0,0,1,0","0.0,3.0,0.0,3.0,3.0,0.0,0.0,0.0,3.0",0.23100044032622213,384.49977983688893,0.5,0.550782355773048,65066,太樹苑 銀座店,https://tabelog.com/tokyo/A1301/A130101/13124344/,焼肉、ホルモン、韓国料理,焼肉・ホルモン・鍋,35.67564944,139.7659886,東京都中央区京橋3‐3‐13
"0,1,0,1,0,0,0,1,0","0.0,3.0,0.0,3.0,3.0,3.0,0.0,0.0,3.0",0.3584281108928976,320.7859445535512,0.408248290464,0.5432654759368738,64739,別亭 神田新八,https://tabelog.com/tokyo/A1302/A130201/13154997/,魚介料理・海鮮料理、懐石・会席料理、すっぽん,高級和食,35.67611861,139.7665678,東京都中央区京橋3-1-1東京スクエアガーデンB1F
"0,1,0,1,0,0,0,1,0","0.0,3.0,0.0,3.0,3.0,0.0,0.0,0.0,3.0",0.20785804922274032,396.07097538862985,0.5,0.5414840428181454,63712,日本橋はらから,https://tabelog.com/tokyo/A1302/A130202/13165581/,居酒屋、魚介料理・海鮮料理、焼鳥,高級和食,35.68013194,139.7711539,東京都中央区日本橋3-8-14日本橋ビル1F
"0,1,0,1,0,0,0,1,0","0.0,3.0,0.0,3.0,3.0,0.0,0.0,0.0,3.0",0.20211227806980558,398.9438609650972,0.5,0.5393045270963025,60066,旬菜酒処・とんかつ かつ繁,https://tabelog.com/tokyo/A1302/A130202/13040933/,とんかつ,Ｂ級和食,35.6734025,139.7718589,東京都中央区新富1-3-7ヨドコウビル　Ｂ１Ｆ
"0,1,0,1,0,0,0,1,0","0.0,3.0,0.0,3.0,0.0,3.0,0.0,0.0,3.0",0.2004098299625815,399.79508501870924,0.5,0.5386688221399405,64479,サン ミケーレ ホテルモントレ ラ・スールギンザ,https://tabelog.com/tokyo/A1301/A130101/13002455/,イタリアン,洋食・西洋料理,35.67394806,139.7671631,東京都中央区銀座1-10-18ホテルモントレラ・スールギンザ1F
"0,1,0,1,0,0,0,1,0","0.0,3.0,0.0,3.0,3.0,0.0,0.0,0.0,3.0",0.19906876400560644,400.4656179971968,0.5,0.5381713229100189,64825,わすけ,https://tabelog.com/tokyo/A1302/A130203/13015343/,牛タン、バー・お酒（その他）、居酒屋,Ｂ級和食,35.67636806,139.7744511,東京都中央区八丁堀2-16-3ICM中央ビル　Ｂ１Ｆ
"0,1,0,1,0,0,0,1,0","0.0,3.0,0.0,3.0,3.0,0.0,0.0,0.0,3.0",0.19834851378308246,400.82574310845877,0.5,0.53790531966133,59765,銀の月 八重洲店,https://tabelog.com/tokyo/A1302/A130202/13165610/,魚介料理・海鮮料理、もつ鍋、日本酒バー,高級和食,35.68008806,139.7685789,東京都中央区日本橋3-4-1第二弥生ビル6F
"0,1,0,1,0,0,0,1,0","0.0,3.0,0.0,3.0,3.0,0.0,0.0,0.0,3.0",0.19834851378308246,400.82574310845877,0.5,0.53790531966133,59957,鳥彩 八重洲店,https://tabelog.com/tokyo/A1302/A130202/13162945/,鳥料理、水炊き、鍋（その他）,焼肉・ホルモン・鍋,35.68008806,139.7685789,東京都中央区日本橋3-4-1第二弥生ビル5F
"0,1,0,1,0,0,0,1,0","0.0,3.0,0.0,3.0,3.0,0.0,0.0,0.0,3.0",0.19594247887305358,402.0287605634732,0.5,0.5370227695609536,62008,山内農場 八重洲中央口駅前店,https://tabelog.com/tokyo/A1302/A130202/13028422/,居酒屋、焼鳥、創作料理,創作料理・無国籍料理,35.67977,139.7677267,東京都中央区八重洲2-1-4東京駅前八重洲ビル2F・3F
"0,1,0,1,0,0,0,1,0","0.0,3.0,0.0,3.0,3.0,0.0,0.0,0.0,3.0",0.19557735167732698,402.2113241613365,0.5,0.5368896539225885,64290,月の宴 八重洲中央口駅前店,https://tabelog.com/tokyo/A1302/A130201/13038385/,居酒屋、魚介料理・海鮮料理、創作料理,高級和食,35.67974389,139.7676714,東京都中央区八重洲2-1-4東京駅前八重洲ビル　６F
"0,1,0,1,0,0,0,1,0","0.0,3.0,0.0,3.0,3.0,0.0,0.0,0.0,3.0",0.19098954075907362,404.5052296204632,0.5,0.53523546657463,62349,八吉 八重洲仲通り本店,https://tabelog.com/tokyo/A1302/A130202/13028573/,魚介料理・海鮮料理、日本酒バー、居酒屋,高級和食,35.68012389,139.7685814,東京都中央区日本橋3-4-1第二弥生ビル
"0,1,0,1,0,0,0,1,0","0.0,3.0,0.0,3.0,0.0,3.0,0.0,0.0,3.0",0.18983147463834485,405.0842626808276,0.5,0.53482332481238,61285,ヴィラッツァ　ドゥエ,https://tabelog.com/tokyo/A1301/A130101/13182171/,イタリアン、バル・バール、パスタ,洋食・西洋料理,35.67355472,139.7677289,東京都中央区銀座1-15-11ホテルサンルート銀座1F
"0,1,0,1,0,0,0,1,0","0.0,2.0,0.0,3.0,3.0,0.0,0.0,0.0,3.0",0.1897675515198731,405.11622424006345,0.5,0.5348006391262521,64026,ビストロ デュ ムーラン 日本橋,https://tabelog.com/tokyo/A1302/A130203/13199778/,フレンチ、ビストロ、ワインバー,洋食・西洋料理,35.67850694,139.7739178,東京都中央区日本橋兜町22-3このお店は「武蔵野市吉祥寺南町2-13-15」から移転しています。※移転前の情報は最新のものとは異なります。移転前の店舗情報を見る
"0,1,0,1,0,0,0,1,0","0.0,3.0,0.0,3.0,3.0,0.0,0.0,0.0,3.0",0.18672094340286674,406.63952829856663,0.5,0.5337271875267894,59363,魚や一丁 八重洲口店,https://tabelog.com/tokyo/A1302/A130201/13150948/,居酒屋、魚介料理・海鮮料理、日本酒バー,高級和食,35.67973528,139.767565,東京都中央区八重洲2-1-4東京駅前八重洲ビルB1F
"0,1,0,1,0,0,0,1,0","0.0,3.0,0.0,3.0,3.0,0.0,0.0,0.0,3.0",0.18036383593928235,409.8180820303588,0.5,0.5315365587753418,62535,リストランテ ワイン屋 銀座一丁目店,https://tabelog.com/tokyo/A1301/A130101/13138251/,ワインバー、ダイニングバー、オセアニア料理,洋食・西洋料理,35.67298556,139.7699994,東京都中央区銀座1-27-10ザアソシエイトビル1F
"0,1,0,1,0,0,0,1,0","0.0,3.0,0.0,3.0,3.0,0.0,0.0,0.0,3.0",0.17585393828821577,412.0730308558921,0.5,0.5300232142194109,59506,北海道シントク町 塚田農場 八重洲北口店,https://tabelog.com/tokyo/A1302/A130201/13156279/,居酒屋、ダイニングバー、鳥料理,バー・お酒,35.68030972,139.7690858,東京都中央区日本橋3-3-3八重洲山川ビル3Ｆ
"0,1,0,1,0,0,0,1,0","0.0,3.0,0.0,3.0,3.0,0.0,0.0,0.0,3.0",0.17563599505089725,412.1820024745514,0.5,0.5299509437273594,60614,宮崎県日南市 塚田農場 八重洲北口店,https://tabelog.com/tokyo/A1302/A130201/13156278/,居酒屋、もつ鍋、鳥料理,Ｂ級和食,35.68031083,139.7690864,東京都中央区日本橋3-3-3八重洲山川ビル4Ｆ
"0,1,0,1,0,0,0,1,0","0.0,3.0,0.0,3.0,3.0,0.0,0.0,0.0,3.0",0.1746982389201329,412.65088053993355,0.5,0.529640892191866,59683,フィリー,https://tabelog.com/tokyo/A1302/A130202/13128540/,イタリアン、スポーツバー、西洋各国料理（その他）,洋食・西洋料理,35.68036,139.7693928,東京都中央区日本橋3-2-13中條ビル1・2F
"0,1,0,1,0,0,0,1,0","0.0,3.0,0.0,3.0,0.0,3.0,0.0,0.0,3.0",0.1728442807730737,413.57785961346315,0.5,0.5290322725467334,63285,The Kitchen Salvatore Cuomo GINZA,https://tabelog.com/tokyo/A1301/A130101/13189254/,イタリアン、ピザ、ダイニングバー,洋食・西洋料理,35.67369139,139.7673122,東京都中央区銀座1-13-15ダイワロイネットホテル銀座2F
"0,1,0,1,0,0,0,1,0","0.0,3.0,0.0,3.0,3.0,0.0,0.0,0.0,3.0",0.17214754790874032,413.92622604562985,0.5,0.5288050474900859,58442,とり貫,https://tabelog.com/tokyo/A1301/A130101/13150925/,焼鳥、鳥料理、居酒屋,Ｂ級和食,35.67597639,139.7655536,東京都中央区八重洲2-10-7
"0,1,0,1,0,0,0,1,0","0.0,3.0,0.0,3.0,3.0,0.0,0.0,0.0,3.0",0.17061646353099605,414.691768234502,0.5,0.5283086007513257,58535,個室居酒屋 番屋 八重洲本店,https://tabelog.com/tokyo/A1302/A130201/13022788/,居酒屋、魚介料理・海鮮料理、天ぷら,居酒屋,35.68027111,139.7687786,東京都中央区日本橋3-3-15日本橋Ｋ１ビル　１Ｆ
"0,1,0,1,0,0,0,1,0","0.0,3.0,0.0,3.0,3.0,0.0,0.0,0.0,3.0",0.16742177731473293,416.28911134263353,0.5,0.5272855502659105,63863,酒席 いづみや,https://tabelog.com/tokyo/A1302/A130201/13011464/,居酒屋、魚介料理・海鮮料理,高級和食,35.68033701,139.7690215,東京都中央区日本橋3-3-3
"0,1,0,1,0,0,0,1,0","0.0,3.0,0.0,3.0,3.0,0.0,0.0,0.0,3.0",0.1633550510650448,418.3224744674776,0.5,0.5260084340659029,59288,hyaku×amour,https://tabelog.com/tokyo/A1301/A130101/13100842/,イタリアン,洋食・西洋料理,35.67356785,139.7674339,東京都中央区銀座1-13-6
"0,1,0,1,0,0,0,1,0","0.0,3.0,0.0,3.0,3.0,0.0,0.0,0.0,3.0",0.16232397650002112,418.83801174998945,0.5,0.5256891413628204,64371,路地裏のタベルナ ビッケ,https://tabelog.com/tokyo/A1313/A131301/13196257/,イタリアン,洋食・西洋料理,35.67292417,139.7705206,東京都中央区新富1-4-5錦ビル1F
"0,1,0,1,0,0,0,1,0","0.0,3.0,0.0,3.0,3.0,0.0,0.0,0.0,3.0",0.1619332954234818,419.0333522882591,0.5,0.525568636970195,64586,黒毛和牛食べ放題 みやもと牧場 八丁堀店,https://tabelog.com/tokyo/A1302/A130203/13211167/,焼肉、ホルモン、居酒屋,焼肉・ホルモン・鍋,35.67530265,139.7743543,東京都中央区八丁堀3-19-9京橋第六長岡ビルB1F
"0,1,0,1,0,0,0,1,0","0.0,3.0,0.0,3.0,3.0,0.0,0.0,0.0,3.0",0.15787168962865586,421.06415518567206,0.5,0.5243314508840822,62225,仙台旬風 冨和利 日本橋店,https://tabelog.com/tokyo/A1302/A130202/13099768/,居酒屋、郷土料理（その他）、しゃぶしゃぶ,焼肉・ホルモン・鍋,35.68040444,139.7709303,東京都中央区日本橋3-8-3日本橋通りビル　Ｂ１Ｆ
"0,1,0,1,0,0,0,1,0","0.0,3.0,0.0,3.0,3.0,0.0,0.0,0.0,3.0",0.15526678459212895,422.36660770393553,0.5,0.5235530292124939,63969,鮨乃家 八重洲店,https://tabelog.com/tokyo/A1302/A130201/13042440/,寿司、魚介料理・海鮮料理、居酒屋,高級和食,35.67986111,139.7674833,東京都中央区八重洲2-1-5東京駅前ビル　２Ｆ
"0,1,0,1,0,0,0,1,0","0.0,3.0,0.0,3.0,3.0,0.0,0.0,0.0,3.0",0.1516394512670896,424.1802743664552,0.5,0.5224887780427289,64392,牛角 八丁堀八重洲通り店,https://tabelog.com/tokyo/A1302/A130203/13027642/,焼肉、居酒屋、韓国料理,焼肉・ホルモン・鍋,35.67685222,139.7747247,東京都中央区八丁堀2-14-4ヤブ原ビル　２Ｆ
"0,1,0,1,0,0,0,1,0","0.0,3.0,0.0,3.0,0.0,3.0,0.0,0.0,3.0",0.15067055314591266,424.66472342704367,0.5,0.5222084024460879,64009,俺のフレンチ TOKYO,https://tabelog.com/tokyo/A1301/A130101/13174144/,ビストロ、フレンチ、バル・バール,洋食・西洋料理,35.67420306,139.7664669,東京都中央区銀座1-8-19キラリト　ギンザ　B1F
"0,1,0,1,0,0,0,1,0","0.0,3.0,0.0,3.0,3.0,0.0,0.0,0.0,3.0",0.14479170771127509,427.60414614436246,0.5,0.5205426386204566,62624,幸の鳥,https://tabelog.com/tokyo/A1302/A130201/13125696/,焼鳥、居酒屋、日本酒バー,バー・お酒,35.67991083,139.7674708,東京都中央区八重洲1-1八重洲地下街中４号
"0,1,0,1,0,0,0,1,0","0.0,3.0,0.0,3.0,3.0,0.0,0.0,0.0,3.0",0.13960455819654374,430.19772090172813,0.5,0.5191237161498713,62892,茅場町居酒屋 つまみ菜 茅場町店,https://tabelog.com/tokyo/A1302/A130203/13029915/,居酒屋、魚介料理・海鮮料理、日本酒バー,居酒屋,35.67800944,139.7745075,東京都中央区八丁堀1-7-8若狭ビルＢ１Ｆ
"0,1,0,1,0,0,0,1,0","0.0,3.0,0.0,3.0,3.0,0.0,0.0,0.0,3.0",0.13865355511701613,430.67322244149193,0.5,0.5188687775792521,58423,ちょこ座伊菜,https://tabelog.com/tokyo/A1302/A130201/13035961/,居酒屋・ダイニングバー（その他）、ワインバー、イタリアン,バー・お酒,35.68035278,139.7685083,東京都中央区八重洲1-8-9八洲ビルＢ館　Ｂ１Ｆ
"0,1,0,1,0,0,0,1,0","0.0,3.0,0.0,3.0,3.0,0.0,0.0,0.0,3.0",0.13594284755681268,432.02857622159365,0.5,0.5181509990358552,60748,茶良ら,https://tabelog.com/tokyo/A1301/A130101/13022539/,野菜料理、創作料理、居酒屋,創作料理・無国籍料理,35.67496028,139.7657619,東京都中央区銀座1-6-1山内興産銀座ビル　１Ｆ
"0,1,0,1,0,0,0,1,0","0.0,3.0,0.0,3.0,3.0,0.0,0.0,0.0,3.0",0.13051814409452311,434.74092795273845,0.5,0.5167542800382777,64592,無炉爛 八重洲店,https://tabelog.com/tokyo/A1302/A130202/13124376/,魚介料理・海鮮料理、もつ鍋、居酒屋,高級和食,35.68041333,139.76859,東京都中央区八重洲1-8-9八洲ビル2F
"0,1,0,1,0,0,0,1,0","0.0,3.0,0.0,3.0,3.0,0.0,0.0,0.0,3.0",0.1277011861084692,436.1494069457654,0.5,0.5160499907310433,59932,八吉 八重洲二の丸,https://tabelog.com/tokyo/A1302/A130202/13028574/,日本酒バー、魚介料理・海鮮料理、居酒屋,高級和食,35.68041528,139.7685467,東京都中央区八重洲1-8-9八洲ビル　１Ｆ
"0,1,0,1,0,0,0,1,0","0.0,3.0,0.0,3.0,3.0,0.0,0.0,0.0,3.0",0.12711096507040814,436.4445174647959,0.5,0.5159042522029941,62282,Turre Turre 築地,https://tabelog.com/tokyo/A1302/A130203/13167356/,イタリアン、バル・バール、オイスターバー,洋食・西洋料理,35.67612667,139.7748172,東京都中央区八丁堀2-21-11エコワクワイエ1F
"0,1,0,1,0,0,0,1,0","0.0,3.0,0.0,3.0,3.0,0.0,0.0,0.0,3.0",0.12266024109206149,438.66987945396926,0.5,0.5148257324034635,60135,ビストロ　六角　 東京駅中央口店,https://tabelog.com/tokyo/A1302/A130202/13173026/,イタリアン、バル・バール、ワインバー,洋食・西洋料理,35.68041528,139.7684594,東京都中央区八重洲1-8-9B1Ｆ
"0,1,0,1,0,0,0,1,0","0.0,3.0,0.0,3.0,3.0,0.0,0.0,0.0,3.0",0.12245495942945138,438.7725202852743,0.5,0.5147768614544252,60703,yaesu 海老バル,https://tabelog.com/tokyo/A1302/A130201/13164365/,イタリアン、バル・バール、ワインバー,バー・お酒,35.6804164,139.7684599,東京都中央区八重洲1-8-9八洲ビルAB1F
"0,1,0,1,0,0,0,1,0","0.0,3.0,0.0,3.0,3.0,0.0,0.0,0.0,3.0",0.12227364026047507,438.86317986976246,0.5,0.5147337594354464,63322,楽蔵うたげ 八重洲店,https://tabelog.com/tokyo/A1302/A130202/13056226/,居酒屋、焼鳥、鍋（その他）,焼肉・ホルモン・鍋,35.68053861,139.7689836,東京都中央区日本橋3-2-16
"0,1,0,1,0,0,0,1,0","0.0,3.0,0.0,3.0,3.0,0.0,0.0,0.0,3.0",0.11807631209849967,440.96184395075016,0.5,0.5137528739372484,64395,焼ジビエ 罠 八丁堀,https://tabelog.com/tokyo/A1302/A130203/13139915/,焼肉、居酒屋、ホルモン,焼肉・ホルモン・鍋,35.67534694,139.7746331,東京都中央区八丁堀3-20-11
"0,1,0,1,0,0,0,1,0","0.0,3.0,0.0,3.0,0.0,3.0,0.0,0.0,3.0",0.11539182568770036,442.3040871561498,0.5,0.513142546896611,61822,ラ・ベットラ・ダ・オチアイ,https://tabelog.com/tokyo/A1313/A131301/13002504/,イタリアン、パスタ,洋食・西洋料理,35.67278833,139.7689797,東京都中央区銀座1-21-2
"0,1,0,1,0,0,0,1,0","0.0,3.0,0.0,3.0,3.0,0.0,0.0,0.0,3.0",0.11267917550521202,443.660412247394,0.5,0.5125393610177996,59400,鮮や一夜 八重洲店,https://tabelog.com/tokyo/A1302/A130202/13028364/,居酒屋、魚介料理・海鮮料理、鍋（その他）,高級和食,35.68058709,139.769007,東京都中央区日本橋3-2-16マスヤビル6F
"0,1,0,1,0,0,0,1,0","0.0,3.0,0.0,3.0,3.0,0.0,0.0,0.0,3.0",0.11243444846231285,443.7827757688436,0.5,0.5124856146283762,63799,魚の目利き 八重洲店,https://tabelog.com/tokyo/A1302/A130201/13186924/,居酒屋、魚介料理・海鮮料理、日本酒バー,高級和食,35.68058639,139.7689967,東京都中央区日本橋3-2-16マスヤビル7F
"0,1,0,1,0,0,0,1,0","0.0,3.0,0.0,3.0,3.0,0.0,0.0,0.0,3.0",0.11204165215466173,443.97917392266913,0.5,0.5123995821793244,58710,R,https://tabelog.com/tokyo/A1313/A131301/13025486/,イタリアン、ワインバー,バー・お酒,35.67274222,139.7709225,東京都中央区新富1-5-6
"0,1,0,1,0,0,0,1,0","0.0,3.0,0.0,3.0,3.0,0.0,0.0,0.0,3.0",0.11177316730444078,444.1134163477796,0.5,0.5123409420778965,63762,レイテン,https://tabelog.com/tokyo/A1302/A130203/13031972/,居酒屋、おでん、日本酒バー,バー・お酒,35.67535778,139.7746747,東京都中央区八丁堀3-20-11
"0,1,0,1,0,0,0,1,0","0.0,3.0,0.0,3.0,3.0,0.0,0.0,0.0,3.0",0.11093428264942157,444.5328586752892,0.5,0.5121585839043818,62878,ポンデュガール,https://tabelog.com/tokyo/A1313/A131301/13026093/,ビストロ、居酒屋、ワインバー,バー・お酒,35.67267333,139.7699442,東京都中央区銀座1-27-7
"0,1,0,1,0,0,0,1,0","0.0,3.0,0.0,3.0,3.0,0.0,0.0,0.0,3.0",0.10940062691478829,445.29968654260585,0.5,0.5118285818214422,63728,大衆すし酒場 カドハチ 八丁堀店,https://tabelog.com/tokyo/A1302/A130203/13209101/,居酒屋、寿司、魚介料理・海鮮料理,高級和食,35.67637444,139.7749486,東京都中央区八丁堀2-22-11すずらんビル1F・2F
"0,1,0,1,0,0,0,1,0","0.0,3.0,0.0,3.0,0.0,3.0,0.0,0.0,3.0",0.10031426606004606,449.84286696997697,0.5,0.5099636771135427,60846,tika,https://tabelog.com/tokyo/A1302/A130201/13023229/,居酒屋、ダイニングバー、アジア・エスニック料理（その他）,バー・お酒,35.68054889,139.7685622,東京都中央区八重洲1-8-7第１０７ビル　６Ｆ
"0,1,0,1,0,0,0,1,0","0.0,3.0,0.0,3.0,3.0,0.0,0.0,0.0,3.0",0.10021396396793535,449.89301801603233,0.5,0.5099439563071285,62841,昌月苑,https://tabelog.com/tokyo/A1302/A130201/13000514/,焼肉、韓国料理,焼肉・ホルモン・鍋,35.68054944,139.7685625,東京都中央区八重洲1-8-7第１０７ビル　２Ｆ
"0,1,0,1,0,0,0,1,0","0.0,3.0,0.0,3.0,0.0,3.0,0.0,0.0,3.0",0.09948595802849479,450.2570209857526,0.5,0.5098013886258524,62388,ザ・カーブ・ド・オイスター,https://tabelog.com/tokyo/A1302/A130201/13175550/,オイスターバー、魚介料理・海鮮料理、イタリアン,高級和食,35.67950139,139.7664703,東京都中央区八重洲2-1八重洲地下街
"0,1,0,1,0,0,0,1,0","0.0,3.0,0.0,3.0,3.0,0.0,0.0,0.0,3.0",0.09917193798986819,450.4140310050659,0.5,0.5097402017544489,61721,黒木屋 銀座一丁目,https://tabelog.com/tokyo/A1301/A130101/13047868/,居酒屋、水炊き、しゃぶしゃぶ,焼肉・ホルモン・鍋,35.673995,139.7663114,東京都中央区銀座1-8-8三神株式会社・ALビル1F
"0,1,0,1,0,0,0,1,0","0.0,3.0,0.0,3.0,3.0,0.0,0.0,0.0,3.0",0.09878464326722837,450.6076783663858,0.5,0.5096649936433084,65007,INTHEBARREL,https://tabelog.com/tokyo/A1302/A130202/13025951/,バー、ピザ、イタリアン,洋食・西洋料理,35.68071944,139.7695408,東京都中央区日本橋3-1-14STAGE日本橋1・2F
"0,1,0,1,0,0,0,1,0","0.0,2.0,0.0,3.0,0.0,3.0,0.0,0.0,3.0",0.09371602992393946,453.14198503803027,0.5,0.5087068844282577,58657,水屋光琳 ダイワロイネットホテル銀座店,https://tabelog.com/tokyo/A1301/A130101/13197267/,懐石・会席料理,高級和食,35.673411,139.767042,東京都中央区銀座1-13-15ダイワロイネットホテル銀座1F
"0,1,0,1,0,0,0,1,0","0.0,3.0,0.0,3.0,3.0,0.0,0.0,0.0,3.0",0.08997147901215988,455.01426049392006,0.5,0.5080303800321744,61833,魚ダイニング おやじの目利き 西村 八重洲本店,https://tabelog.com/tokyo/A1302/A130201/13161917/,居酒屋、魚介料理・海鮮料理、割烹・小料理,高級和食,35.68076361,139.7695956,東京都中央区日本橋3-1-14
"0,1,0,1,0,0,0,1,0","0.0,3.0,0.0,3.0,3.0,0.0,0.0,0.0,3.0",0.08898626774267995,455.50686612866,0.5,0.5078568261299359,61374,チャンコちゃんちゃんこ,https://tabelog.com/tokyo/A1302/A130201/13046784/,ちゃんこ鍋、割烹・小料理、魚介料理・海鮮料理,高級和食,35.6804875,139.7681653,東京都中央区八重洲1-8-12B1
"0,1,0,1,0,0,0,1,0","0.0,3.0,0.0,3.0,3.0,0.0,0.0,0.0,3.0",0.08728246626067414,456.35876686966293,0.5,0.5075610592988253,59838,八吉酒場 八重洲店,https://tabelog.com/tokyo/A1302/A130201/13143334/,魚介料理・海鮮料理、日本酒バー、居酒屋,高級和食,35.6807,139.7689833,東京都中央区日本橋3-2-17八重洲ビル1F・2F
"0,1,0,1,0,0,0,1,0","0.0,3.0,0.0,3.0,3.0,0.0,0.0,0.0,3.0",0.08612187574472352,456.93906212763824,0.5,0.5073627671418052,64364,はなび,https://tabelog.com/tokyo/A1301/A130101/13156348/,居酒屋、魚介料理・海鮮料理、焼鳥,高級和食,35.67453972,139.7657311,東京都中央区銀座1-7-16扶桑ビルB1F
"0,1,0,1,0,0,0,1,0","0.0,3.0,0.0,3.0,3.0,0.0,0.0,0.0,3.0",0.08513327046493999,457.43336476753,0.5,0.5071958928659188,60281,串あげBANZAI 八重洲地下街,https://tabelog.com/tokyo/A1302/A130201/13093793/,居酒屋、焼酎バー、串揚げ・串かつ,バー・お酒,35.67915083,139.766,東京都中央区八重洲2-1八重洲地下街南1号
"0,1,0,1,0,0,0,1,0","0.0,3.0,0.0,3.0,3.0,0.0,0.0,0.0,3.0",0.08094519570676244,459.5274021466188,0.5,0.5065097478904094,64831,北のさゝや 八重洲店,https://tabelog.com/tokyo/A1302/A130201/13011509/,居酒屋、魚介料理・海鮮料理、日本酒バー,高級和食,35.68059028,139.7683747,東京都中央区八重洲1-8-6
"0,1,0,1,0,0,0,1,0","0.0,3.0,0.0,3.0,3.0,0.0,0.0,0.0,3.0",0.07981152889618114,460.09423555190943,0.5,0.5063298136044785,60406,和洋創菜 びすとろ家  八重洲店,https://tabelog.com/tokyo/A1302/A130202/13128535/,居酒屋、ビストロ、鍋（その他）,洋食・西洋料理,35.68073471,139.7689849,東京都中央区日本橋3-2-17日伸ビル6F
"0,1,0,1,0,0,0,1,0","0.0,3.0,0.0,3.0,3.0,0.0,0.0,0.0,3.0",0.07879918700142458,460.6004064992877,0.5,0.5061712278192879,61931,福福屋 八丁堀駅前店,https://tabelog.com/tokyo/A1302/A130203/13052010/,居酒屋、魚介料理・海鮮料理、創作料理,高級和食,35.67613615,139.7750881,東京都中央区八丁堀2-21-2京橋第９長岡ビル　Ｂ１Ｆ
"0,1,0,1,0,0,0,1,0","0.0,3.0,0.0,3.0,3.0,0.0,0.0,0.0,3.0",0.07591895893987088,462.04052053006455,0.5,0.5057308457336904,61831,しゃぶしゃぶ温野菜 八重洲店,https://tabelog.com/tokyo/A1302/A130202/13026866/,しゃぶしゃぶ、すき焼き、豚しゃぶ,焼肉・ホルモン・鍋,35.68067778,139.7686194,東京都中央区八重洲1-7-10八重洲ＹＫビル　４Ｆ
"0,1,0,1,0,0,0,1,0","0.0,3.0,0.0,3.0,3.0,0.0,0.0,0.0,3.0",0.06982329189580469,465.08835405209766,0.5,0.5048517525879916,61270,牛角 八重洲店,https://tabelog.com/tokyo/A1302/A130202/13027641/,焼肉、居酒屋、韓国料理,焼肉・ホルモン・鍋,35.68068511,139.768532,東京都中央区八重洲1-7-10八重洲ＹＫビル　５Ｆ
"0,1,0,1,0,0,0,1,0","0.0,3.0,0.0,3.0,3.0,0.0,0.0,0.0,3.0",0.06982107343702137,465.0894632814893,0.5,0.5048514457698402,63745,完全個室居酒屋 初代鳥万作 東京八重洲店,https://tabelog.com/tokyo/A1302/A130201/13208785/,居酒屋、和食（その他）、鳥料理,居酒屋,35.68071889,139.7686736,東京都中央区八重洲1-7-101F
"0,1,0,1,0,0,0,1,0","0.0,2.0,0.0,3.0,3.0,0.0,0.0,0.0,3.0",0.06484438277824597,467.577808610877,0.5,0.5041872608246778,61598,韓国味工房EIKO,https://tabelog.com/tokyo/A1301/A130101/13184692/,韓国料理,アジア・エスニック、中華料理,35.67509139,139.7652597,東京都中央区銀座1-5-2西勢ビルB1F
"0,1,0,1,0,0,0,1,0","0.0,3.0,0.0,3.0,3.0,0.0,0.0,0.0,3.0",0.06057924163434461,469.7103791828277,0.5,0.5036564747096897,61163,バルデエスパーニャリブラ ギンザ,https://tabelog.com/tokyo/A1301/A130101/13137255/,スペイン料理、イタリアン、ダイニングバー,洋食・西洋料理,35.67507113,139.7652444,東京都中央区銀座1-5-2西勢ビル1F
"0,1,0,1,0,0,0,1,0","0.0,3.0,0.0,3.0,3.0,0.0,0.0,0.0,3.0",0.060382486429700975,469.8087567851495,0.5,0.5036328470894577,58486,炭火焼ホルモン ぐう 日本橋,https://tabelog.com/tokyo/A1302/A130202/13143194/,焼肉、ホルモン、居酒屋,焼肉・ホルモン・鍋,35.68087083,139.7693108,東京都中央区日本橋3-1-16共同ビル1F
"0,1,0,1,0,0,0,1,0","0.0,3.0,0.0,3.0,3.0,0.0,0.0,0.0,3.0",0.05956529439854239,470.2173528007288,0.5,0.5035355243642547,62680,日本橋漁港 快海,https://tabelog.com/tokyo/A1302/A130202/13158347/,居酒屋、魚介料理・海鮮料理、和食（その他）,Ｂ級和食,35.67982583,139.7735231,東京都中央区日本橋2-16-318山京ビル1F
"0,1,0,1,0,0,0,1,0","0.0,3.0,0.0,3.0,3.0,0.0,0.0,0.0,3.0",0.05565484339876889,472.17257830061556,0.5,0.5030879263048771,61676,夢のつづき,https://tabelog.com/tokyo/A1302/A130203/13026283/,居酒屋、定食・食堂、しゃぶしゃぶ,焼肉・ホルモン・鍋,35.67905667,139.7743697,東京都中央区日本橋兜町16-1第11大協ビルB1
"0,1,0,1,0,0,0,1,0","0.0,3.0,0.0,3.0,3.0,0.0,0.0,0.0,3.0",0.051053969772308166,474.4730151138459,0.5,0.5025997491339523,61380,九州酒場 ほまれ 八丁堀店,https://tabelog.com/tokyo/A1302/A130203/13211844/,居酒屋、焼鳥、もつ鍋,居酒屋,35.67628556,139.7752628,東京都中央区八丁堀2-22-8日本フィッシング会館1F
"0,1,0,1,0,0,0,1,0","0.0,3.0,0.0,3.0,3.0,0.0,0.0,0.0,3.0",0.05087778661817856,474.5611066909107,0.5,0.5025818830510754,61407,日本料理 岩戸 銀座店,https://tabelog.com/tokyo/A1301/A130101/13014913/,魚介料理・海鮮料理、割烹・小料理、居酒屋,高級和食,35.67508778,139.7651783,東京都中央区銀座1-5-1
"0,1,0,1,0,0,0,1,0","0.0,3.0,0.0,3.0,3.0,0.0,0.0,0.0,3.0",0.050164605942225306,474.91769702888735,0.5,0.5025101866523093,63365,完全個室居酒屋 和食バル 小次郎 八重洲中央店,https://tabelog.com/tokyo/A1302/A130201/13201298/,居酒屋、焼鳥、魚介料理・海鮮料理,居酒屋,35.68080278,139.7686381,東京都中央区八重洲1-7-10今井ビル4F-B室
"0,1,0,1,0,0,0,1,0","0.0,3.0,0.0,3.0,3.0,0.0,0.0,0.0,3.0",0.04970412541970154,475.14793729014923,0.5,0.5024644266848525,60373,八重洲バル ヴェルデ,https://tabelog.com/tokyo/A1302/A130201/13157296/,イタリアン、居酒屋、ピザ,洋食・西洋料理,35.68077083,139.7684956,東京都中央区八重洲1-7-12第2ロータリービル1F
"0,1,0,1,0,0,0,1,0","0.0,3.0,0.0,3.0,3.0,0.0,0.0,0.0,3.0",0.04964475697397768,475.17762151301116,0.5,0.5024585573905627,62849,さつまの風薫る 宝山バル 八重洲本店,https://tabelog.com/tokyo/A1302/A130201/13213203/,居酒屋、手羽先、郷土料理（その他）,高級和食,35.68077111,139.7684956,東京都中央区八重洲1-7-12第二ロータリービルB1F
"0,1,0,1,0,0,0,1,0","0.0,3.0,0.0,3.0,3.0,0.0,0.0,0.0,3.0",0.03531032141724677,482.3448392913766,0.5,0.5012452681059336,59702,IJ,https://tabelog.com/tokyo/A1302/A130201/13157251/,ビストロ、バル・バール、ワインバー,バー・お酒,35.67463167,139.7653439,東京都中央区銀座1-6-14
"0,1,0,1,0,0,0,1,0","0.0,3.0,0.0,3.0,3.0,0.0,0.0,0.0,3.0",0.03428495373682369,482.85752313158815,0.5,0.5011740795898528,58614,千や,https://tabelog.com/tokyo/A1302/A130202/13033979/,居酒屋、中華料理、串焼き,アジア・エスニック、中華料理,35.68089591,139.7687258,東京都中央区八重洲1-7-7
"0,1,0,1,0,0,0,1,0","0.0,2.0,0.0,3.0,0.0,3.0,0.0,0.0,3.0",0.02792801447903662,486.0359927604817,0.5,0.5007793665804745,58982,銀座天春 銀座本店,https://tabelog.com/tokyo/A1301/A130101/13204485/,天ぷら、懐石・会席料理、魚介料理・海鮮料理,高級和食,35.67448417,139.7653978,東京都中央区銀座1-6-7
"0,1,0,1,0,0,0,1,0","0.0,3.0,0.0,3.0,3.0,0.0,0.0,0.0,3.0",0.02789622476768909,486.05188761615545,0.5,0.5007775947027676,64662,焼肉トラジ 八重洲店,https://tabelog.com/tokyo/A1302/A130202/13038787/,焼肉、ホルモン、韓国料理,焼肉・ホルモン・鍋,35.68082556,139.7683122,東京都中央区八重洲1-7-13Ｙ－Ｉビル　１Ｆ
"0,1,0,1,0,0,0,1,0","0.0,3.0,0.0,3.0,0.0,3.0,0.0,0.0,3.0",0.027819019568269026,486.0904902158655,0.5,0.5007732998570708,61585,完全個室×美食バル　しずか-Shizuka-,https://tabelog.com/tokyo/A1302/A130202/13200483/,居酒屋、創作料理、和食（その他）,Ｂ級和食,35.68083639,139.7683503,東京都中央区八重洲1-7-13大竹ビル第6ビル３Ｆ
"0,1,0,1,0,0,0,1,0","0.0,3.0,0.0,3.0,0.0,3.0,0.0,0.0,3.0",0.02723359583720651,486.38320208139675,0.5,0.5007411194841346,64082,焼鳥 本田,https://tabelog.com/tokyo/A1302/A130202/13143142/,焼鳥、鳥料理、親子丼,Ｂ級和食,35.68083917,139.7683503,東京都中央区八重洲1-7-13元橋ビル1F
"0,1,0,1,0,0,0,1,0","0.0,3.0,0.0,3.0,3.0,0.0,0.0,0.0,3.0",0.02565401638032688,487.17299180983656,0.5,0.5006576959924236,61409,銀座ひかり,https://tabelog.com/tokyo/A1301/A130101/13019835/,割烹・小料理、魚介料理・海鮮料理、天ぷら・揚げ物（その他）,高級和食,35.67345611,139.7663894,東京都中央区銀座1-9-12西山興業東銀座ビル　Ｂ１Ｆ
"0,1,0,1,0,0,0,1,0","0.0,3.0,0.0,3.0,3.0,0.0,0.0,0.0,3.0",0.02534809760077087,487.32595119961456,0.5,0.5006421137419207,64447,さかなや道場 八重洲口２号店,https://tabelog.com/tokyo/A1302/A130201/13093429/,居酒屋,居酒屋,35.68071833,139.76793,東京都中央区八重洲1-8-3黒龍ビルB1F
"0,1,0,1,0,0,0,1,0","0.0,3.0,0.0,3.0,3.0,0.0,0.0,0.0,3.0",0.02364393104140504,488.1780344792975,0.5,0.500558723303361,64064,築地丸五,https://tabelog.com/tokyo/A1302/A130203/13165258/,居酒屋、魚介料理・海鮮料理、野菜料理,高級和食,35.67743806,139.7753556,東京都中央区八丁堀1-8-6カサイビル　1F
"0,1,0,1,0,0,0,1,0","0.0,2.0,0.0,3.0,3.0,0.0,0.0,0.0,3.0",0.01856454194768719,490.7177290261564,0.5,0.5003445235212708,62126,BAL 873,https://tabelog.com/tokyo/A1302/A130202/13163097/,イタリアン、居酒屋、ワインバー,バー・お酒,35.67314889,139.7733094,東京都中央区新富1-14-7アパホテル八丁堀駅南1F
"0,1,0,1,0,0,0,1,0","0.0,3.0,0.0,3.0,0.0,3.0,0.0,0.0,3.0",0.01576102938003157,492.1194853099842,0.5,0.5002483483702053,52224,オールドマンズ・アン,https://tabelog.com/tokyo/A1302/A130201/13004044/,ダイニングバー、創作料理、西洋各国料理（その他）,洋食・西洋料理,35.67820222,139.7649386,東京都千代田区丸の内1-11-1パシフィック・センチュリー・プレイス丸の内　２Ｆ
"0,1,0,1,0,0,0,1,0","0.0,3.0,0.0,3.0,3.0,3.0,0.0,0.0,3.0",0.2602800318264541,369.85998408677295,0.408248290464,0.48416150366819394,59860,中俣酒造 館,https://tabelog.com/tokyo/A1302/A130203/13169792/,居酒屋、魚介料理・海鮮料理、炭火焼き,創作料理・無国籍料理,35.67615306,139.7740783,東京都中央区八丁堀2-18-2
"0,1,0,1,0,0,0,1,0","0.0,2.0,0.0,3.0,3.0,3.0,0.0,0.0,3.0",0.0646911208199557,467.65443959002215,0.408248290464,0.41334199856729864,63376,馬肉料理 仲巳屋 銀座店,https://tabelog.com/tokyo/A1301/A130101/13212208/,馬肉料理、鍋（その他）、懐石・会席料理,高級和食,35.67509056,139.7652592,東京都中央区銀座1-5-2西勢ビルB1F
"0,1,0,1,0,0,0,0,1","0.0,3.0,0.0,3.0,0.0,0.0,0.0,0.0,3.0",0.9152288910719008,42.38555446404964,1.0,1.355597256950862,60292,新世界,https://tabelog.com/tokyo/A1302/A130202/13099828/,中華料理、居酒屋、上海料理,アジア・エスニック、中華料理,35.67706028,139.770015,東京都中央区京橋2-9-12日本工業1号館ビル　B1F
"0,1,0,1,0,0,0,0,1","0.0,3.0,0.0,3.0,0.0,0.0,0.0,0.0,3.0",0.7973278376053731,101.3360811973135,1.0,1.2789572630156414,58814,園林閣,https://tabelog.com/tokyo/A1302/A130202/13007733/,広東料理、中華料理、餃子,アジア・エスニック、中華料理,35.67687568,139.7689509,東京都中央区京橋2-7-15亜細亜ビル　１Ｆ
"0,1,0,1,0,0,0,0,1","0.0,3.0,0.0,3.0,0.0,0.0,0.0,0.0,3.0",0.680112716066687,159.94364196665654,1.0,1.2093607015922114,64581,はなの舞 京橋店,https://tabelog.com/tokyo/A1302/A130202/13043931/,居酒屋,居酒屋,35.67745694,139.7685566,東京都中央区京橋2-8-20京橋ビル　B1
"0,1,0,1,0,0,0,0,1","0.0,3.0,0.0,3.0,0.0,0.0,0.0,0.0,3.0",0.6048414735274774,197.57926323626128,1.0,1.168688670304838,59397,八丁堀　朋,https://tabelog.com/tokyo/A1302/A130203/13055793/,割烹・小料理、居酒屋、日本酒バー,高級和食,35.67673722,139.7722253,東京都中央区八丁堀2-1-9第一カワナビル地B1F
"0,1,0,1,0,0,0,0,1","0.0,3.0,0.0,3.0,0.0,0.0,0.0,0.0,3.0",0.5957076708138068,202.14616459309661,1.0,1.1639878131090595,61563,とめ手羽 八重洲店,https://tabelog.com/tokyo/A1302/A130202/13158578/,居酒屋、鳥料理、馬肉料理,創作料理・無国籍料理,35.67829917,139.7710653,東京都中央区京橋1-11-2八重洲MIDビルB1F
"0,1,0,1,0,0,0,0,1","0.0,3.0,0.0,3.0,0.0,0.0,0.0,0.0,3.0",0.5872833038823252,206.3583480588374,1.0,1.1596989605147274,60385,ブルーパパイアタイランド 京橋エドグラン店,https://tabelog.com/tokyo/A1302/A130202/13202740/,タイ料理、ダイニングバー、アジア・エスニック料理（その他）,バー・お酒,35.67712611,139.7678314,東京都中央区京橋2-2-1京橋エドグランB1F
"0,1,0,1,0,0,0,0,1","0.0,3.0,0.0,3.0,3.0,0.0,0.0,0.0,3.0",0.9121686065298177,43.91569673509117,0.707106781187,1.1541453837097602,64291,京橋ZION,https://tabelog.com/tokyo/A1302/A130202/13195184/,スペイン料理、イタリアン、ダイニングバー,洋食・西洋料理,35.67707278,139.769995,東京都中央区京橋2-9-12日本工築1号館1F
"0,1,0,1,0,0,0,0,1","0.0,3.0,0.0,3.0,0.0,0.0,0.0,0.0,3.0",0.5133303974665571,243.33480126672148,1.0,1.124058760458355,63135,TAVERNA UOKIN 京橋,https://tabelog.com/tokyo/A1302/A130202/13202693/,イタリアン、バル・バール、パスタ,洋食・西洋料理,35.67744722,139.7675264,東京都中央区京橋2-2-1京橋エドグラン1F
"0,1,0,1,0,0,0,0,1","0.0,3.0,0.0,3.0,0.0,0.0,0.0,0.0,3.0",0.5016249485965266,249.1875257017367,1.0,1.1187616319191804,62666,国泰飯店,https://tabelog.com/tokyo/A1302/A130202/13042651/,中華料理,アジア・エスニック、中華料理,35.67656691,139.7672949,東京都中央区京橋2-4-12京橋第一生命ビル　２Ｆ
"0,1,0,1,0,0,0,0,1","0.0,3.0,0.0,3.0,0.0,0.0,0.0,0.0,3.0",0.4883525333030515,255.82373334847424,1.0,1.1128738458529377,62517,ラヴァロック,https://tabelog.com/tokyo/A1302/A130202/13167454/,洋食・欧風料理（その他）,洋食・西洋料理,35.67786914,139.7676237,東京都中央区京橋2-1-3コートヤード・バイ・マリオット東京ステーション1F
"0,1,0,1,0,0,0,0,1","0.0,3.0,0.0,3.0,0.0,0.0,0.0,0.0,3.0",0.48118476432351,259.407617838245,1.0,1.109747168240168,58997,焼肉ビストロ 牛印 京橋エドグラン店,https://tabelog.com/tokyo/A1302/A130202/13202859/,ビストロ、焼肉,焼肉・ホルモン・鍋,35.67764701,139.7674357,東京都中央区京橋2-2-1京橋エドグランB1F
"0,1,0,1,0,0,0,0,1","0.0,3.0,0.0,3.0,0.0,0.0,0.0,0.0,3.0",0.4535636977475308,273.2181511262346,1.0,1.09805283475542,59348,あじわい東京 八丁堀店,https://tabelog.com/tokyo/A1302/A130202/13186269/,インド料理、ネパール料理、居酒屋,居酒屋,35.67597528,139.7729361,東京都中央区八丁堀3-14-2東八重洲シティービルB1F
"0,1,0,1,0,0,0,0,1","0.0,3.0,0.0,3.0,3.0,0.0,0.0,0.0,3.0",0.8331241584698228,83.43792076508863,0.707106781187,1.0927469347593937,58611,酒処 舌菜魚,https://tabelog.com/tokyo/A1302/A130202/13038176/,居酒屋、魚介料理・海鮮料理、和食（その他）,Ｂ級和食,35.67636083,139.7692089,東京都中央区京橋2-6-13イーストビルB１F
"0,1,0,1,0,0,0,0,1","0.0,3.0,0.0,3.0,0.0,0.0,0.0,0.0,3.0",0.43145083779446,284.27458110277,1.0,1.089105057115034,63766,ビラビアンキ 京橋エドグラン店,https://tabelog.com/tokyo/A1302/A130202/13201113/,イタリアン、ダイニングバー、バル・バール,洋食・西洋料理,35.6776575,139.7671419,東京都中央区京橋2-2-27京橋エドグランB1F
"0,1,0,1,0,0,0,0,1","0.0,3.0,0.0,3.0,0.0,0.0,0.0,0.0,3.0",0.38327705915599564,308.3614704220022,1.0,1.0709347804956513,63816,くふ楽 銀座店,https://tabelog.com/tokyo/A1302/A130202/13033926/,焼鳥、しゃぶしゃぶ、居酒屋,焼肉・ホルモン・鍋,35.67425667,139.7683742,東京都中央区銀座1-16-1東貨ビルB1F
"0,1,0,1,0,0,0,0,1","0.0,3.0,0.0,3.0,0.0,0.0,0.0,0.0,3.0",0.36915179936906917,315.4241003154654,1.0,1.0659610926189669,64846,バンザイヴィーノ 京橋,https://tabelog.com/tokyo/A1302/A130201/13155008/,イタリアン、ダイニングバー、ビストロ,洋食・西洋料理,35.67604137,139.7666486,東京都中央区京橋3-1東京スクエアガーデン1F
"0,1,0,1,0,0,0,0,1","0.0,3.0,0.0,3.0,0.0,0.0,0.0,0.0,3.0",0.36884805325253794,315.575973373731,1.0,1.0658559407294155,64757,随園別館 京橋店,https://tabelog.com/tokyo/A1302/A130201/13155011/,中華料理、北京料理,アジア・エスニック、中華料理,35.67603917,139.7666475,東京都中央区京橋3-1-1東京スクエアガーデン2F
"0,1,0,1,0,0,0,0,1","0.0,3.0,0.0,3.0,0.0,0.0,0.0,0.0,3.0",0.3687671608064677,315.61641959676615,1.0,1.0658279499474872,59198,ぶーみんVinum 東京スクエアガーデン店,https://tabelog.com/tokyo/A1302/A130202/13154677/,ビストロ、ワインバー、イタリアン,バー・お酒,35.67603861,139.7666472,東京都中央区京橋3-1東京スクエアガーデンB1F
"0,1,0,1,0,0,0,0,1","0.0,3.0,0.0,3.0,0.0,0.0,0.0,0.0,3.0",0.3679624530460903,316.01877347695483,1.0,1.0655497955758315,64903,博多もつ鍋 幸 とりもつえん 京橋店,https://tabelog.com/tokyo/A1302/A130202/13198187/,居酒屋、郷土料理（その他）、もつ鍋,高級和食,35.67597556,139.7666614,東京都中央区京橋3-1-1東京スクエアガーデン2F
"0,1,0,1,0,0,0,0,1","0.0,3.0,0.0,3.0,3.0,0.0,0.0,0.0,3.0",0.7962413837842581,101.87930810787093,0.707106781187,1.0648945211853944,64243,とり安,https://tabelog.com/tokyo/A1302/A130202/13020135/,鳥料理、焼鳥、居酒屋,Ｂ級和食,35.67759722,139.7700447,東京都中央区京橋1-6-8コルマ京橋ビル１F
"0,1,0,1,0,0,0,0,1","0.0,3.0,0.0,3.0,0.0,0.0,0.0,0.0,3.0",0.3531251368448554,323.4374315775723,1.0,1.0605174973906362,59327,ひろ坊,https://tabelog.com/tokyo/A1302/A130202/13124656/,居酒屋、焼酎バー、和食（その他）,Ｂ級和食,35.67489048,139.7728652,東京都中央区八丁堀3-17-16
"0,1,0,1,0,0,0,0,1","0.0,3.0,0.0,3.0,0.0,0.0,0.0,3.0,0.0",0.7873476644634265,106.32616776828675,0.707106781187,1.058261000290577,61612,酒 龍馬,https://tabelog.com/tokyo/A1302/A130202/13033536/,居酒屋、日本酒バー、焼酎バー,バー・お酒,35.67689801,139.7689006,東京都中央区京橋2-7-15鈴木ビル１階
"0,1,0,1,0,0,0,0,1","0.0,3.0,0.0,3.0,0.0,3.0,0.0,0.0,3.0",0.7832626398488806,108.36868007555971,0.707106781187,1.0552252664635344,63968,京ばし とり安,https://tabelog.com/tokyo/A1302/A130202/13007704/,鳥料理、焼鳥、居酒屋,Ｂ級和食,35.67642788,139.7688872,東京都中央区京橋2-6-14日立第六ビル　１Ｆ
"0,1,0,1,0,0,0,0,1","0.0,3.0,0.0,3.0,0.0,0.0,0.0,0.0,3.0",0.3342463625582292,332.8768187208854,1.0,1.0543816343636716,64816,貝焼き祥音,https://tabelog.com/tokyo/A1302/A130203/13027790/,居酒屋,居酒屋,35.6756325,139.77349,東京都中央区八丁堀3-15-11洋邦ビル2F
"0,1,0,1,0,0,0,0,1","0.0,3.0,0.0,3.0,0.0,0.0,0.0,0.0,3.0",0.3265431129417981,336.72844352910096,1.0,1.0519650206208,63857,TOKYO Mar Mare,https://tabelog.com/tokyo/A1302/A130202/13146313/,バル・バール、スペイン料理、イタリアン,洋食・西洋料理,35.67785972,139.7666175,東京都中央区八重洲2-5-12プレリー八重洲ビル1F
"0,1,0,1,0,0,0,0,1","0.0,3.0,0.0,3.0,0.0,0.0,0.0,0.0,3.0",0.3184468671984874,340.7765664007563,1.0,1.0494800651887253,63267,大衆割烹 三州屋 日本橋店,https://tabelog.com/tokyo/A1302/A130202/13032221/,居酒屋、魚介料理・海鮮料理,高級和食,35.67964083,139.7710403,東京都中央区日本橋3-7-13
"0,1,0,1,0,0,0,0,1","0.0,3.0,0.0,3.0,0.0,0.0,0.0,0.0,3.0",0.30841070525512726,345.7946473724364,1.0,1.0464784580276678,60786,純米酒専門　粋酔 日本橋東京店,https://tabelog.com/tokyo/A1302/A130202/13169597/,居酒屋、日本酒バー、魚介料理・海鮮料理,高級和食,35.67964,139.7712358,東京都中央区日本橋3-7-10タンペイ日本橋ビルB1F
"0,1,0,1,0,0,0,0,1","0.0,3.0,0.0,3.0,0.0,0.0,0.0,0.0,3.0",0.3010587766543748,349.4706116728126,1.0,1.0443353805174986,64795,重慶府 八重洲,https://tabelog.com/tokyo/A1302/A130202/13033944/,四川料理、飲茶・点心、居酒屋,アジア・エスニック、中華料理,35.67777444,139.7664247,東京都中央区八重洲2-6-5八重洲玉の玉ビル　Ｂ１Ｆ
"0,1,0,1,0,0,0,0,1","0.0,3.0,0.0,3.0,0.0,0.0,0.0,0.0,3.0",0.2985786210355641,350.71068948221796,1.0,1.0436231086649523,63789,香鶏酒房鳥八 日本橋店,https://tabelog.com/tokyo/A1302/A130202/13184823/,焼鳥、居酒屋、水炊き,焼肉・ホルモン・鍋,35.67974028,139.7710089,東京都中央区日本橋3-7-13日本橋お起奈ビル　B1F
"0,1,0,1,0,0,0,0,1","0.0,3.0,0.0,3.0,0.0,0.0,0.0,0.0,3.0",0.2772683774846237,361.36581125768816,1.0,1.0377272055569111,61301,村さ来 八重洲店,https://tabelog.com/tokyo/A1302/A130202/13059334/,居酒屋、魚介料理・海鮮料理、和食（その他）,Ｂ級和食,35.67652694,139.7660567,東京都中央区八重洲2-8-10松岡八重洲ビル　１Ｆ
"0,1,0,1,0,0,0,0,1","0.0,3.0,0.0,3.0,0.0,0.0,0.0,0.0,3.0",0.2761796285890707,361.91018570546464,1.0,1.0374368353049728,59578,中華料理 菜香菜 日本橋店,https://tabelog.com/tokyo/A1302/A130202/13196143/,中華料理,アジア・エスニック、中華料理,35.6791,139.7727231,東京都中央区日本橋3-13-5KDX日本橋313ビル1F
"0,1,0,1,0,0,0,0,1","0.0,3.0,0.0,3.0,3.0,0.0,0.0,0.0,3.0",0.7582346437090157,120.88267814549212,0.707106781187,1.0367833789758294,58598,三喜屋,https://tabelog.com/tokyo/A1302/A130202/13042604/,中華料理、居酒屋、餃子,アジア・エスニック、中華料理,35.67585097,139.7691762,東京都中央区京橋2-12-10
"0,1,0,1,0,0,0,0,1","0.0,3.0,0.0,3.0,0.0,0.0,0.0,0.0,3.0",0.2660910492053174,366.9544753973413,1.0,1.0347968140979111,61873,萬寿園,https://tabelog.com/tokyo/A1302/A130202/13050732/,中華料理,アジア・エスニック、中華料理,35.67982328,139.7713009,東京都中央区日本橋3-7-7小村ビル　１Ｆ・Ｂ１Ｆ
"0,1,0,1,0,0,0,0,1","0.0,3.0,0.0,3.0,0.0,0.0,0.0,0.0,3.0",0.2608496101470687,369.57519492646566,1.0,1.0334614260406034,61690,桂園 新富町店,https://tabelog.com/tokyo/A1302/A130202/13052225/,中華料理,アジア・エスニック、中華料理,35.67345583,139.7710739,東京都中央区新富1-3-16第2アサヒビルB1F・1F
"0,1,0,1,0,0,0,0,1","0.0,3.0,0.0,3.0,0.0,0.0,0.0,0.0,3.0",0.25797838307346,371.01080846327,1.0,1.032740454389774,64644,俺のイタリアン 八重洲,https://tabelog.com/tokyo/A1302/A130202/13133706/,イタリアン、バル・バール、居酒屋,洋食・西洋料理,35.67783972,139.7662006,東京都中央区八重洲2-6-4松岡ビル1F
"0,1,0,1,0,0,0,0,1","0.0,3.0,0.0,3.0,0.0,0.0,0.0,0.0,3.0",0.25132447280643655,374.3377635967817,1.0,1.0310984388657725,58848,カフェ ラ・ボエム G-Zone 銀座,https://tabelog.com/tokyo/A1301/A130101/13002645/,イタリアン、洋食、ワインバー,バー・お酒,35.67521833,139.7663167,東京都中央区銀座1-2-3Ｇ－Ｚｏｎｅ　銀座内１Ｆ
"0,1,0,1,0,0,0,0,1","0.0,3.0,0.0,3.0,0.0,0.0,0.0,0.0,3.0",0.24889776980276862,375.5511150986157,1.0,1.0305096311111275,59644,La Cornice,https://tabelog.com/tokyo/A1302/A130203/13060496/,イタリアン,洋食・西洋料理,35.67808866,139.7738155,東京都中央区八丁堀1-4-8森田ビル　１F
"0,1,0,1,0,0,0,0,1","0.0,3.0,0.0,3.0,3.0,0.0,0.0,0.0,3.0",0.7485067137959982,125.7466431020009,0.707106781187,1.0296903906503567,63232,新潟・佐渡島 両津港直送 土風炉  京橋店,https://tabelog.com/tokyo/A1302/A130202/13179821/,郷土料理（その他）、魚介料理・海鮮料理、焼鳥,高級和食,35.67615139,139.7688147,東京都中央区京橋2-5-7日土地京橋ビル　Ｂ１Ｆ
"0,1,0,1,0,0,0,0,1","0.0,3.0,0.0,3.0,0.0,0.0,0.0,0.0,3.0",0.24040989536859456,379.7950523157027,1.0,1.0284925462982892,62931,銀ゼロ,https://tabelog.com/tokyo/A1301/A130101/13042969/,居酒屋、日本酒バー、魚介料理・海鮮料理,高級和食,35.67538583,139.7661597,東京都中央区京橋3-4-4イーストサイドビル　１Ｆ
"0,1,0,1,0,0,0,0,1","0.0,3.0,0.0,3.0,0.0,0.0,0.0,0.0,3.0",0.2358690840198883,382.06545799005585,1.0,1.0274406186229845,64403,薩摩魚鮮水産 八重洲中央口1号店,https://tabelog.com/tokyo/A1302/A130201/13163602/,居酒屋,居酒屋,35.67993472,139.7686694,東京都中央区日本橋3-4-15八重洲通りビルB1F
"0,1,0,1,0,0,0,0,1","0.0,3.0,0.0,3.0,0.0,0.0,0.0,0.0,3.0",0.23364789292344257,383.1760535382787,1.0,1.0269329763268704,64155,ブラッスリー ドンピエール,https://tabelog.com/tokyo/A1301/A130101/13014922/,ビストロ、西洋各国料理（その他）、バル・バール,洋食・西洋料理,35.67406556,139.7672772,東京都中央区銀座1-10-19銀座一ビルヂング　１Ｆ
"0,1,0,1,0,0,0,0,1","0.0,3.0,0.0,3.0,0.0,0.0,0.0,0.0,3.0",0.23185604760920717,384.0719761953964,1.0,1.0265267784198144,61979,Bistro B.V.,https://tabelog.com/tokyo/A1302/A130202/13122534/,豚料理、バル・バール、ビストロ,洋食・西洋料理,35.67332889,139.7711119,東京都中央区新富1-3-15京橋プリズムビル1F
"0,1,0,1,0,0,0,0,1","0.0,3.0,0.0,3.0,0.0,0.0,0.0,0.0,3.0",0.23139043438791657,384.3047828060417,1.0,1.0264217131015052,63044,四万十,https://tabelog.com/tokyo/A1302/A130203/13010910/,郷土料理（その他）,高級和食,35.67665083,139.7742889,東京都中央区八丁堀2-15-10千曲ビル　１Ｆ
"0,1,0,1,0,0,0,0,1","0.0,3.0,0.0,3.0,0.0,0.0,0.0,0.0,3.0",0.22547270712504813,387.2636464374759,1.0,1.0251038687168719,59975,龍記 京橋店,https://tabelog.com/tokyo/A1302/A130202/13172272/,居酒屋、中華料理,アジア・エスニック、中華料理,35.67560943,139.7659721,東京都中央区京橋3-3-13平和ビル3号館2F
"0,1,0,1,0,0,0,0,1","0.0,3.0,0.0,3.0,0.0,0.0,0.0,3.0,0.0",0.7413406978296628,129.32965108516856,0.707106781187,1.0244930601319715,58802,新橋やきとん 京橋店,https://tabelog.com/tokyo/A1302/A130202/13207076/,焼きとん,Ｂ級和食,35.6777858,139.7695959,東京都中央区京橋1-6-5
"0,1,0,1,0,0,0,0,1","0.0,3.0,0.0,3.0,3.0,0.0,0.0,0.0,3.0",0.739288016257403,130.3559918712985,0.707106781187,1.0230086856824854,61896,男前料理と五島列島直送の魚 京ばし　無花果,https://tabelog.com/tokyo/A1302/A130202/13102098/,居酒屋、魚介料理・海鮮料理、もつ鍋,高級和食,35.67652944,139.7686158,東京都中央区京橋2-6-16エターナルビル2F
"0,1,0,1,0,0,0,0,1","0.0,3.0,0.0,3.0,0.0,0.0,0.0,0.0,3.0",0.20663184881199834,396.68407559400083,1.0,1.0211252229494012,60351,中洲焼肉屋台,https://tabelog.com/tokyo/A1302/A130202/13159401/,焼肉、居酒屋、ホルモン,焼肉・ホルモン・鍋,35.67557722,139.7742125,東京都中央区八丁堀3-14-6
"0,1,0,1,0,0,0,0,1","0.0,3.0,0.0,3.0,0.0,0.0,0.0,0.0,3.0",0.20173084348888962,399.1345782555552,1.0,1.020144760911283,64313,キャンディストア・ロック,https://tabelog.com/tokyo/A1301/A130101/13022061/,イタリアン、創作料理、ワインバー,バー・お酒,35.67349139,139.7680006,東京都中央区銀座1-15-7マック銀座ビル　Ｂ１Ｆ
"0,1,0,1,0,0,0,0,1","0.0,3.0,0.0,3.0,0.0,0.0,0.0,0.0,3.0",0.18987970613786342,405.0601469310683,1.0,1.0178675271384785,59021,富昌丸,https://tabelog.com/tokyo/A1302/A130201/13189696/,居酒屋、魚介料理・海鮮料理、鍋（その他）,高級和食,35.67972361,139.767575,東京都中央区八重洲2-1-410F
"0,1,0,1,0,0,0,0,1","0.0,2.0,0.0,3.0,0.0,0.0,0.0,0.0,3.0",0.18930101350954612,405.34949324522694,1.0,1.0177597328032493,63589,とりまさ teppan tokyo！,https://tabelog.com/tokyo/A1302/A130201/13213527/,居酒屋、鉄板焼き,洋食・西洋料理,35.67973778,139.7675956,東京都中央区八重洲2-1-4
"0,1,0,1,0,0,0,0,1","0.0,3.0,0.0,3.0,0.0,0.0,0.0,0.0,3.0",0.18683558468125863,406.5822076593707,1.0,1.017304052731133,60277,笑笑 八重洲中央口駅前店,https://tabelog.com/tokyo/A1302/A130201/13073227/,居酒屋、魚介料理・海鮮料理、創作料理,高級和食,35.67974556,139.7675853,東京都中央区八重洲2-1-4東京駅前八重洲ビル　８Ｆ
"0,1,0,1,0,0,0,0,1","0.0,3.0,0.0,3.0,0.0,0.0,0.0,0.0,3.0",0.18679458620420747,406.60270689789627,1.0,1.0172965238489715,64292,九州 熱中屋 東京駅中央通りLIVE,https://tabelog.com/tokyo/A1302/A130201/13173961/,居酒屋、もつ鍋、餃子,居酒屋,35.67973472,139.7675647,東京都中央区八重洲2-1-4松勇八重洲B1F
"0,1,0,1,0,0,0,0,1","0.0,3.0,0.0,3.0,0.0,0.0,0.0,0.0,3.0",0.17624426577087957,411.8778671145602,1.0,1.0154122518549382,60472,木村屋本店 東京駅八重洲J,https://tabelog.com/tokyo/A1302/A130201/13115675/,居酒屋、もつ鍋、しゃぶしゃぶ,焼肉・ホルモン・鍋,35.68030778,139.769085,東京都中央区日本橋3-3-3八重洲山川ビル1F
"0,1,0,1,0,0,0,0,1","0.0,3.0,0.0,3.0,0.0,0.0,0.0,0.0,3.0",0.1690372799974982,415.4813600012509,1.0,1.0141861772026637,58494,炭火職人,https://tabelog.com/tokyo/A1302/A130201/13030664/,焼肉,焼肉・ホルモン・鍋,35.68024667,139.7686497,東京都中央区日本橋3-3-17財成ビル　B1F
"0,1,0,1,0,0,0,0,1","0.0,2.0,0.0,3.0,0.0,0.0,0.0,0.0,3.0",0.1680991608177619,415.95041959111904,1.0,1.014030240114976,59264,スポーツバー スポカン,https://tabelog.com/tokyo/A1302/A130201/13193783/,スポーツバー、バー、ダイニングバー,バー・お酒,35.67589583,139.7655508,東京都中央区八重洲2-10-10新八重洲ビルB1F
"0,1,0,1,0,0,0,0,1","0.0,3.0,0.0,3.0,0.0,0.0,0.0,0.0,3.0",0.16789200261589896,416.0539986920505,1.0,1.0139959193913834,64474,魚然 八丁堀店,https://tabelog.com/tokyo/A1302/A130203/13158638/,和食（その他）,Ｂ級和食,35.67552861,139.7744181,東京都中央区八丁堀3‐19-9京橋第6長岡ビルB1F
"0,1,0,1,0,0,0,0,1","0.0,3.0,0.0,3.0,0.0,0.0,0.0,0.0,3.0",0.1672784165680921,416.36079171595395,1.0,1.0138945056807085,64981,モンスーンカフェ G-Zone 銀座,https://tabelog.com/tokyo/A1301/A130101/13004871/,ダイニングバー、タイ料理、ベトナム料理,バー・お酒,35.67510083,139.7658714,東京都中央区銀座1-2-3
"0,1,0,1,0,0,0,0,1","0.0,3.0,0.0,3.0,0.0,0.0,0.0,0.0,3.0",0.16715465482831654,416.4226725858417,1.0,1.0138740940722244,62339,魚や一丁 銀座本店,https://tabelog.com/tokyo/A1301/A130101/13020785/,魚介料理・海鮮料理、居酒屋,高級和食,35.67510056,139.7658708,東京都中央区銀座1-2-3東京高速道路下・中央通り側　２F
"0,1,0,1,0,0,0,0,1","0.0,3.0,0.0,3.0,0.0,0.0,0.0,0.0,3.0",0.16165877877950413,419.17061061024793,1.0,1.0129825076261092,64296,おでん処しおの,https://tabelog.com/tokyo/A1302/A130201/13161307/,おでん、割烹・小料理、魚介料理・海鮮料理,高級和食,35.67598694,139.7654922,東京都中央区八重洲2-10-7SHIONO八重洲ビル2号館2F
"0,1,0,1,0,0,0,0,1","0.0,2.0,0.0,3.0,0.0,0.0,0.0,0.0,3.0",0.16104574575659125,419.47712712170437,1.0,1.0128848563515482,59118,三代目網元 魚鮮水産 八丁堀店,https://tabelog.com/tokyo/A1302/A130203/13212116/,居酒屋、魚介料理・海鮮料理、焼鳥,高級和食,35.67691922,139.7746682,東京都中央区八丁堀2-14-4ヤブ原ビル2F
"0,1,0,1,0,0,0,0,1","0.0,3.0,0.0,3.0,0.0,0.0,0.0,0.0,3.0",0.1542396973958479,422.88015130207606,1.0,1.0118250265005124,61920,青葉,https://tabelog.com/tokyo/A1302/A130202/13025344/,うなぎ,高級和食,35.67297194,139.7711292,東京都中央区新富町1-5-5
"0,1,0,1,0,0,0,0,1","0.0,3.0,0.0,3.0,0.0,0.0,0.0,0.0,3.0",0.1509127336490227,424.54363317548865,1.0,1.0113232189450714,58521,トラットリア デル パチョッコーネ 銀座,https://tabelog.com/tokyo/A1301/A130101/13174749/,ピザ、イタリアン,洋食・西洋料理,35.67420417,139.7664675,東京都中央区銀座1-8-19キラリトギンザ7F
"0,1,0,1,0,0,0,0,1","0.0,3.0,0.0,3.0,0.0,0.0,0.0,0.0,3.0",0.1509127336490227,424.54363317548865,1.0,1.0113232189450714,61743,回転寿司酒場 銀座沼津港,https://tabelog.com/tokyo/A1301/A130101/13174634/,回転寿司、寿司、魚介料理・海鮮料理,高級和食,35.67420417,139.7664675,東京都中央区銀座1-8-19キラリトギンザ8F
"0,1,0,1,0,0,0,0,1","0.0,3.0,0.0,3.0,0.0,0.0,0.0,0.0,3.0",0.15079092772503805,424.604536137481,1.0,1.0113050498658542,62286,俺のイタリアン TOKYO,https://tabelog.com/tokyo/A1301/A130101/13173949/,イタリアン、ピザ、パスタ,洋食・西洋料理,35.67420361,139.7664672,東京都中央区銀座1-8-19キラリト　ギンザB1F
"0,1,0,1,0,0,0,0,1","0.0,3.0,0.0,3.0,0.0,0.0,0.0,0.0,3.0",0.14698410814033422,426.5079459298329,1.0,1.0107444425005805,64784,美少年,https://tabelog.com/tokyo/A1302/A130202/13033811/,居酒屋、ちゃんこ鍋、日本酒バー,バー・お酒,35.68029944,139.7684606,東京都中央区八重洲1-8-9一六堂ビル　１Ｆ・２Ｆ
"0,1,0,1,0,0,0,0,1","0.0,3.0,0.0,3.0,0.0,0.0,0.0,0.0,3.0",0.14224168703017936,428.8791564849103,1.0,1.0100656897099276,64546,わがん,https://tabelog.com/tokyo/A1302/A130203/13179693/,沖縄料理,高級和食,35.67656648,139.7747794,東京都中央区八丁堀2-15-52F
"0,1,0,1,0,0,0,0,1","0.0,3.0,0.0,3.0,0.0,0.0,0.0,0.0,3.0",0.14084261751157123,429.5786912442144,1.0,1.0098696167860042,60174,吟彩,https://tabelog.com/tokyo/A1302/A130203/13045546/,居酒屋、魚介料理・海鮮料理,高級和食,35.67798924,139.7745092,東京都中央区八丁堀1-7-8若狭ビル２階
"0,1,0,1,0,0,0,0,1","0.0,3.0,0.0,3.0,3.0,0.0,0.0,3.0,0.0",0.827953282828644,86.023358585678,0.57735026919,1.0093760309617332,62253,Halco,https://tabelog.com/tokyo/A1302/A130201/13158959/,ワインバー、バー、バー・お酒（その他）,バー・お酒,35.67600531,139.7695737,東京都中央区京橋2-12-2京橋三貴ビル1F
"0,1,0,1,0,0,0,0,1","0.0,3.0,0.0,3.0,0.0,0.0,0.0,0.0,3.0",0.13227716866977868,433.86141566511066,1.0,1.008710686644735,63378,牛たん 荒 八重洲店,https://tabelog.com/tokyo/A1302/A130201/13131647/,牛タン、居酒屋、定食・食堂,Ｂ級和食,35.68044806,139.7687675,東京都中央区日本橋3-3-18富士八重洲ビル　１・２F
"0,1,0,1,0,0,0,0,1","0.0,3.0,0.0,3.0,0.0,0.0,0.0,0.0,3.0",0.13184840930982705,434.0757953450865,1.0,1.0086545508931843,60254,浪漫酒房 八重洲店,https://tabelog.com/tokyo/A1302/A130201/13034638/,居酒屋,居酒屋,35.68038056,139.7684917,東京都中央区八重洲1-8-9八洲ビルA　Ｂ１Ｆ
"0,1,0,1,0,0,0,0,1","0.0,3.0,0.0,3.0,0.0,0.0,0.0,0.0,3.0",0.12983951705743277,435.0802414712836,1.0,1.0083939211388113,61579,目分量,https://tabelog.com/tokyo/A1302/A130203/13159343/,ダイニングバー、バー・お酒（その他）,バー・お酒,35.67605222,139.7747881,東京都中央区八丁堀2-21-11エコアクワイエ
"0,1,0,1,0,0,0,0,1","0.0,3.0,0.0,3.0,0.0,0.0,0.0,0.0,3.0",0.11888117079620986,440.55941460189507,1.0,1.0070415744992247,63464,すみだ川,https://tabelog.com/tokyo/A1302/A130202/13037408/,魚介料理・海鮮料理、天ぷら、割烹・小料理,高級和食,35.68036806,139.7682439,東京都中央区八重洲1-8-11
"0,1,0,1,0,0,0,0,1","0.0,3.0,0.0,3.0,0.0,0.0,0.0,0.0,3.0",0.10947412656170467,445.26293671914766,1.0,1.0059744451955268,62539,帆絵夢,https://tabelog.com/tokyo/A1302/A130201/13039393/,お好み焼き、もんじゃ焼き,Ｂ級和食,35.68042028,139.7682647,東京都中央区八重洲1-8-11
"0,1,0,1,0,0,0,0,1","0.0,3.0,0.0,3.0,0.0,0.0,0.0,0.0,3.0",0.09946248699755597,450.268756501222,1.0,1.004934219896874,63303,バンビ,https://tabelog.com/tokyo/A1301/A130101/13183910/,ビストロ、ワインバー、ダイニングバー,バー・お酒,35.67492028,139.7655617,東京都中央区銀座1-6-17
"0,1,0,1,0,0,0,0,1","0.0,3.0,0.0,3.0,0.0,0.0,0.0,0.0,3.0",0.09918694933175391,450.40652533412305,1.0,1.0049069862020763,62946,北海道料理ユック 銀座店,https://tabelog.com/tokyo/A1301/A130101/13014924/,居酒屋、郷土料理（その他）、魚介料理・海鮮料理,高級和食,35.67471972,139.7656867,東京都中央区銀座1-6-5銀座BビルB1F
"0,1,0,1,0,0,0,0,1","0.0,3.0,0.0,3.0,0.0,0.0,0.0,3.0,0.0",0.7125844922060506,143.70775389697476,0.707106781187,1.0038807989659704,63361,尊 京橋店,https://tabelog.com/tokyo/A1302/A130202/13102124/,居酒屋、焼酎バー、郷土料理（その他）,高級和食,35.67675167,139.7716289,東京都中央区京橋1-19-2鹿島ビル　１Ｆ
"0,1,0,1,0,0,0,0,1","0.0,3.0,0.0,3.0,0.0,0.0,0.0,0.0,3.0",0.08757739369752118,456.2113031512394,1.0,1.0038275747790806,62052,カイバル,https://tabelog.com/tokyo/A1301/A130101/13026440/,インド料理、インドカレー,アジア・エスニック、中華料理,35.67305833,139.7676558,東京都中央区銀座1-14-6銀座1丁目ビル1F
"0,1,0,1,0,0,0,0,1","0.0,3.0,0.0,3.0,0.0,0.0,0.0,0.0,3.0",0.08423946760021829,457.88026619989085,1.0,1.0035418715238384,63606,やえす館,https://tabelog.com/tokyo/A1302/A130201/13036742/,焼肉,焼肉・ホルモン・鍋,35.68054167,139.7682636,東京都中央区八重洲1-8-6
"0,1,0,1,0,0,0,0,1","0.0,3.0,0.0,3.0,0.0,0.0,0.0,0.0,3.0",0.0840925165775476,457.9537417112262,1.0,1.0035295468217889,63817,夢や京町しずく 八重洲店,https://tabelog.com/tokyo/A1302/A130202/13104843/,居酒屋、魚介料理・海鮮料理、鍋（その他）,高級和食,35.68071083,139.7689614,東京都中央区日本橋3-2-17日伸ビル2F
"0,1,0,1,0,0,0,0,1","0.0,3.0,0.0,3.0,0.0,0.0,0.0,0.0,3.0",0.080791431379605,459.6042843101975,1.0,1.0032583193696254,62896,美味門,https://tabelog.com/tokyo/A1302/A130201/13153119/,居酒屋,居酒屋,35.6806603,139.7686422,東京都中央区八重洲1-7-10YKビルB1F
"0,1,0,1,0,0,0,0,1","0.0,3.0,0.0,3.0,0.0,0.0,0.0,0.0,3.0",0.07241090390631769,463.79454804684116,1.0,1.0026182419069234,59006,八重洲個室バル バンケット,https://tabelog.com/tokyo/A1302/A130201/13211722/,焼鳥、鳥料理,Ｂ級和食,35.68070917,139.7686842,東京都中央区八重洲1-7-10今井ビル4F
"0,1,0,1,0,0,0,0,1","0.0,3.0,0.0,3.0,0.0,0.0,0.0,0.0,3.0",0.06986646459168583,465.0667677041571,1.0,1.0024376902703436,64654,菜のHana 八重洲店,https://tabelog.com/tokyo/A1302/A130201/13152698/,ダイニングバー,バー・お酒,35.68071861,139.7686733,東京都中央区八重洲1-7-10YKビルB1F
"0,1,0,1,0,0,0,0,1","0.0,3.0,0.0,3.0,0.0,0.0,0.0,0.0,3.0",0.06868952476880247,465.65523761559876,1.0,1.0023563492156689,61597,東京吉兆 日本橋タカシマヤ店,https://tabelog.com/tokyo/A1302/A130202/13117403/,懐石・会席料理,高級和食,35.68069028,139.7715567,東京都中央区日本橋2-4-1日本橋タカシマヤB1F
"0,1,0,1,0,0,0,0,1","0.0,3.0,0.0,3.0,0.0,0.0,0.0,0.0,3.0",0.0676921362470157,466.15393187649215,1.0,1.0022884940523284,60925,完全個室と京料理 はんなり邸 八重洲本店,https://tabelog.com/tokyo/A1302/A130201/13163724/,居酒屋、しゃぶしゃぶ、京料理,高級和食,35.68073583,139.768705,東京都中央区八重洲1-7-10今井ビル2F
"0,1,0,1,0,0,0,0,1","0.0,3.0,0.0,3.0,0.0,0.0,0.0,0.0,3.0",0.05976712798195717,470.1164360090214,1.0,1.0017844626401489,63949,鳥駒,https://tabelog.com/tokyo/A1302/A130202/13049830/,割烹・小料理、天ぷら、焼鳥,高級和食,35.68088264,139.7693929,東京都中央区日本橋3-1-15
"0,1,0,1,0,0,0,0,1","0.0,3.0,0.0,3.0,0.0,0.0,0.0,0.0,3.0",0.057916508966867584,471.0417455165662,1.0,1.0016757569248191,61317,la radice,https://tabelog.com/tokyo/A1302/A130203/13211316/,イタリアン、バル・バール,洋食・西洋料理,35.67905417,139.7743567,東京都中央区日本橋兜町16-1第11大協ビル1Fこのお店は「文京区根津1-16-8」から移転しています。※移転前の情報は最新のものとは異なります。移転前の店舗情報を見る
"0,1,0,1,0,0,0,0,1","0.0,3.0,0.0,3.0,0.0,0.0,0.0,0.0,3.0",0.05688895308321639,471.5555234583918,1.0,1.0016168693581915,58493,さつま黒宝庵 八重洲本店,https://tabelog.com/tokyo/A1302/A130201/13145856/,居酒屋、郷土料理（その他）、しゃぶしゃぶ,焼肉・ホルモン・鍋,35.68072923,139.7684656,東京都中央区八重洲1-7-12第2ロータリービルB1F
"0,1,0,1,0,0,0,0,1","0.0,3.0,0.0,3.0,0.0,0.0,0.0,0.0,3.0",0.05082067558184838,474.5896622090758,1.0,1.0012905377894048,58687,タナゴコロ ザバー,https://tabelog.com/tokyo/A1301/A130101/13122362/,バー,バー・お酒,35.67393833,139.7660192,東京都中央区銀座1-8-15B1F
"0,1,0,1,0,0,0,0,1","0.0,3.0,0.0,3.0,0.0,0.0,0.0,0.0,3.0",0.04230588859396869,478.84705570301566,1.0,1.0008944940450644,64072,原価ビストロBAN！ 八丁堀,https://tabelog.com/tokyo/A1302/A130203/13212220/,ビストロ、バル・バール、居酒屋,洋食・西洋料理,35.67605972,139.7752786,東京都中央区八丁堀2-21-5西勘ビル1F・2F
"0,1,0,1,0,0,0,0,1","0.0,3.0,0.0,3.0,0.0,0.0,0.0,0.0,3.0",0.03994657820786893,480.02671089606554,1.0,1.000797546515037,61789,BAR 傑作,https://tabelog.com/tokyo/A1301/A130101/13035475/,バー,バー・お酒,35.67506389,139.765125,東京都中央区銀座1-5-16第三太陽ビル別館わき１Ｆ
"0,1,0,1,0,0,0,0,1","0.0,3.0,0.0,3.0,0.0,0.0,0.0,0.0,3.0",0.03938994522015491,480.30502738992254,1.0,1.0007754832051228,63742,帝国ホテル 日本橋高島屋特別食堂,https://tabelog.com/tokyo/A1302/A130202/13020877/,フレンチ,洋食・西洋料理,35.68056972,139.77237,東京都中央区日本橋2-4-1日本橋タカシマヤ8F
"0,1,0,1,0,0,0,0,1","0.0,3.0,0.0,3.0,0.0,0.0,0.0,0.0,3.0",0.038063570035035584,480.9682149824822,1.0,1.0007241554813255,59224,焼とり 焼とん 石川屋 八丁堀店,https://tabelog.com/tokyo/A1302/A130203/13102641/,焼鳥,Ｂ級和食,35.676047,139.7753,東京都中央区八丁堀2-21-5西勘ビル１Ｆ・２Ｆ
"0,1,0,1,0,0,0,0,1","0.0,3.0,0.0,3.0,0.0,0.0,0.0,0.0,3.0",0.031481007397810346,484.2594963010948,1.0,1.0004954042007295,64226,東京ココジャスミン,https://tabelog.com/tokyo/A1302/A130203/13182866/,台湾料理、バー・お酒（その他）,バー・お酒,35.67636645,139.7753794,東京都中央区八丁堀2-22-3
"0,1,0,1,0,0,0,0,1","0.0,3.0,0.0,3.0,0.0,0.0,0.0,0.0,3.0",0.03072225796551095,484.6388710172445,1.0,1.0004718172614855,60090,アロヒディン 日本橋店,https://tabelog.com/tokyo/A1302/A130202/13182537/,トルコ料理、ロシア料理、西洋各国料理（その他）,洋食・西洋料理,35.68000139,139.7735194,東京都中央区日本橋2-16-4日本橋山田ビル1F
