user_vec,shop_vec,distance [m],cosθ,id,shop_name,URL,genre,oaiso_genre,lat,lng,address,budget_lunch_min,budget_lunch_max,budget_dinner_min,budget_dinner_max
"1,0,0,0,1","3.0,0.0,0.0,0.0,3.0",152.00006544246745,1.0,61084,BEEF UP TOKYO charcoal grill & bar,https://tabelog.com/tokyo/A1302/A130202/13036705/,ステーキ、ワインバー、鉄板焼き,洋食・西洋料理,35.67539611,139.7672664,東京都中央区京橋3-6-18東京建物京橋ビル　B1,1000,1999,,
"1,0,0,0,1","3.0,0.0,0.0,0.0,3.0",348.5758413573593,1.0,60700,藤尾,https://tabelog.com/tokyo/A1302/A130202/13053769/,焼鳥、串焼き,Ｂ級和食,35.67517797,139.7723909,東京都中央区八丁堀3-9-5,,,4000,4999
"1,0,0,0,1","3.0,0.0,0.0,0.0,3.0",293.18426510684213,1.0,60032,はっちゃけ,https://tabelog.com/tokyo/A1302/A130202/13054505/,居酒屋,居酒屋,35.67455492,139.7713388,東京都中央区八丁堀4-2-2共同ビル新京橋,0,999,3000,3999
"1,0,0,0,1","3.0,0.0,0.0,0.0,3.0",469.8823603370122,1.0,64317,サイアムセラドン 銀座店,https://tabelog.com/tokyo/A1301/A130101/13156628/,タイカレー、タイ料理、レストラン（その他）,創作料理・無国籍料理,35.67405333,139.7641631,東京都中央区銀座2-4-6銀座ベルビア館a館7F,1000,1999,4000,4999
"1,0,0,0,1","3.0,0.0,0.0,0.0,3.0",79.89531389732538,1.0,62672,アリスアクアガーデン トウキョウ 銀座店,https://tabelog.com/tokyo/A1302/A130201/13159258/,レストラン（その他）,創作料理・無国籍料理,35.67568361,139.7679864,東京都中央区京橋3-7-1京橋相互館110タワーＢ1Ｆ,1000,1999,4000,4999
"1,0,0,0,1","3.0,0.0,0.0,0.0,3.0",375.99067249029105,1.0,65063,中華・香港居酒屋 龍記 東京・八重洲店,https://tabelog.com/tokyo/A1302/A130201/13209518/,居酒屋、中華料理,居酒屋,35.67937139,139.7676392,東京都中央区京橋1-4-13初音ビル,,,3000,3999
"1,0,0,0,1","3.0,0.0,0.0,0.0,3.0",377.7115084329963,1.0,58579,スタア・バー・ギンザ,https://tabelog.com/tokyo/A1301/A130101/13002270/,バー,バー・お酒,35.67478667,139.7648583,東京都中央区銀座1-5-13三弘社ビル　Ｂ１Ｆ,4000,4999,5000,5999
"1,0,0,0,1","3.0,0.0,0.0,0.0,3.0",250.43709202810157,1.0,61516,和どころ いちふじ,https://tabelog.com/tokyo/A1301/A130101/13203352/,割烹・小料理,高級和食,35.67424556,139.7671267,東京都中央区銀座1-9-5池田ビルB1F,,,3000,3999
"1,0,0,0,1","3.0,0.0,0.0,0.0,3.0",486.5610020446592,1.0,58414,こうじのはな 東京駅前店,https://tabelog.com/tokyo/A1302/A130201/13186245/,和食（その他）、日本酒バー,Ｂ級和食,35.68026528,139.7670392,東京都中央区八重洲2-1-46F,3000,3999,3000,3999
"1,0,0,0,1","3.0,0.0,0.0,0.0,3.0",136.29634081444817,1.0,60724,酒蔵駒忠 京橋三丁目店,https://tabelog.com/tokyo/A1302/A130202/13075670/,居酒屋,居酒屋,35.67487417,139.7685656,東京都中央区京橋3-9-9,,,3000,3999
"1,0,0,0,1","3.0,0.0,0.0,0.0,3.0",435.72360805193506,1.0,64268,築地 ナカシマルシェ 八重洲店,https://tabelog.com/tokyo/A1302/A130201/13196000/,バル・バール,バー・お酒,35.67989136,139.7674682,東京都中央区八重洲2-1八重洲地下街南1,1000,1999,3000,3999
"1,0,0,0,1","3.0,0.0,0.0,0.0,3.0",376.1971342025245,1.0,60933,ふくじゅう 東京駅八重洲地下街店,https://tabelog.com/tokyo/A1302/A130201/13039042/,お好み焼き,Ｂ級和食,35.67848944,139.7657644,東京都中央区八重洲2-1八重洲地下街外堀地下2番通り,0,999,4000,4999
"1,0,0,0,1","3.0,0.0,0.0,0.0,3.0",492.73084596255603,1.0,64914,升寿司 南店,https://tabelog.com/tokyo/A1302/A130201/13048012/,寿司,高級和食,35.680535,139.7685125,東京都中央区八重洲1-8-7第１０７東京ビル１Ｆ,0,999,5000,5999
"1,0,0,0,1","3.0,0.0,0.0,0.0,3.0",415.3786394360724,1.0,63168,はなの膳 八重洲,https://tabelog.com/tokyo/A1302/A130201/13189692/,和食（その他）,Ｂ級和食,35.67972472,139.7675756,東京都中央区八重洲2-1-43F,,,3000,3999
"1,0,0,0,1","3.0,0.0,0.0,0.0,3.0",352.95787822390406,1.0,62716,ひょうたん屋 1丁目店,https://tabelog.com/tokyo/A1301/A130101/13002434/,うなぎ,高級和食,35.67318444,139.7671411,東京都中央区銀座1-13-9栄楽ビル　１Ｆ,2000,2999,3000,3999
"1,0,0,0,1","3.0,0.0,0.0,0.0,3.0",274.13860190673864,1.0,63361,尊 京橋店,https://tabelog.com/tokyo/A1302/A130202/13102124/,居酒屋、焼酎バー、郷土料理（その他）,高級和食,35.67675167,139.7716289,東京都中央区京橋1-19-2鹿島ビル　１Ｆ,0,999,3000,3999
"1,0,0,0,1","3.0,0.0,0.0,0.0,3.0",254.9673680193224,1.0,60468,とんかつ富士,https://tabelog.com/tokyo/A1302/A130202/13054305/,とんかつ,Ｂ級和食,35.67640288,139.7659177,東京都中央区八重洲2-8-11,1000,1999,4000,4999
"1,0,0,0,1","3.0,0.0,0.0,0.0,3.0",415.3786394360724,1.0,58732,鳥の利久 八重洲口店,https://tabelog.com/tokyo/A1302/A130201/13185261/,居酒屋、和食（その他）,Ｂ級和食,35.67972472,139.7675756,東京都中央区八重洲2-1-47F,,,3000,3999
"1,0,0,0,1","3.0,0.0,0.0,0.0,3.0",476.01714760900774,1.0,58886,宝月,https://tabelog.com/tokyo/A1302/A130202/13070037/,懐石・会席料理、割烹・小料理,高級和食,35.67980694,139.7713498,東京都中央区日本橋3-7-8,0,999,3000,3999
"1,0,0,0,1","3.0,0.0,0.0,0.0,3.0",465.3616308862463,1.0,62331,木挽町ふなちゅう,https://tabelog.com/tokyo/A1302/A130202/13043575/,居酒屋,居酒屋,35.67190278,139.7687017,東京都中央区銀座1-22-12藤和一丁目ビル　B1F,0,999,3000,3999
"1,0,0,0,1","3.0,0.0,0.0,0.0,3.0",276.3757036959861,1.0,63958,備長炭や いこる,https://tabelog.com/tokyo/A1302/A130202/13119170/,居酒屋、ろばた焼き、定食・食堂,Ｂ級和食,35.6736325,139.7691525,東京都中央区銀座1-19-3ウイステーリアビル　１Ｆ,0,999,3000,3999
"1,0,0,0,1","3.0,0.0,0.0,0.0,3.0",343.4811931247208,1.0,59360,大衆割烹 三州屋 銀座一丁目店,https://tabelog.com/tokyo/A1301/A130101/13002439/,居酒屋、定食・食堂,高級和食,35.67467722,139.7653375,東京都中央区銀座1-6-15,1000,1999,3000,3999
"1,0,0,0,1","3.0,0.0,0.0,0.0,3.0",414.269336113284,1.0,64079,玉乃光酒蔵 八重洲地下街店,https://tabelog.com/tokyo/A1302/A130201/13011510/,居酒屋、日本酒バー、魚介料理・海鮮料理,高級和食,35.67928278,139.7663225,東京都中央区八重洲地下街南1号八重洲地下街　オレンジロード,0,999,3000,3999
"1,0,0,0,1","3.0,0.0,0.0,0.0,3.0",498.6689142767688,1.0,59465,かく山,https://tabelog.com/tokyo/A1302/A130203/13056498/,居酒屋、定食・食堂,居酒屋,35.676045,139.7742169,東京都中央区八丁堀2丁目18-7,0,999,3000,3999
"1,0,0,0,1","3.0,0.0,0.0,0.0,3.0",332.78048939819234,1.0,61617,ジェントルハウス,https://tabelog.com/tokyo/A1301/A130101/13113529/,バー,バー・お酒,35.67328783,139.7674211,東京都中央区銀座1-14-14,,,3000,3999
"1,0,0,0,1","3.0,0.0,0.0,0.0,3.0",427.5444453661739,1.0,58945,お食事処 すいしんたい乃家,https://tabelog.com/tokyo/A1302/A130201/13045111/,割烹・小料理、日本酒バー,高級和食,35.6795175,139.7665342,東京都中央区八重洲2-1八重洲地下街外堀地下2番通り,1000,1999,3000,3999
"1,0,0,0,1","3.0,0.0,0.0,0.0,3.0",203.8552595249208,1.0,58802,新橋やきとん 京橋店,https://tabelog.com/tokyo/A1302/A130202/13207076/,焼きとん,Ｂ級和食,35.6777858,139.7695959,東京都中央区京橋1-6-5,,,4000,4999
"1,0,0,0,1","3.0,0.0,0.0,0.0,3.0",419.1791109361984,1.0,52614,すし京辰  東京駅サウスタワー店,https://tabelog.com/tokyo/A1302/A130201/13052222/,寿司、アイスクリーム,高級和食,35.67852944,139.7651661,東京都千代田区丸の内1-9-2グラントウキョウサウスタワーB1Ｆ,1000,1999,5000,5999
"1,0,0,0,1","3.0,0.0,0.0,0.0,3.0",461.83403692835094,1.0,63484,ビストロ石川亭 銀座店,https://tabelog.com/tokyo/A1301/A130101/13197435/,ビストロ、フレンチ,洋食・西洋料理,35.67411306,139.7642244,東京都中央区銀座2-4-6銀座ベルビア館8F,1000,1999,3000,3999
"1,0,0,0,1","3.0,0.0,0.0,0.0,3.0",418.3739276692582,1.0,62719,一番どり 八重洲口店,https://tabelog.com/tokyo/A1302/A130201/13058789/,居酒屋、串焼き,居酒屋,35.67977778,139.7677056,東京都中央区八重洲2-1-4松勇八重洲ビル　Ｂ１Ｆ,0,999,3000,3999
"1,0,0,0,1","3.0,0.0,0.0,0.0,3.0",445.6204767524813,1.0,64289,shiokara,https://tabelog.com/tokyo/A1301/A130101/13002280/,バー、割烹・小料理,高級和食,35.673075,139.7654669,東京都中央区銀座2-7-7銀座ロビービル　Ｂ１Ｆ,,,4000,4999
"1,0,0,0,1","3.0,0.0,0.0,0.0,3.0",424.3020084828848,1.0,61455,那須高原の食卓　なすの屋 銀座,https://tabelog.com/tokyo/A1301/A130101/13192468/,野菜料理、居酒屋、創作料理,創作料理・無国籍料理,35.67336639,139.7654278,東京都中央区銀座2-7-18メルサginza-24F,1000,1999,,
"1,0,0,0,1","3.0,0.0,0.0,0.0,3.0",498.9633026320801,1.0,60983,森川,https://tabelog.com/tokyo/A1313/A131301/13171163/,居酒屋・ダイニングバー（その他）、鳥料理,Ｂ級和食,35.67167083,139.7677342,東京都中央区銀座2-13-17,1000,1999,5000,5999
"1,0,0,0,1","3.0,0.0,0.0,0.0,3.0",497.8354635601018,1.0,60077,かつ新,https://tabelog.com/tokyo/A1302/A130203/13048387/,とんかつ,Ｂ級和食,35.67614111,139.7742078,東京都中央区八丁堀2-18-3,1000,1999,4000,4999
"1,0,0,0,1","3.0,0.0,0.0,0.0,3.0",408.37028704592854,1.0,62205,BAR オーパ 銀座,https://tabelog.com/tokyo/A1301/A130101/13002248/,バー,バー・お酒,35.67481583,139.7644803,東京都中央区銀座1-4-8銀座ビッグウエストビル5号館　B1Ｆ,,,4000,4999
"1,0,0,0,1","3.0,0.0,0.0,0.0,3.0",129.60527148829664,1.0,61344,天ささ,https://tabelog.com/tokyo/A1302/A130202/13039920/,天ぷら,高級和食,35.67560041,139.7674132,東京都中央区京橋3-6-21十合ビル1階,0,999,3000,3999
"1,0,0,0,1","3.0,0.0,0.0,0.0,3.0",251.3235372130226,1.0,62255,世界の山ちゃん 銀座京橋店,https://tabelog.com/tokyo/A1313/A131301/13126156/,居酒屋、鳥料理、鍋（その他）,焼肉・ホルモン・鍋,35.67576215,139.7659634,東京都中央区京橋3-3-13平和ビル3号館B1,,,3000,3999
"1,0,0,0,1","3.0,0.0,0.0,0.0,3.0",312.9297633090187,1.0,60216,Babelico,https://tabelog.com/tokyo/A1302/A130202/13212078/,バル・バール、イタリアン,洋食・西洋料理,35.67881222,139.7677739,東京都中央区京橋1-4-41F～B1F,0,999,,
"1,0,0,0,1","3.0,0.0,0.0,0.0,3.0",240.54222496084606,1.0,62462,Bar Terra,https://tabelog.com/tokyo/A1301/A130101/13022998/,スペイン料理、ダイニングバー,洋食・西洋料理,35.67539083,139.7661969,東京都中央区京橋3-4-4,0,999,4000,4999
"1,0,0,0,1","3.0,0.0,0.0,0.0,3.0",90.55133091861929,1.0,61612,酒 龍馬,https://tabelog.com/tokyo/A1302/A130202/13033536/,居酒屋、日本酒バー、焼酎バー,バー・お酒,35.67689801,139.7689006,東京都中央区京橋2-7-15鈴木ビル１階,0,999,4000,4999
"1,0,0,0,1","3.0,3.0,0.0,0.0,3.0",459.01485951915794,0.816496580928,60337,サニーズ,https://tabelog.com/tokyo/A1302/A130201/13061281/,居酒屋、定食・食堂,居酒屋,35.679455,139.7657475,東京都中央区八重洲2-1八重洲地下街南1号外堀地下1番通り,0,999,3000,3999
"1,0,0,0,1","3.0,3.0,0.0,0.0,3.0",203.22992073698364,0.816496580928,60621,焼き鳥　つくね 京橋店,https://tabelog.com/tokyo/A1302/A130202/13142142/,焼鳥,Ｂ級和食,35.67771919,139.7697515,東京都中央区京橋1-6-6金葉ビル別館1F,0,999,3000,3999
"1,0,0,0,1","3.0,3.0,0.0,0.0,3.0",469.0711354692072,0.816496580928,62348,豆乳豚しゃぶ 五元豚,https://tabelog.com/tokyo/A1301/A130101/13091451/,しゃぶしゃぶ,焼肉・ホルモン・鍋,35.67401889,139.7641969,東京都中央区銀座2-4-6銀座ベルビア館7Ｆ,1000,1999,5000,5999
"1,0,0,0,1","3.0,3.0,0.0,0.0,3.0",78.94042496903833,0.816496580928,62253,Halco,https://tabelog.com/tokyo/A1302/A130201/13158959/,ワインバー、バー、バー・お酒（その他）,バー・お酒,35.67600531,139.7695737,東京都中央区京橋2-12-2京橋三貴ビル1F,,,3000,3999
"1,0,0,0,1","3.0,3.0,0.0,0.0,3.0",316.96850297036934,0.816496580928,61378,加賀屋 東京駅前店,https://tabelog.com/tokyo/A1302/A130202/13050800/,居酒屋、もつ焼き、魚介料理・海鮮料理,高級和食,35.67868806,139.7672344,東京都中央区八重洲2-3-7,0,999,3000,3999
"1,0,0,0,1","3.0,0.0,3.0,0.0,3.0",470.2885752533856,0.816496580928,62247,tetote,https://tabelog.com/tokyo/A1301/A130102/13156136/,創作料理、すき焼き、しゃぶしゃぶ,焼肉・ホルモン・鍋,35.67402917,139.7641744,東京都中央区銀座2-4-6銀座ベルビア館8F,2000,2999,,
"1,0,0,0,1","3.0,0.0,3.0,0.0,3.0",486.2734957331021,0.816496580928,64847,Kaoru ginza ～香る銀座～,https://tabelog.com/tokyo/A1301/A130101/13197082/,居酒屋、創作料理、洋食,創作料理・無国籍料理,35.67254368,139.7655648,東京都中央区銀座2-8-12ユニデン銀座ビル8F,1000,1999,,
"1,0,0,0,1","3.0,3.0,0.0,0.0,3.0",246.17960810543264,0.816496580928,60531,京橋 かよう亭,https://tabelog.com/tokyo/A1301/A130101/13110838/,居酒屋,居酒屋,35.67557753,139.7660653,東京都中央区京橋3-3-12山京ビル　Ｂ１Ｆ,0,999,,
"1,0,0,0,1","3.0,3.0,0.0,0.0,3.0",459.1409403418665,0.816496580928,59616,串かつ でんがな 八重洲店,https://tabelog.com/tokyo/A1302/A130201/13205301/,居酒屋、串揚げ・串かつ、和食（その他）,Ｂ級和食,35.68023444,139.7686147,東京都中央区日本橋3-3-17財成八重洲ビル1F,0,999,3000,3999
"1,0,0,0,1","3.0,3.0,0.0,0.0,3.0",351.3332641801073,0.816496580928,61401,RINN’S CAFE DINING Full Full Range 八丁堀店,https://tabelog.com/tokyo/A1302/A130202/13174876/,インドカレー、バー、ダイニングバー,バー・お酒,35.67605111,139.7725894,東京都中央区八丁堀3-7-7原田ビル1F,0,999,,
"1,0,0,0,1","3.0,0.0,0.0,0.0,0.0",159.3802178391963,0.707106781187,60292,新世界,https://tabelog.com/tokyo/A1302/A130202/13099828/,中華料理、居酒屋、上海料理,アジア・エスニック、中華料理,35.67706028,139.770015,東京都中央区京橋2-9-12日本工業1号館ビル　B1F,0,999,3000,3999
"1,0,0,0,1","3.0,0.0,0.0,0.0,0.0",184.13415604225602,0.707106781187,63135,TAVERNA UOKIN 京橋,https://tabelog.com/tokyo/A1302/A130202/13202693/,イタリアン、バル・バール、パスタ,洋食・西洋料理,35.67744722,139.7675264,東京都中央区京橋2-2-1京橋エドグラン1F,0,999,4000,4999
"1,0,0,0,1","3.0,0.0,0.0,0.0,0.0",292.1011116961709,0.707106781187,62286,俺のイタリアン TOKYO,https://tabelog.com/tokyo/A1301/A130101/13173949/,イタリアン、ピザ、パスタ,洋食・西洋料理,35.67420361,139.7664672,東京都中央区銀座1-8-19キラリト　ギンザB1F,4000,4999,4000,4999
"1,0,0,0,1","3.0,0.0,0.0,0.0,0.0",272.2170213806953,0.707106781187,63857,TOKYO Mar Mare,https://tabelog.com/tokyo/A1302/A130202/13146313/,バル・バール、スペイン料理、イタリアン,洋食・西洋料理,35.67785972,139.7666175,東京都中央区八重洲2-5-12プレリー八重洲ビル1F,1000,1999,3000,3999
"1,0,0,0,1","3.0,0.0,0.0,0.0,0.0",291.47604835219767,0.707106781187,64296,おでん処しおの,https://tabelog.com/tokyo/A1302/A130201/13161307/,おでん、割烹・小料理、魚介料理・海鮮料理,高級和食,35.67598694,139.7654922,東京都中央区八重洲2-10-7SHIONO八重洲ビル2号館2F,1000,1999,5000,5999
"1,0,0,0,1","3.0,0.0,0.0,0.0,0.0",466.81546109187855,0.707106781187,64784,美少年,https://tabelog.com/tokyo/A1302/A130202/13033811/,居酒屋、ちゃんこ鍋、日本酒バー,バー・お酒,35.68029944,139.7684606,東京都中央区八重洲1-8-9一六堂ビル　１Ｆ・２Ｆ,0,999,3000,3999
"1,0,0,0,1","3.0,0.0,0.0,0.0,0.0",244.8072663265919,0.707106781187,61301,村さ来 八重洲店,https://tabelog.com/tokyo/A1302/A130202/13059334/,居酒屋、魚介料理・海鮮料理、和食（その他）,Ｂ級和食,35.67652694,139.7660567,東京都中央区八重洲2-8-10松岡八重洲ビル　１Ｆ,0,999,3000,3999
"1,0,0,0,1","3.0,0.0,0.0,0.0,0.0",139.10406055662108,0.707106781187,60385,ブルーパパイアタイランド 京橋エドグラン店,https://tabelog.com/tokyo/A1302/A130202/13202740/,タイ料理、ダイニングバー、アジア・エスニック料理（その他）,バー・お酒,35.67712611,139.7678314,東京都中央区京橋2-2-1京橋エドグランB1F,1000,1999,3000,3999
"1,0,0,0,1","3.0,0.0,0.0,0.0,0.0",278.21723038462073,0.707106781187,64795,重慶府 八重洲,https://tabelog.com/tokyo/A1302/A130202/13033944/,四川料理、飲茶・点心、居酒屋,アジア・エスニック、中華料理,35.67777444,139.7664247,東京都中央区八重洲2-6-5八重洲玉の玉ビル　Ｂ１Ｆ,0,999,4000,4999
"1,0,0,0,1","3.0,0.0,0.0,0.0,0.0",138.22929542553348,0.707106781187,62666,国泰飯店,https://tabelog.com/tokyo/A1302/A130202/13042651/,中華料理,アジア・エスニック、中華料理,35.67656691,139.7672949,東京都中央区京橋2-4-12京橋第一生命ビル　２Ｆ,0,999,5000,5999
"1,0,0,0,1","3.0,0.0,0.0,0.0,0.0",260.00951838474236,0.707106781187,64155,ブラッスリー ドンピエール,https://tabelog.com/tokyo/A1301/A130101/13014922/,ビストロ、西洋各国料理（その他）、バル・バール,洋食・西洋料理,35.67406556,139.7672772,東京都中央区銀座1-10-19銀座一ビルヂング　１Ｆ,1000,1999,5000,5999
"1,0,0,0,1","3.0,0.0,0.0,0.0,0.0",454.8172223278491,0.707106781187,60786,純米酒専門　粋酔 日本橋東京店,https://tabelog.com/tokyo/A1302/A130202/13169597/,居酒屋、日本酒バー、魚介料理・海鮮料理,高級和食,35.67964,139.7712358,東京都中央区日本橋3-7-10タンペイ日本橋ビルB1F,,,5000,5999
"1,0,0,0,1","3.0,0.0,0.0,0.0,0.0",207.0365963336712,0.707106781187,58997,焼肉ビストロ 牛印 京橋エドグラン店,https://tabelog.com/tokyo/A1302/A130202/13202859/,ビストロ、焼肉,焼肉・ホルモン・鍋,35.67764701,139.7674357,東京都中央区京橋2-2-1京橋エドグランB1F,1000,1999,4000,4999
"1,0,0,0,1","3.0,0.0,0.0,0.0,0.0",475.7539488006623,0.707106781187,63464,すみだ川,https://tabelog.com/tokyo/A1302/A130202/13037408/,魚介料理・海鮮料理、天ぷら、割烹・小料理,高級和食,35.68036806,139.7682439,東京都中央区八重洲1-8-11,0,999,5000,5999
"1,0,0,0,1","3.0,0.0,0.0,0.0,0.0",341.5614784748565,0.707106781187,58687,タナゴコロ ザバー,https://tabelog.com/tokyo/A1301/A130101/13122362/,バー,バー・お酒,35.67393833,139.7660192,東京都中央区銀座1-8-15B1F,6000,7999,4000,4999
"1,0,0,0,1","3.0,0.0,0.0,0.0,0.0",438.200569909532,0.707106781187,64933,はし本のおばんざい,https://tabelog.com/tokyo/A1301/A130102/13159651/,京料理、和食（その他）,高級和食,35.67256861,139.7665344,東京都中央区銀座2-10-5銀座オオイビル2F,1000,1999,5000,5999
"1,0,0,0,1","3.0,0.0,0.0,0.0,0.0",494.79533785077183,0.707106781187,63606,やえす館,https://tabelog.com/tokyo/A1302/A130201/13036742/,焼肉,焼肉・ホルモン・鍋,35.68054167,139.7682636,東京都中央区八重洲1-8-6,,,5000,5999
"1,0,0,0,1","3.0,0.0,0.0,0.0,0.0",219.80581491046715,0.707106781187,62517,ラヴァロック,https://tabelog.com/tokyo/A1302/A130202/13167454/,洋食・欧風料理（その他）,洋食・西洋料理,35.67786914,139.7676237,東京都中央区京橋2-1-3コートヤード・バイ・マリオット東京ステーション1F,1000,1999,4000,4999
"1,0,0,0,1","3.0,0.0,0.0,0.0,0.0",253.61174897436766,0.707106781187,59975,龍記 京橋店,https://tabelog.com/tokyo/A1302/A130202/13172272/,居酒屋、中華料理,アジア・エスニック、中華料理,35.67560943,139.7659721,東京都中央区京橋3-3-13平和ビル3号館2F,0,999,4000,4999
"1,0,0,0,1","3.0,0.0,0.0,0.0,0.0",416.340896456051,0.707106781187,63589,とりまさ teppan tokyo！,https://tabelog.com/tokyo/A1302/A130201/13213527/,居酒屋、鉄板焼き,洋食・西洋料理,35.67973778,139.7675956,東京都中央区八重洲2-1-4,,,,
"1,0,0,0,1","3.0,0.0,0.0,0.0,0.0",359.8976662432233,0.707106781187,61004,銀座イタリー亭,https://tabelog.com/tokyo/A1301/A130101/13002469/,イタリアン、パスタ、ピザ,洋食・西洋料理,35.67439917,139.7653217,東京都中央区銀座1-6-8第２上一ビルディング1F・B1F,1000,1999,5000,5999
"1,0,0,0,1","3.0,0.0,0.0,0.0,0.0",362.92513257187153,0.707106781187,61690,桂園 新富町店,https://tabelog.com/tokyo/A1302/A130202/13052225/,中華料理,アジア・エスニック、中華料理,35.67345583,139.7710739,東京都中央区新富1-3-16第2アサヒビルB1F・1F,0,999,3000,3999
"1,0,0,0,1","3.0,0.0,0.0,0.0,0.0",279.7223352936135,0.707106781187,62339,魚や一丁 銀座本店,https://tabelog.com/tokyo/A1301/A130101/13020785/,魚介料理・海鮮料理、居酒屋,高級和食,35.67510056,139.7658708,東京都中央区銀座1-2-3東京高速道路下・中央通り側　２F,0,999,4000,4999
"1,0,0,0,1","3.0,0.0,0.0,0.0,0.0",186.73987107402957,0.707106781187,64757,随園別館 京橋店,https://tabelog.com/tokyo/A1302/A130201/13155011/,中華料理、北京料理,アジア・エスニック、中華料理,35.67603917,139.7666475,東京都中央区京橋3-1-1東京スクエアガーデン2F,1000,1999,5000,5999
"1,0,0,0,1","3.0,0.0,0.0,0.0,0.0",237.50935740081204,0.707106781187,58848,カフェ ラ・ボエム G-Zone 銀座,https://tabelog.com/tokyo/A1301/A130101/13002645/,イタリアン、洋食、ワインバー,バー・お酒,35.67521833,139.7663167,東京都中央区銀座1-2-3Ｇ－Ｚｏｎｅ　銀座内１Ｆ,1000,1999,3000,3999
"1,0,0,0,1","3.0,0.0,0.0,0.0,0.0",350.3729583575921,0.707106781187,62052,カイバル,https://tabelog.com/tokyo/A1301/A130101/13026440/,インド料理、インドカレー,アジア・エスニック、中華料理,35.67305833,139.7676558,東京都中央区銀座1-14-6銀座1丁目ビル1F,1000,1999,4000,4999
"1,0,0,0,1","3.0,0.0,0.0,0.0,0.0",206.42748521845493,0.707106781187,63816,くふ楽 銀座店,https://tabelog.com/tokyo/A1302/A130202/13033926/,焼鳥、しゃぶしゃぶ、居酒屋,焼肉・ホルモン・鍋,35.67425667,139.7683742,東京都中央区銀座1-16-1東貨ビルB1F,0,999,3000,3999
"1,0,0,0,1","3.0,0.0,0.0,0.0,0.0",376.3678612458466,0.707106781187,61979,Bistro B.V.,https://tabelog.com/tokyo/A1302/A130202/13122534/,豚料理、バル・バール、ビストロ,洋食・西洋料理,35.67332889,139.7711119,東京都中央区新富1-3-15京橋プリズムビル1F,0,999,3000,3999
"1,0,0,0,1","3.0,0.0,0.0,0.0,0.0",452.6447069436916,0.707106781187,60105,ザ テラス アーバン リゾート,https://tabelog.com/tokyo/A1301/A130101/13172996/,無国籍料理、西洋各国料理（その他）、居酒屋・ダイニングバー（その他）,創作料理・無国籍料理,35.67356913,139.7647847,東京都中央区銀座2-6-16ゼニア銀座ビル13F,,,5000,5999
"1,0,0,0,1","3.0,0.0,0.0,0.0,0.0",382.9218652916472,0.707106781187,59348,あじわい東京 八丁堀店,https://tabelog.com/tokyo/A1302/A130202/13186269/,インド料理、ネパール料理、居酒屋,居酒屋,35.67597528,139.7729361,東京都中央区八丁堀3-14-2東八重洲シティービルB1F,0,999,4000,4999
"1,0,0,0,1","3.0,0.0,0.0,0.0,0.0",415.2727238054933,0.707106781187,59021,富昌丸,https://tabelog.com/tokyo/A1302/A130201/13189696/,居酒屋、魚介料理・海鮮料理、鍋（その他）,高級和食,35.67972361,139.767575,東京都中央区八重洲2-1-410F,,,4000,4999
"1,0,0,0,1","3.0,0.0,0.0,0.0,0.0",470.12760831480125,0.707106781187,58533,ラ ココリコ 銀座,https://tabelog.com/tokyo/A1301/A130101/13131530/,ビストロ、イタリアン、居酒屋,洋食・西洋料理,35.67403083,139.7641753,東京都中央区銀座2-4-6銀座ベルビア館8F,1000,1999,5000,5999
"1,0,0,0,1","3.0,0.0,0.0,0.0,0.0",416.69809126469715,0.707106781187,64292,九州 熱中屋 東京駅中央通りLIVE,https://tabelog.com/tokyo/A1302/A130201/13173961/,居酒屋、もつ鍋、餃子,居酒屋,35.67973472,139.7675647,東京都中央区八重洲2-1-4松勇八重洲B1F,4000,4999,5000,5999
"1,0,0,0,1","3.0,0.0,0.0,0.0,0.0",313.3951930329849,0.707106781187,62946,北海道料理ユック 銀座店,https://tabelog.com/tokyo/A1301/A130101/13014924/,居酒屋、郷土料理（その他）、魚介料理・海鮮料理,高級和食,35.67471972,139.7656867,東京都中央区銀座1-6-5銀座BビルB1F,0,999,5000,5999
"1,0,0,0,1","3.0,0.0,0.0,0.0,0.0",410.162105899246,0.707106781187,61920,青葉,https://tabelog.com/tokyo/A1302/A130202/13025344/,うなぎ,高級和食,35.67297194,139.7711292,東京都中央区新富町1-5-5,3000,3999,3000,3999
"1,0,0,0,1","3.0,0.0,0.0,0.0,0.0",326.1618803871617,0.707106781187,59397,八丁堀　朋,https://tabelog.com/tokyo/A1302/A130203/13055793/,割烹・小料理、居酒屋、日本酒バー,高級和食,35.67673722,139.7722253,東京都中央区八丁堀2-1-9第一カワナビル地B1F,1000,1999,4000,4999
"1,0,0,0,1","3.0,0.0,0.0,0.0,0.0",493.023004473094,0.707106781187,59578,中華料理 菜香菜 日本橋店,https://tabelog.com/tokyo/A1302/A130202/13196143/,中華料理,アジア・エスニック、中華料理,35.6791,139.7727231,東京都中央区日本橋3-13-5KDX日本橋313ビル1F,0,999,3000,3999
"1,0,0,0,1","3.0,0.0,0.0,0.0,0.0",455.15107191218715,0.707106781187,61432,鮨乃家 銀座二丁目店,https://tabelog.com/tokyo/A1301/A130101/13036612/,寿司、居酒屋、魚介料理・海鮮料理,高級和食,35.67497778,139.7638722,東京都中央区銀座2-2-2新西銀座ビル　２Ｆ,2000,2999,3000,3999
"1,0,0,0,1","3.0,0.0,0.0,0.0,0.0",475.3852082512597,0.707106781187,61873,萬寿園,https://tabelog.com/tokyo/A1302/A130202/13050732/,中華料理,アジア・エスニック、中華料理,35.67982328,139.7713009,東京都中央区日本橋3-7-7小村ビル　１Ｆ・Ｂ１Ｆ,0,999,3000,3999
"1,0,0,0,1","3.0,0.0,0.0,0.0,0.0",417.40475383231416,0.707106781187,60277,笑笑 八重洲中央口駅前店,https://tabelog.com/tokyo/A1302/A130201/13073227/,居酒屋、魚介料理・海鮮料理、創作料理,高級和食,35.67974556,139.7675853,東京都中央区八重洲2-1-4東京駅前八重洲ビル　８Ｆ,,,3000,3999
"1,0,0,0,1","3.0,0.0,0.0,0.0,0.0",425.8218036052996,0.707106781187,64403,薩摩魚鮮水産 八重洲中央口1号店,https://tabelog.com/tokyo/A1302/A130201/13163602/,居酒屋,居酒屋,35.67993472,139.7686694,東京都中央区日本橋3-4-15八重洲通りビルB1F,0,999,4000,4999
"1,0,0,0,1","3.0,0.0,0.0,0.0,0.0",446.2593203799968,0.707106781187,63267,大衆割烹 三州屋 日本橋店,https://tabelog.com/tokyo/A1302/A130202/13032221/,居酒屋、魚介料理・海鮮料理,高級和食,35.67964083,139.7710403,東京都中央区日本橋3-7-13,0,999,3000,3999
"1,0,0,0,1","3.0,0.0,0.0,0.0,0.0",482.79241579882495,0.707106781187,63378,牛たん 荒 八重洲店,https://tabelog.com/tokyo/A1302/A130201/13131647/,牛タン、居酒屋、定食・食堂,Ｂ級和食,35.68044806,139.7687675,東京都中央区日本橋3-3-18富士八重洲ビル　１・２F,1000,1999,4000,4999
"1,0,0,0,1","3.0,0.0,0.0,0.0,0.0",427.81146202186255,0.707106781187,52032,トーキョー ビア パラダイス バイ プリムス,https://tabelog.com/tokyo/A1302/A130201/13201369/,ビストロ、ビアバー,洋食・西洋料理,35.67815361,139.7647117,東京都千代田区丸ノ内1-11-1パシフィックセンチュリープレイス丸ノ内B1F,0,999,4000,4999
"1,0,0,0,1","3.0,0.0,0.0,0.0,0.0",89.1291412487393,0.707106781187,58814,園林閣,https://tabelog.com/tokyo/A1302/A130202/13007733/,広東料理、中華料理、餃子,アジア・エスニック、中華料理,35.67687568,139.7689509,東京都中央区京橋2-7-15亜細亜ビル　１Ｆ,0,999,3000,3999
"1,0,0,0,1","3.0,0.0,0.0,0.0,0.0",438.25902398117677,0.707106781187,58388,ファボリ,https://tabelog.com/tokyo/A1301/A130101/13015842/,ダイニングバー、ビアホール・ビアレストラン、ビアバー,バー・お酒,35.67253333,139.7666211,東京都中央区銀座2-10-5オオイビル　１Ｆ,3000,3999,3000,3999
"1,0,0,0,1","3.0,0.0,0.0,0.0,0.0",292.03755526511617,0.707106781187,58521,トラットリア デル パチョッコーネ 銀座,https://tabelog.com/tokyo/A1301/A130101/13174749/,ピザ、イタリアン,洋食・西洋料理,35.67420417,139.7664675,東京都中央区銀座1-8-19キラリトギンザ7F,1000,1999,4000,4999
"1,0,0,0,1","3.0,0.0,0.0,0.0,0.0",151.51890274225332,0.707106781187,64581,はなの舞 京橋店,https://tabelog.com/tokyo/A1302/A130202/13043931/,居酒屋,居酒屋,35.67745694,139.7685566,東京都中央区京橋2-8-20京橋ビル　B1,0,999,4000,4999
"1,0,0,0,1","3.0,0.0,0.0,0.0,0.0",324.3518513900888,0.707106781187,61563,とめ手羽 八重洲店,https://tabelog.com/tokyo/A1302/A130202/13158578/,居酒屋、鳥料理、馬肉料理,創作料理・無国籍料理,35.67829917,139.7710653,東京都中央区京橋1-11-2八重洲MIDビルB1F,0,999,3000,3999
"1,0,0,0,1","3.0,0.0,0.0,0.0,0.0",430.52807302609614,0.707106781187,51538,沌 丸の内ＰＣＰ店,https://tabelog.com/tokyo/A1302/A130201/13011028/,タイ料理、アジア・エスニック料理（その他）,アジア・エスニック、中華料理,35.67813235,139.7646601,東京都千代田区丸の内1-11-1パシフィック・センチュリー・プレイス丸の内　Ｂ１Ｆ,1000,1999,4000,4999
"1,0,0,0,0","3.0,0.0,0.0,0.0,0.0",522.3113589376921,1.0,59650,庄や 八重洲口店,https://tabelog.com/tokyo/A1302/A130202/13027958/,居酒屋、魚介料理・海鮮料理、居酒屋・ダイニングバー（その他）,高級和食,35.68076389,139.7679528,東京都中央区八重洲1-8-3黒龍八重洲ビル　２Ｆ,,,3000,3999
"1,0,0,0,0","3.0,0.0,0.0,0.0,0.0",475.7539488006623,1.0,63464,すみだ川,https://tabelog.com/tokyo/A1302/A130202/13037408/,魚介料理・海鮮料理、天ぷら、割烹・小料理,高級和食,35.68036806,139.7682439,東京都中央区八重洲1-8-11,0,999,5000,5999
"1,0,0,0,0","3.0,0.0,0.0,0.0,0.0",556.0583325228262,1.0,59040,天ぷら新宿つな八 銀座店,https://tabelog.com/tokyo/A1301/A130101/13010664/,天ぷら、割烹・小料理、居酒屋,高級和食,35.67236,139.7646164,東京都中央区銀座3-6-1松屋銀座本店8F,2000,2999,3000,3999
"1,0,0,0,0","3.0,0.0,0.0,0.0,0.0",344.11741721180306,1.0,61789,BAR 傑作,https://tabelog.com/tokyo/A1301/A130101/13035475/,バー,バー・お酒,35.67506389,139.765125,東京都中央区銀座1-5-16第三太陽ビル別館わき１Ｆ,,,4000,4999
"1,0,0,0,0","3.0,0.0,0.0,0.0,0.0",588.5347808532,1.0,63026,タベルナ トーキョー,https://tabelog.com/tokyo/A1301/A130101/13191201/,シーフード、バル・バール、パスタ,創作料理・無国籍料理,35.674165,139.7626547,東京都中央区銀座西3-1銀座インズ1B1F,1000,1999,5000,5999
"1,0,0,0,0","3.0,0.0,0.0,0.0,0.0",568.5977491785266,1.0,59824,虎連坊 八重洲店,https://tabelog.com/tokyo/A1302/A130201/13183526/,居酒屋、魚介料理・海鮮料理、日本酒バー,高級和食,35.68117111,139.7678289,東京都中央区八重洲1-7-20八重洲口会館　B1F,0,999,5000,5999
"1,0,0,0,0","3.0,0.0,0.0,0.0,0.0",587.8336750935786,1.0,62679,八重洲豊丸,https://tabelog.com/tokyo/A1302/A130201/13172495/,居酒屋、魚介料理・海鮮料理、天ぷら,高級和食,35.68139131,139.7684654,東京都中央区八重洲1-6-14,,,5000,5999
"1,0,0,0,0","3.0,0.0,0.0,0.0,0.0",446.2593203799968,1.0,63267,大衆割烹 三州屋 日本橋店,https://tabelog.com/tokyo/A1302/A130202/13032221/,居酒屋、魚介料理・海鮮料理,高級和食,35.67964083,139.7710403,東京都中央区日本橋3-7-13,0,999,3000,3999
"1,0,0,0,0","3.0,0.0,0.0,0.0,0.0",512.3914407768254,1.0,59644,La Cornice,https://tabelog.com/tokyo/A1302/A130203/13060496/,イタリアン,洋食・西洋料理,35.67808866,139.7738155,東京都中央区八丁堀1-4-8森田ビル　１F,1000,1999,4000,4999
"1,0,0,0,0","3.0,0.0,0.0,0.0,0.0",625.0529222132668,1.0,62918,でーびる沖縄 銀座店,https://tabelog.com/tokyo/A1301/A130101/13027403/,沖縄料理,高級和食,35.67129667,139.7650956,東京都中央区銀座3-8-10銀座朝日ビルB1F,0,999,3000,3999
"1,0,0,0,0","3.0,0.0,0.0,0.0,0.0",674.52234592166,1.0,63266,サポセントゥ ディ アキ,https://tabelog.com/tokyo/A1313/A131301/13114505/,イタリアン,洋食・西洋料理,35.67015221,139.7702679,東京都中央区築地1-3-6前田ビル　１Ｆ,1000,1999,5000,5999
"1,0,0,0,0","3.0,0.0,0.0,0.0,0.0",616.3697086767728,1.0,58625,菜香苑 銀座店,https://tabelog.com/tokyo/A1301/A130101/13196246/,中華料理,アジア・エスニック、中華料理,35.67085531,139.7664541,東京都中央区銀座3-11-16B1F,0,999,3000,3999
"1,0,0,0,0","3.0,0.0,0.0,0.0,0.0",596.756327627828,1.0,63742,帝国ホテル 日本橋高島屋特別食堂,https://tabelog.com/tokyo/A1302/A130202/13020877/,フレンチ,洋食・西洋料理,35.68056972,139.77237,東京都中央区日本橋2-4-1日本橋タカシマヤ8F,2000,2999,4000,4999
"1,0,0,0,0","3.0,0.0,0.0,0.0,0.0",461.4195011161707,1.0,63858,麹屋 三四郎酒舗,https://tabelog.com/tokyo/A1313/A131301/13183779/,日本酒バー,バー・お酒,35.67198,139.7694289,東京都中央区銀座1-23-4東海ビル1F,,,5000,5999
"1,0,0,0,0","3.0,0.0,0.0,0.0,0.0",741.2156936954633,1.0,51137,丸の内ディンドン 新東京ビル店,https://tabelog.com/tokyo/A1301/A130102/13029083/,洋食、西洋各国料理（その他）、ダイニングバー,洋食・西洋料理,35.67762417,139.7607383,東京都千代田区丸の内3-3-1新東京ビルB1F,0,999,4000,4999
"1,0,0,0,0","3.0,0.0,0.0,0.0,0.0",567.4701953911657,1.0,65064,銀座でワイン。,https://tabelog.com/tokyo/A1301/A130101/13169784/,ダイニングバー、串焼き、イタリアン,洋食・西洋料理,35.67159889,139.7657258,東京都中央区銀座3-9-6マトリックスビル2F,,,4000,4999
"1,0,0,0,0","3.0,0.0,0.0,0.0,0.0",724.3786022319622,1.0,58601,銀座魚勝,https://tabelog.com/tokyo/A1301/A130101/13179479/,魚介料理・海鮮料理、割烹・小料理、日本酒バー,高級和食,35.67215833,139.7623278,東京都中央区銀座4-3-7銀座スバルビル2F,1000,1999,5000,5999
"1,0,0,0,0","3.0,0.0,0.0,0.0,0.0",416.340896456051,1.0,63589,とりまさ teppan tokyo！,https://tabelog.com/tokyo/A1302/A130201/13213527/,居酒屋、鉄板焼き,洋食・西洋料理,35.67973778,139.7675956,東京都中央区八重洲2-1-4,,,,
"1,0,0,0,0","3.0,0.0,0.0,0.0,0.0",454.8172223278491,1.0,60786,純米酒専門　粋酔 日本橋東京店,https://tabelog.com/tokyo/A1302/A130202/13169597/,居酒屋、日本酒バー、魚介料理・海鮮料理,高級和食,35.67964,139.7712358,東京都中央区日本橋3-7-10タンペイ日本橋ビルB1F,,,5000,5999
"1,0,0,0,0","3.0,0.0,0.0,0.0,0.0",244.8072663265919,1.0,61301,村さ来 八重洲店,https://tabelog.com/tokyo/A1302/A130202/13059334/,居酒屋、魚介料理・海鮮料理、和食（その他）,Ｂ級和食,35.67652694,139.7660567,東京都中央区八重洲2-8-10松岡八重洲ビル　１Ｆ,0,999,3000,3999
"1,0,0,0,0","3.0,0.0,0.0,0.0,0.0",552.4920427683862,1.0,64030,板前バル 銀座店,https://tabelog.com/tokyo/A1301/A130101/13144183/,和食（その他）、バル・バール,Ｂ級和食,35.671765,139.7656997,東京都中央区銀座3-9-18東銀座ビル1F,4000,4999,4000,4999
"1,0,0,0,0","3.0,0.0,0.0,0.0,0.0",714.063948010639,1.0,58677,東京イカセンター,https://tabelog.com/tokyo/A1302/A130201/13155039/,居酒屋、魚介料理・海鮮料理,高級和食,35.68251194,139.7693425,東京都中央区八重洲1-4-16東京建物八重洲ビルB1F,1000,1999,4000,4999
"1,0,0,0,0","3.0,0.0,0.0,0.0,0.0",722.4393174180598,1.0,62533,鍛冶屋文蔵 茅場町店,https://tabelog.com/tokyo/A1302/A130203/13195524/,居酒屋、焼鳥,居酒屋,35.6782375,139.7762456,東京都中央区日本橋茅場町3-5-2アロマビル1F・2F,0,999,3000,3999
"1,0,0,0,0","3.0,0.0,0.0,0.0,0.0",138.22929542553348,1.0,62666,国泰飯店,https://tabelog.com/tokyo/A1302/A130202/13042651/,中華料理,アジア・エスニック、中華料理,35.67656691,139.7672949,東京都中央区京橋2-4-12京橋第一生命ビル　２Ｆ,0,999,5000,5999
"1,0,0,0,0","3.0,0.0,0.0,0.0,0.0",475.6809751276094,1.0,60254,浪漫酒房 八重洲店,https://tabelog.com/tokyo/A1302/A130201/13034638/,居酒屋,居酒屋,35.68038056,139.7684917,東京都中央区八重洲1-8-9八洲ビルA　Ｂ１Ｆ,,,4000,4999
"1,0,0,0,0","3.0,0.0,0.0,0.0,0.0",703.6061417505364,1.0,61115,レストラン木村家,https://tabelog.com/tokyo/A1301/A130101/13007695/,フレンチ,洋食・西洋料理,35.67171694,139.7630889,東京都中央区銀座4-5-7銀座木村屋総本店　４Ｆ,2000,2999,5000,5999
"1,0,0,0,0","3.0,0.0,0.0,0.0,0.0",326.1618803871617,1.0,59397,八丁堀　朋,https://tabelog.com/tokyo/A1302/A130203/13055793/,割烹・小料理、居酒屋、日本酒バー,高級和食,35.67673722,139.7722253,東京都中央区八丁堀2-1-9第一カワナビル地B1F,1000,1999,4000,4999
"1,0,0,0,0","3.0,0.0,0.0,0.0,0.0",184.13415604225602,1.0,63135,TAVERNA UOKIN 京橋,https://tabelog.com/tokyo/A1302/A130202/13202693/,イタリアン、バル・バール、パスタ,洋食・西洋料理,35.67744722,139.7675264,東京都中央区京橋2-2-1京橋エドグラン1F,0,999,4000,4999
"1,0,0,0,0","3.0,0.0,0.0,0.0,0.0",279.7223352936135,1.0,62339,魚や一丁 銀座本店,https://tabelog.com/tokyo/A1301/A130101/13020785/,魚介料理・海鮮料理、居酒屋,高級和食,35.67510056,139.7658708,東京都中央区銀座1-2-3東京高速道路下・中央通り側　２F,0,999,4000,4999
"1,0,0,0,0","3.0,0.0,0.0,0.0,0.0",514.6924668583016,1.0,60925,完全個室と京料理 はんなり邸 八重洲本店,https://tabelog.com/tokyo/A1302/A130201/13163724/,居酒屋、しゃぶしゃぶ、京料理,高級和食,35.68073583,139.768705,東京都中央区八重洲1-7-10今井ビル2F,4000,4999,4000,4999
"1,0,0,0,0","3.0,0.0,0.0,0.0,0.0",411.17004616894053,1.0,61489,アズーロ,https://tabelog.com/tokyo/A1301/A130101/13012789/,イタリアン,洋食・西洋料理,35.67241722,139.7681717,東京都中央区銀座1-20-9岡崎ビル　１Ｆ,1000,1999,4000,4999
"1,0,0,0,0","3.0,0.0,0.0,0.0,0.0",724.9038205999855,1.0,61079,宮川本廛,https://tabelog.com/tokyo/A1313/A131301/13002304/,うなぎ,高級和食,35.66965028,139.7700092,東京都中央区築地1-4-6宮川本店ビル,4000,4999,5000,5999
"1,0,0,0,0","3.0,0.0,0.0,0.0,0.0",595.2917087496537,1.0,60160,maru 2F,https://tabelog.com/tokyo/A1302/A130203/13023439/,バル・バール、ワインバー,バー・お酒,35.67489333,139.7751169,東京都中央区八丁堀3-22-10２Ｆ,,,5000,5999
"1,0,0,0,0","3.0,0.0,0.0,0.0,0.0",687.1524101161936,1.0,51491,リコロ 大丸東京店,https://tabelog.com/tokyo/A1302/A130201/13046225/,鉄板焼き、ステーキ、ビストロ,洋食・西洋料理,35.68197528,139.7663194,東京都千代田区丸の内1-9-1大丸東京店12F,1000,1999,5000,5999
"1,0,0,0,0","3.0,0.0,0.0,0.0,0.0",452.6447069436916,1.0,60105,ザ テラス アーバン リゾート,https://tabelog.com/tokyo/A1301/A130101/13172996/,無国籍料理、西洋各国料理（その他）、居酒屋・ダイニングバー（その他）,創作料理・無国籍料理,35.67356913,139.7647847,東京都中央区銀座2-6-16ゼニア銀座ビル13F,,,5000,5999
"1,0,0,0,0","3.0,0.0,0.0,0.0,0.0",604.6161688676042,1.0,64226,東京ココジャスミン,https://tabelog.com/tokyo/A1302/A130203/13182866/,台湾料理、バー・お酒（その他）,バー・お酒,35.67636645,139.7753794,東京都中央区八丁堀2-22-3,0,999,3000,3999
"1,0,0,0,0","3.0,0.0,0.0,0.0,0.0",538.1327770806731,1.0,62356,銀座 菊正,https://tabelog.com/tokyo/A1301/A130101/13012780/,割烹・小料理,高級和食,35.67201632,139.7654964,東京都中央区銀座3-8-17菊正ビル,1000,1999,4000,4999
"1,0,0,0,0","3.0,0.0,0.0,0.0,0.0",598.4203693025338,1.0,61704,レストラン ワイワイ,https://tabelog.com/tokyo/A1302/A130202/13120391/,イタリアン、創作料理、ワインバー,バー・お酒,35.68139611,139.76994,東京都中央区日本橋2-3-4日本橋プラザビル2F,0,999,4000,4999
"1,0,0,0,0","3.0,0.0,0.0,0.0,0.0",644.7973516889767,1.0,61904,八重洲 福龍,https://tabelog.com/tokyo/A1302/A130202/13022398/,中華料理、居酒屋、四川料理,アジア・エスニック、中華料理,35.68189972,139.7683189,東京都中央区八重洲1-5-20石塚八重洲ビル1F・2F,0,999,5000,5999
"1,0,0,0,0","3.0,0.0,0.0,0.0,0.0",313.3951930329849,1.0,62946,北海道料理ユック 銀座店,https://tabelog.com/tokyo/A1301/A130101/13014924/,居酒屋、郷土料理（その他）、魚介料理・海鮮料理,高級和食,35.67471972,139.7656867,東京都中央区銀座1-6-5銀座BビルB1F,0,999,5000,5999
"1,0,0,0,0","3.0,0.0,0.0,0.0,0.0",324.3518513900888,1.0,61563,とめ手羽 八重洲店,https://tabelog.com/tokyo/A1302/A130202/13158578/,居酒屋、鳥料理、馬肉料理,創作料理・無国籍料理,35.67829917,139.7710653,東京都中央区京橋1-11-2八重洲MIDビルB1F,0,999,3000,3999
"1,0,0,0,0","3.0,0.0,0.0,0.0,0.0",512.4318297367357,1.0,63116,手作り料理とお酒　えん 銀座店,https://tabelog.com/tokyo/A1301/A130101/13012788/,居酒屋、創作料理、懐石・会席料理,高級和食,35.67234102,139.7654153,東京都中央区銀座3-7-3銀座オーミビル　B1Ｆ,1000,1999,3000,3999
"1,0,0,0,0","3.0,0.0,0.0,0.0,0.0",482.79241579882495,1.0,63378,牛たん 荒 八重洲店,https://tabelog.com/tokyo/A1302/A130201/13131647/,牛タン、居酒屋、定食・食堂,Ｂ級和食,35.68044806,139.7687675,東京都中央区日本橋3-3-18富士八重洲ビル　１・２F,1000,1999,4000,4999
"1,0,0,0,0","3.0,0.0,0.0,0.0,0.0",692.6827758452641,1.0,53914,宮崎料理 万作,https://tabelog.com/tokyo/A1302/A130201/13153791/,鳥料理、居酒屋、水炊き,焼肉・ホルモン・鍋,35.67990278,139.7626436,東京都千代田区丸の内2-7-2KITTE5F,1000,1999,4000,4999
"1,0,0,0,0","3.0,0.0,0.0,0.0,0.0",460.44982213714616,1.0,58494,炭火職人,https://tabelog.com/tokyo/A1302/A130201/13030664/,焼肉,焼肉・ホルモン・鍋,35.68024667,139.7686497,東京都中央区日本橋3-3-17財成ビル　B1F,0,999,5000,5999
"1,0,0,0,0","3.0,0.0,0.0,0.0,0.0",512.7919116852547,1.0,64654,菜のHana 八重洲店,https://tabelog.com/tokyo/A1302/A130201/13152698/,ダイニングバー,バー・お酒,35.68071861,139.7686733,東京都中央区八重洲1-7-10YKビルB1F,,,5000,5999
"1,0,0,0,0","3.0,0.0,0.0,0.0,0.0",207.0365963336712,1.0,58997,焼肉ビストロ 牛印 京橋エドグラン店,https://tabelog.com/tokyo/A1302/A130202/13202859/,ビストロ、焼肉,焼肉・ホルモン・鍋,35.67764701,139.7674357,東京都中央区京橋2-2-1京橋エドグランB1F,1000,1999,4000,4999
"1,0,0,0,0","3.0,0.0,0.0,0.0,0.0",607.5060915078076,1.0,61317,la radice,https://tabelog.com/tokyo/A1302/A130203/13211316/,イタリアン、バル・バール,洋食・西洋料理,35.67905417,139.7743567,東京都中央区日本橋兜町16-1第11大協ビル1Fこのお店は「文京区根津1-16-8」から移転しています。※移転前の情報は最新のものとは異なります。移転前の店舗情報を見る,0,999,4000,4999
"1,0,0,0,0","3.0,0.0,0.0,0.0,0.0",685.5108182635685,1.0,53697,京都 つる家 花陽 大丸東京店,https://tabelog.com/tokyo/A1302/A130201/13044441/,京料理、懐石・会席料理,高級和食,35.68207417,139.7667922,東京都千代田区丸の内1-9-1大丸東京店12F,2000,2999,4000,4999
"1,0,0,0,0","3.0,0.0,0.0,0.0,0.0",706.991082196885,1.0,61064,大衆酒場　日本鶏園 築地店,https://tabelog.com/tokyo/A1313/A131301/13208704/,居酒屋、もつ焼き,居酒屋,35.66973722,139.7691922,東京都中央区築地1-8-1泉ビル1Ｆ,2000,2999,3000,3999
"1,0,0,0,0","3.0,0.0,0.0,0.0,0.0",571.1312597424849,1.0,61597,東京吉兆 日本橋タカシマヤ店,https://tabelog.com/tokyo/A1302/A130202/13117403/,懐石・会席料理,高級和食,35.68069028,139.7715567,東京都中央区日本橋2-4-1日本橋タカシマヤB1F,2000,2999,4000,4999
"1,0,0,0,0","3.0,0.0,0.0,0.0,0.0",551.3981811112176,1.0,62698,焼肉KAZU,https://tabelog.com/tokyo/A1313/A131301/13089288/,焼肉、ホルモン、居酒屋,焼肉・ホルモン・鍋,35.67181611,139.7718025,東京都中央区新富2-5-2,0,999,4000,4999
"1,0,0,0,0","3.0,0.0,0.0,0.0,0.0",662.10336254489,1.0,59810,パラダイス ダイナシティ,https://tabelog.com/tokyo/A1301/A130101/13156930/,中華料理、飲茶・点心、シンガポール料理,アジア・エスニック、中華料理,35.67317111,139.762335,東京都中央区銀座3-2-15ギンザ・グラッセ1F・B1F,1000,1999,3000,3999
"1,0,0,0,0","3.0,0.0,0.0,0.0,0.0",468.43720980557424,1.0,60472,木村屋本店 東京駅八重洲J,https://tabelog.com/tokyo/A1302/A130201/13115675/,居酒屋、もつ鍋、しゃぶしゃぶ,焼肉・ホルモン・鍋,35.68030778,139.769085,東京都中央区日本橋3-3-3八重洲山川ビル1F,0,999,4000,4999
"1,0,0,0,0","3.0,0.0,0.0,0.0,0.0",639.1478516071469,1.0,64490,遊食倶楽部,https://tabelog.com/tokyo/A1301/A130101/13049917/,居酒屋、和食（その他）、洋食・欧風料理（その他）,Ｂ級和食,35.67046639,139.7672181,東京都中央区銀座3-13-6Ｂ１Ｆ,0,999,5000,5999
"1,0,0,0,0","3.0,0.0,0.0,0.0,0.0",518.7971976818574,1.0,64383,魚馳走亭 ちゃぽん 八重洲店,https://tabelog.com/tokyo/A1302/A130201/13011522/,居酒屋、魚介料理・海鮮料理,高級和食,35.68073194,139.7679528,東京都中央区八重洲1-8-3黒龍八重洲ビル　１Ｆ,0,999,4000,4999
"1,0,0,0,0","3.0,0.0,0.0,0.0,0.0",546.7851865789735,1.0,58526,和我流ダイニング 一や,https://tabelog.com/tokyo/A1302/A130201/13021377/,居酒屋、和食（その他）、創作料理,Ｂ級和食,35.68101,139.7682369,東京都中央区八重洲1-7-4ナリカワビル　１Ｆ・Ｂ１Ｆ,,,4000,4999
"1,0,0,0,0","3.0,0.0,0.0,0.0,0.0",535.7348477234401,1.0,63640,シンガポール・シーフード・リパブリック 銀座,https://tabelog.com/tokyo/A1301/A130101/13058590/,シンガポール料理、バイキング、アジア・エスニック料理（その他）,創作料理・無国籍料理,35.67427889,139.7632269,東京都中央区銀座2-2-14マロニエゲート銀座111F,1000,1999,4000,4999
"1,0,0,0,0","3.0,0.0,0.0,0.0,0.0",566.6157431202503,1.0,59561,創作居酒屋 レストラン ノア,https://tabelog.com/tokyo/A1301/A130101/13034918/,居酒屋、ピザ,居酒屋,35.67467889,139.7626964,東京都中央区銀座西2-2銀座インズ22Ｆ,0,999,3000,3999
"1,0,0,0,0","3.0,0.0,0.0,0.0,0.0",558.9035792580155,1.0,62293,個室と和食 和菜美 八重洲店,https://tabelog.com/tokyo/A1302/A130201/13114227/,居酒屋、魚介料理・海鮮料理、しゃぶしゃぶ,焼肉・ホルモン・鍋,35.68106167,139.7676644,東京都中央区八重洲1-7-17八重洲ロータリービルB1F,,,5000,5999
"1,0,0,0,0","3.0,0.0,0.0,0.0,0.0",630.5492198709258,1.0,63991,日比谷BAR WAPIRITS,https://tabelog.com/tokyo/A1301/A130101/13183496/,ダイニングバー、バル・バール、イタリアン,洋食・西洋料理,35.67276583,139.7630661,東京都中央区銀座3-3-11稲垣ビル　4Ｆ,,,4000,4999
"1,0,0,0,0","3.0,0.0,0.0,0.0,0.0",728.0835756546719,1.0,55584,オールドステーション 東京,https://tabelog.com/tokyo/A1302/A130201/13165909/,ビアホール・ビアレストラン、ステーキ、ピザ,洋食・西洋料理,35.68229444,139.7660653,東京都千代田区丸の内1-9-1京駅八重洲北口２Ｆ北町ダイニング内,0,999,3000,3999
"1,0,0,0,0","3.0,0.0,0.0,0.0,0.0",292.03755526511617,1.0,61743,回転寿司酒場 銀座沼津港,https://tabelog.com/tokyo/A1301/A130101/13174634/,回転寿司、寿司、魚介料理・海鮮料理,高級和食,35.67420417,139.7664675,東京都中央区銀座1-8-19キラリトギンザ8F,2000,2999,3000,3999
"1,0,0,0,0","3.0,0.0,0.0,0.0,0.0",721.8129024976121,1.0,53365,ぱんが 有楽町店,https://tabelog.com/tokyo/A1301/A130102/13111270/,居酒屋・ダイニングバー（その他）、洋食・欧風料理（その他）、バー・お酒（その他）,洋食・西洋料理,35.67566028,139.7607539,東京都千代田区有楽町1-11-1読売会館7F,0,999,3000,3999
"1,0,0,0,0","3.0,0.0,0.0,0.0,0.0",539.7731571364399,1.0,62078,ヴェトナム・アリス 銀座店,https://tabelog.com/tokyo/A1301/A130101/13004096/,ベトナム料理,アジア・エスニック、中華料理,35.67422667,139.763205,東京都中央区銀座2-2-14マロニエゲート11Ｆ,1000,1999,3000,3999
"1,0,0,0,0","3.0,0.0,0.0,0.0,0.0",286.78509517295834,1.0,59264,スポーツバー スポカン,https://tabelog.com/tokyo/A1302/A130201/13193783/,スポーツバー、バー、ダイニングバー,バー・お酒,35.67589583,139.7655508,東京都中央区八重洲2-10-10新八重洲ビルB1F,0,999,,
"1,0,0,0,0","3.0,0.0,0.0,0.0,0.0",512.4281959172803,1.0,63817,夢や京町しずく 八重洲店,https://tabelog.com/tokyo/A1302/A130202/13104843/,居酒屋、魚介料理・海鮮料理、鍋（その他）,高級和食,35.68071083,139.7689614,東京都中央区日本橋3-2-17日伸ビル2F,5000,5999,4000,4999
"1,0,0,0,0","3.0,0.0,0.0,0.0,0.0",505.616706380887,1.0,50233,川上,https://tabelog.com/tokyo/A1301/A130102/13137023/,もつ焼き、居酒屋,居酒屋,35.67735139,139.7633397,東京都千代田区丸の内3-7-3,,,3000,3999
"1,0,0,0,0","3.0,0.0,0.0,0.0,0.0",359.8976662432233,1.0,61004,銀座イタリー亭,https://tabelog.com/tokyo/A1301/A130101/13002469/,イタリアン、パスタ、ピザ,洋食・西洋料理,35.67439917,139.7653217,東京都中央区銀座1-6-8第２上一ビルディング1F・B1F,1000,1999,5000,5999
"1,0,0,0,0","3.0,0.0,0.0,0.0,0.0",260.00951838474236,1.0,64155,ブラッスリー ドンピエール,https://tabelog.com/tokyo/A1301/A130101/13014922/,ビストロ、西洋各国料理（その他）、バル・バール,洋食・西洋料理,35.67406556,139.7672772,東京都中央区銀座1-10-19銀座一ビルヂング　１Ｆ,1000,1999,5000,5999
"1,0,0,0,0","3.0,0.0,0.0,0.0,0.0",693.709449854431,1.0,64760,トラットリア　ガルガ,https://tabelog.com/tokyo/A1301/A130101/13115837/,イタリアン、バル・バール、ワインバー,バー・お酒,35.67137167,139.7636914,東京都中央区銀座4-6-16銀座三越11F,2000,2999,4000,4999
"1,0,0,0,0","3.0,0.0,0.0,0.0,0.0",680.7078338178652,1.0,61766,いけ増 日本橋店,https://tabelog.com/tokyo/A1302/A130202/13046393/,割烹・小料理、和食（その他）,高級和食,35.68200278,139.7707456,東京都中央区日本橋2-2-6,0,999,4000,4999
"1,0,0,0,0","3.0,0.0,0.0,0.0,0.0",733.0587504781607,1.0,62757,もつ鍋 一慶 八丁堀店,https://tabelog.com/tokyo/A1302/A130203/13041250/,もつ鍋,焼肉・ホルモン・鍋,35.67533111,139.7767517,東京都中央区八丁堀2-29-7西野ビル　1F,1000,1999,5000,5999
"1,0,0,0,0","3.0,0.0,0.0,0.0,0.0",616.6903581211118,1.0,51153,MUCHO　－MODERN MEXICANO－,https://tabelog.com/tokyo/A1302/A130201/13116767/,メキシコ料理、中南米料理（その他）、バー,バー・お酒,35.67857444,139.7626111,東京都千代田区丸の内2-7-3東京ビルTOKIA2F,1000,1999,3000,3999
"1,0,0,0,0","3.0,0.0,0.0,0.0,0.0",619.8798854803092,1.0,64755,素材屋 八重洲店,https://tabelog.com/tokyo/A1302/A130201/13041795/,居酒屋、郷土料理（その他）、創作料理,高級和食,35.68163139,139.7696453,東京都中央区日本橋2-3-21八重洲セントラルビルB1,0,999,3000,3999
"1,0,0,0,0","3.0,0.0,0.0,0.0,0.0",614.2540239940337,1.0,60090,アロヒディン 日本橋店,https://tabelog.com/tokyo/A1302/A130202/13182537/,トルコ料理、ロシア料理、西洋各国料理（その他）,洋食・西洋料理,35.68000139,139.7735194,東京都中央区日本橋2-16-4日本橋山田ビル1F,0,999,4000,4999
"1,0,0,0,0","3.0,0.0,0.0,0.0,0.0",699.4433655061189,1.0,51882,信州松本ヒカリヤ,https://tabelog.com/tokyo/A1302/A130201/13153699/,和食（その他）、郷土料理（その他）,Ｂ級和食,35.67967146,139.7623449,東京都千代田区丸の内2-7-2JPタワー丸の内店5F,1000,1999,3000,3999
"1,0,0,0,0","3.0,0.0,0.0,0.0,0.0",292.03755526511617,1.0,58521,トラットリア デル パチョッコーネ 銀座,https://tabelog.com/tokyo/A1301/A130101/13174749/,ピザ、イタリアン,洋食・西洋料理,35.67420417,139.7664675,東京都中央区銀座1-8-19キラリトギンザ7F,1000,1999,4000,4999
"1,0,0,0,0","3.0,0.0,0.0,0.0,0.0",623.2374520677873,1.0,60854,スクンビット・ソイ・トンロー 東京八重洲店,https://tabelog.com/tokyo/A1302/A130201/13102973/,タイ料理、タイカレー、居酒屋,居酒屋,35.6817125,139.7685433,東京都中央区八重洲1-5-17八重洲香川ビル　Ｂ１Ｆ,0,999,3000,3999
"1,0,0,0,0","3.0,0.0,0.0,0.0,0.0",278.21723038462073,1.0,64795,重慶府 八重洲,https://tabelog.com/tokyo/A1302/A130202/13033944/,四川料理、飲茶・点心、居酒屋,アジア・エスニック、中華料理,35.67777444,139.7664247,東京都中央区八重洲2-6-5八重洲玉の玉ビル　Ｂ１Ｆ,0,999,4000,4999
"1,0,0,0,0","3.0,0.0,0.0,0.0,0.0",609.2402419504306,1.0,61725,テルミニ,https://tabelog.com/tokyo/A1301/A130101/13114703/,イタリアン、居酒屋・ダイニングバー（その他）、ワインバー,バー・お酒,35.67087223,139.7666391,東京都中央区銀座3-11-6鈴木ビル1F,5000,5999,5000,5999
"1,0,0,0,0","3.0,0.0,0.0,0.0,0.0",680.9004533569612,1.0,62358,Osteria Pizzeria PRIMO,https://tabelog.com/tokyo/A1302/A130203/13151208/,イタリアン、ピザ、パスタ,洋食・西洋料理,35.67473194,139.7760417,東京都中央区八丁堀3-25-8伊海田ビル1F,1000,1999,4000,4999
"1,0,0,0,0","3.0,0.0,0.0,0.0,0.0",542.4531150249821,1.0,51119,山形酒菜一,https://tabelog.com/tokyo/A1302/A130201/13160408/,和食（その他）、日本酒バー、郷土料理（その他）,Ｂ級和食,35.68047405,139.7660395,東京都千代田区丸の内1-9-1グランルーフB1F,1000,1999,3000,3999
"1,0,0,0,0","3.0,0.0,0.0,0.0,0.0",745.2595845549046,1.0,58424,博多ホルモン 一慶 東京築地店,https://tabelog.com/tokyo/A1313/A131301/13113932/,鍋（その他）,焼肉・ホルモン・鍋,35.66967903,139.7711374,東京都中央区築地2-6-2カルム築地　102,,,3000,3999
"1,0,0,0,0","3.0,0.0,0.0,0.0,0.0",744.6189024245415,1.0,63666,松はな,https://tabelog.com/tokyo/A1302/A130203/13028561/,居酒屋、割烹・小料理、日本酒バー,高級和食,35.67969,139.7756561,東京都中央区日本橋茅場町2-1-11ビルックス茅場町　１Ｆ,1000,1999,4000,4999
"1,0,0,0,0","3.0,0.0,0.0,0.0,0.0",656.840288398117,1.0,60832,越後宝山 日本橋店,https://tabelog.com/tokyo/A1302/A130202/13098699/,居酒屋,居酒屋,35.68187417,139.7702931,東京都中央区日本橋2-2-15テイトビルＢ１,,,3000,3999
"1,0,0,0,0","3.0,0.0,0.0,0.0,0.0",711.5773320121544,1.0,60075,Bar Lamp,https://tabelog.com/tokyo/A1301/A130101/13014887/,バー,バー・お酒,35.67221778,139.76245,東京都中央区銀座4-3-7銀座猿谷ビル　４・５Ｆ,,,5000,5999
"1,0,0,0,0","3.0,0.0,0.0,0.0,0.0",577.8631747949627,1.0,64899,串粋 八重洲店,https://tabelog.com/tokyo/A1302/A130201/13011501/,串焼き、居酒屋,居酒屋,35.68129472,139.7683047,東京都中央区八重洲1-6-15登代田ビル　Ｂ１Ｆ,0,999,5000,5999
"1,0,0,0,0","3.0,0.0,0.0,0.0,0.0",585.7167138706975,1.0,61136,秀宴,https://tabelog.com/tokyo/A1302/A130201/13108611/,中華料理、居酒屋、中国鍋・火鍋,焼肉・ホルモン・鍋,35.68136222,139.7682425,東京都中央区八重洲1-6-15キングビルB1F・1F,0,999,3000,3999
"1,0,0,0,0","3.0,0.0,0.0,0.0,0.0",417.40475383231416,1.0,60277,笑笑 八重洲中央口駅前店,https://tabelog.com/tokyo/A1302/A130201/13073227/,居酒屋、魚介料理・海鮮料理、創作料理,高級和食,35.67974556,139.7675853,東京都中央区八重洲2-1-4東京駅前八重洲ビル　８Ｆ,,,3000,3999
"1,0,0,0,0","3.0,0.0,0.0,0.0,0.0",516.1310050879879,1.0,61664,やえす初藤,https://tabelog.com/tokyo/A1302/A130201/13021045/,居酒屋、和食（その他）,Ｂ級和食,35.68063418,139.7674512,東京都中央区八重洲2-1八重洲地下街北1号,0,999,3000,3999
"1,0,0,0,0","3.0,0.0,0.0,0.0,0.0",575.1999884969393,1.0,58701,韓豚屋 銀座三丁目店,https://tabelog.com/tokyo/A1301/A130101/13032379/,居酒屋、韓国料理、焼肉,焼肉・ホルモン・鍋,35.67290778,139.7637,東京都中央区銀座3-4-6正隆銀座ビル　２Ｆ,1000,1999,3000,3999
"1,0,0,0,0","3.0,0.0,0.0,0.0,0.0",89.1291412487393,1.0,58814,園林閣,https://tabelog.com/tokyo/A1302/A130202/13007733/,広東料理、中華料理、餃子,アジア・エスニック、中華料理,35.67687568,139.7689509,東京都中央区京橋2-7-15亜細亜ビル　１Ｆ,0,999,3000,3999
"1,0,0,0,0","3.0,0.0,0.0,0.0,0.0",435.88722112955656,1.0,64816,貝焼き祥音,https://tabelog.com/tokyo/A1302/A130203/13027790/,居酒屋,居酒屋,35.6756325,139.77349,東京都中央区八丁堀3-15-11洋邦ビル2F,0,999,4000,4999
"1,0,0,0,0","3.0,0.0,0.0,0.0,0.0",406.8771710051404,1.0,58764,UOKIN PICCOLO 銀座店,https://tabelog.com/tokyo/A1301/A130101/13143653/,イタリアン、魚介料理・海鮮料理、バル・バール,高級和食,35.67524556,139.7643375,東京都中央区銀座1-3-6銀座ベラメンテ１Ｆ・B1F,3000,3999,3000,3999
"1,0,0,0,0","3.0,0.0,0.0,0.0,0.0",139.10406055662108,1.0,60385,ブルーパパイアタイランド 京橋エドグラン店,https://tabelog.com/tokyo/A1302/A130202/13202740/,タイ料理、ダイニングバー、アジア・エスニック料理（その他）,バー・お酒,35.67712611,139.7678314,東京都中央区京橋2-2-1京橋エドグランB1F,1000,1999,3000,3999
"1,0,0,0,0","3.0,0.0,0.0,0.0,0.0",430.52807302609614,1.0,51538,沌 丸の内ＰＣＰ店,https://tabelog.com/tokyo/A1302/A130201/13011028/,タイ料理、アジア・エスニック料理（その他）,アジア・エスニック、中華料理,35.67813235,139.7646601,東京都千代田区丸の内1-11-1パシフィック・センチュリー・プレイス丸の内　Ｂ１Ｆ,1000,1999,4000,4999
"1,0,0,0,0","3.0,0.0,0.0,0.0,0.0",481.3644607079385,1.0,62539,帆絵夢,https://tabelog.com/tokyo/A1302/A130201/13039393/,お好み焼き、もんじゃ焼き,Ｂ級和食,35.68042028,139.7682647,東京都中央区八重洲1-8-11,,,3000,3999
"1,0,0,0,0","3.0,0.0,0.0,0.0,0.0",253.61174897436766,1.0,59975,龍記 京橋店,https://tabelog.com/tokyo/A1302/A130202/13172272/,居酒屋、中華料理,アジア・エスニック、中華料理,35.67560943,139.7659721,東京都中央区京橋3-3-13平和ビル3号館2F,0,999,4000,4999
"1,0,0,0,0","3.0,0.0,0.0,0.0,0.0",550.3692294922661,1.0,61579,目分量,https://tabelog.com/tokyo/A1302/A130203/13159343/,ダイニングバー、バー・お酒（その他）,バー・お酒,35.67605222,139.7747881,東京都中央区八丁堀2-21-11エコアクワイエ,,,3000,3999
"1,0.5,0,0,1","3.0,3.0,0.0,0.0,3.0",709.4678239600022,0.962250448649,63379,雛,https://tabelog.com/tokyo/A1302/A130203/13106369/,居酒屋,居酒屋,35.67278278,139.7754108,東京都中央区入船1-5-4,,,3000,3999
"1,0.5,0,0,1","3.0,3.0,0.0,0.0,3.0",246.17960810543264,0.962250448649,60531,京橋 かよう亭,https://tabelog.com/tokyo/A1301/A130101/13110838/,居酒屋,居酒屋,35.67557753,139.7660653,東京都中央区京橋3-3-12山京ビル　Ｂ１Ｆ,0,999,,
"1,0.5,0,0,1","3.0,3.0,0.0,0.0,3.0",708.3596379532123,0.962250448649,61126,根室食堂 八重洲店,https://tabelog.com/tokyo/A1302/A130201/13160435/,居酒屋,居酒屋,35.68242103,139.7697818,東京都中央区八重洲1-4-7石井ビル1F,0,999,3000,3999
"1,0.5,0,0,1","3.0,3.0,0.0,0.0,3.0",623.2887163980761,0.962250448649,62550,八丁堀 はんや,https://tabelog.com/tokyo/A1302/A130203/13132400/,和食（その他）、おでん、居酒屋,Ｂ級和食,35.67323556,139.7746336,東京都中央区入船1-2-5,,,3000,3999
"1,0.5,0,0,1","3.0,3.0,0.0,0.0,3.0",933.016750983971,0.962250448649,62120,日本橋 うお･希,https://tabelog.com/tokyo/A1302/A130203/13204493/,居酒屋、魚介料理・海鮮料理、おでん,高級和食,35.67887361,139.7784372,東京都中央区日本橋茅場町2-14-7,0,999,,
"1,0.5,0,0,1","3.0,3.0,0.0,0.0,3.0",619.971633031078,0.962250448649,58739,和風居酒屋 昇,https://tabelog.com/tokyo/A1302/A130203/13184926/,居酒屋、焼鳥、もつ鍋,居酒屋,35.67744028,139.7753564,東京都中央区八丁堀1-8-6カサイビルB1F,0,999,,
"1,0.5,0,0,1","3.0,3.0,0.0,0.0,3.0",203.22992073698364,0.962250448649,60621,焼き鳥　つくね 京橋店,https://tabelog.com/tokyo/A1302/A130202/13142142/,焼鳥,Ｂ級和食,35.67771919,139.7697515,東京都中央区京橋1-6-6金葉ビル別館1F,0,999,3000,3999
"1,0.5,0,0,1","3.0,3.0,0.0,0.0,3.0",969.2918736515757,0.962250448649,55219,イタリアンバル　オッタ,https://tabelog.com/tokyo/A1301/A130102/13203046/,イタリアン、バル・バール、ワインバー,洋食・西洋料理,35.67333139,139.7585531,東京都千代田区有楽町1-3-82F,,,,
"1,0.5,0,0,1","3.0,3.0,0.0,0.0,3.0",316.96850297036934,0.962250448649,61378,加賀屋 東京駅前店,https://tabelog.com/tokyo/A1302/A130202/13050800/,居酒屋、もつ焼き、魚介料理・海鮮料理,高級和食,35.67868806,139.7672344,東京都中央区八重洲2-3-7,0,999,3000,3999
"1,0.5,0,0,1","3.0,3.0,0.0,0.0,3.0",687.102594873701,0.962250448649,64669,日本橋 箱根,https://tabelog.com/tokyo/A1302/A130202/13043913/,居酒屋、和食（その他）,Ｂ級和食,35.68216861,139.7702028,東京都中央区日本橋2-2-3リッシュビル１階,0,999,3000,3999
"1,0.5,0,0,1","3.0,3.0,0.0,0.0,3.0",721.5240800703375,0.962250448649,62003,かめ幸,https://tabelog.com/tokyo/A1301/A130101/13002319/,おでん、居酒屋,Ｂ級和食,35.67026262,139.7651892,東京都中央区銀座4-10-6銀座ビル　Ｂ１Ｆ,,,4000,4999
"1,0.5,0,0,1","3.0,3.0,0.0,0.0,3.0",459.01485951915794,0.962250448649,60337,サニーズ,https://tabelog.com/tokyo/A1302/A130201/13061281/,居酒屋、定食・食堂,居酒屋,35.679455,139.7657475,東京都中央区八重洲2-1八重洲地下街南1号外堀地下1番通り,0,999,3000,3999
"1,0.5,0,0,1","3.0,3.0,0.0,0.0,3.0",603.5028276056469,0.962250448649,62644,孝峯,https://tabelog.com/tokyo/A1301/A130101/13038033/,バー,バー・お酒,35.67081797,139.7671029,東京都中央区銀座3-12-5アサショウビル　１Ｆ,,,3000,3999
"1,0.5,0,0,1","3.0,3.0,0.0,0.0,3.0",942.7230077553169,0.962250448649,61482,銀座 たちばな,https://tabelog.com/tokyo/A1301/A130101/13033556/,魚介料理・海鮮料理、居酒屋,高級和食,35.66927028,139.7625097,東京都中央区銀座6-12-15西山ビル1F,0,999,4000,4999
"1,0.5,0,0,1","3.0,3.0,0.0,0.0,3.0",613.8737626952122,0.962250448649,59482,トミー＆ケイ,https://tabelog.com/tokyo/A1301/A130102/13163090/,串揚げ・串かつ、割烹・小料理,高級和食,35.67161923,139.7647263,東京都中央区銀座3-7-13成田屋ビル2F,1000,1999,5000,5999
"1,0.5,0,0,1","3.0,3.0,0.0,0.0,3.0",543.2792853244955,0.962250448649,59016,Bar Quina,https://tabelog.com/tokyo/A1301/A130101/13090914/,バー,バー・お酒,35.67226917,139.7649669,東京都中央区銀座3-7-20徳永ビル　Ｂ１Ｆ,,,4000,4999
"1,0.5,0,0,1","3.0,3.0,0.0,0.0,3.0",351.3332641801073,0.962250448649,61401,RINN’S CAFE DINING Full Full Range 八丁堀店,https://tabelog.com/tokyo/A1302/A130202/13174876/,インドカレー、バー、ダイニングバー,バー・お酒,35.67605111,139.7725894,東京都中央区八丁堀3-7-7原田ビル1F,0,999,,
"1,0.5,0,0,1","3.0,3.0,0.0,0.0,3.0",881.3709683141365,0.962250448649,51096,八吉酒場 有楽町店,https://tabelog.com/tokyo/A1301/A130102/13183356/,居酒屋、魚介料理・海鮮料理,高級和食,35.67319688,139.7596456,東京都千代田区有楽町2-3-6九重会館8F,,,3000,3999
"1,0.5,0,0,1","3.0,3.0,0.0,0.0,3.0",654.2235464505479,0.962250448649,61603,さくら家,https://tabelog.com/tokyo/A1313/A131301/13002396/,焼鳥,Ｂ級和食,35.67198889,139.7738928,東京都中央区入船2-2-1,,,3000,3999
"1,0.5,0,0,1","3.0,3.0,0.0,0.0,3.0",659.5395436359697,0.962250448649,59958,日本橋 鳥久,https://tabelog.com/tokyo/A1302/A130203/13191346/,焼鳥,Ｂ級和食,35.67761917,139.7757514,東京都中央区日本橋茅場町3-8-10リベラ茅場町ビルB1F,0,999,4000,4999
"1,0.5,0,0,1","3.0,3.0,0.0,0.0,3.0",704.4256614265651,0.962250448649,64318,すし屋の健太,https://tabelog.com/tokyo/A1313/A131302/13145470/,寿司、魚介料理・海鮮料理,高級和食,35.67249714,139.7751182,東京都中央区入船1-4-8ネオ・アージュ八丁堀1F,0,999,5000,5999
"1,0.5,0,0,1","3.0,3.0,0.0,0.0,3.0",563.73529890434,0.962250448649,63786,バー・エバンス,https://tabelog.com/tokyo/A1301/A130101/13039892/,バー,バー・お酒,35.67181802,139.7653515,東京都中央区銀座3-8-15ＡＰＡ銀座中央ビル　Ｂ１Ｆ,,,3000,3999
"1,0.5,0,0,1","3.0,3.0,0.0,0.0,3.0",726.3058565902228,0.962250448649,59660,22,https://tabelog.com/tokyo/A1301/A130101/13128845/,ビストロ、ワインバー,バー・お酒,35.67227917,139.7621922,東京都中央区銀座4-3-12銀座伊藤ビル2F,,,3000,3999
"1,0.5,0,0,1","3.0,3.0,0.0,0.0,3.0",795.7056161535638,0.962250448649,61092,カフェ・カボサンルーカス,https://tabelog.com/tokyo/A1313/A131301/13031497/,ダイニングバー、メキシコ料理、バー,バー・お酒,35.66903056,139.7702083,東京都中央区築地2-11-3,,,3000,3999
"1,0.5,0,0,1","3.0,3.0,0.0,0.0,3.0",546.7297992826878,0.962250448649,63721,魚や 旬,https://tabelog.com/tokyo/A1301/A130101/13032753/,魚介料理・海鮮料理,高級和食,35.67492167,139.7628442,東京都中央区銀座西2-2銀座インズ22Ｆ,0,999,4000,4999
"1,0.5,0,0,1","3.0,3.0,0.0,0.0,3.0",932.0190600417337,0.962250448649,54081,やきとん ふじ嶋 有楽町店,https://tabelog.com/tokyo/A1301/A130102/13212574/,居酒屋、もつ鍋、ホルモン,焼肉・ホルモン・鍋,35.67304667,139.7591169,東京都千代田区有楽町2-3-1福石ビル2Ｆ,,,,
"1,0.5,0,0,1","3.0,3.0,0.0,0.0,3.0",886.6460512017884,0.962250448649,54287,季立,https://tabelog.com/tokyo/A1301/A130101/13015060/,バー,バー・お酒,35.67319278,139.759585,東京都千代田区有楽町2-3-6マスヤビル　Ｂ１Ｆ,,,3000,3999
"1,0.5,0,0,1","3.0,3.0,0.0,0.0,3.0",993.9823227491736,0.962250448649,61491,NOGGI,https://tabelog.com/tokyo/A1301/A130101/13093400/,バー,バー・お酒,35.67015861,139.7604886,東京都中央区銀座7-8-1丸吉ビル　Ｂ1Ｆ,0,999,3000,3999
"1,0.5,0,0,1","3.0,3.0,0.0,0.0,3.0",834.8351766307953,0.962250448649,58898,菜香苑 日本橋店,https://tabelog.com/tokyo/A1302/A130202/13114234/,中華料理、餃子、バイキング,創作料理・無国籍料理,35.68294934,139.7725182,東京都中央区日本橋1-5-9,0,999,3000,3999
"1,0.5,0,0,1","3.0,3.0,0.0,0.0,3.0",78.94042496903833,0.962250448649,62253,Halco,https://tabelog.com/tokyo/A1302/A130201/13158959/,ワインバー、バー、バー・お酒（その他）,バー・お酒,35.67600531,139.7695737,東京都中央区京橋2-12-2京橋三貴ビル1F,,,3000,3999
"1,0.5,0,0,1","3.0,3.0,0.0,0.0,3.0",469.0711354692072,0.962250448649,62348,豆乳豚しゃぶ 五元豚,https://tabelog.com/tokyo/A1301/A130101/13091451/,しゃぶしゃぶ,焼肉・ホルモン・鍋,35.67401889,139.7641969,東京都中央区銀座2-4-6銀座ベルビア館7Ｆ,1000,1999,5000,5999
"1,0.5,0,0,1","3.0,3.0,0.0,0.0,3.0",661.9943423634867,0.962250448649,59843,御座候,https://tabelog.com/tokyo/A1301/A130101/13081819/,お好み焼き、もんじゃ焼き,Ｂ級和食,35.67109563,139.7647218,東京都中央区銀座4-8-13銀座蟹睦会館ビル　1F,,,3000,3999
"1,0.5,0,0,1","3.0,3.0,0.0,0.0,3.0",459.1409403418665,0.962250448649,59616,串かつ でんがな 八重洲店,https://tabelog.com/tokyo/A1302/A130201/13205301/,居酒屋、串揚げ・串かつ、和食（その他）,Ｂ級和食,35.68023444,139.7686147,東京都中央区日本橋3-3-17財成八重洲ビル1F,0,999,3000,3999
"1,0.5,0,0,1","3.0,3.0,0.0,0.0,3.0",601.1383017230492,0.962250448649,61977,Wine & Bar a.c.e.,https://tabelog.com/tokyo/A1301/A130101/13099428/,ワインバー、バー、洋食・欧風料理（その他）,バー・お酒,35.67093203,139.7667037,東京都中央区銀座3-11-6鈴木ビル　１Ｆ　,,,3000,3999
"1,0.5,0,0,1","3.0,3.0,0.0,0.0,3.0",600.4263604195459,0.962250448649,62129,銀座 IN 沖縄 いいあんべぇ,https://tabelog.com/tokyo/A1301/A130102/13014899/,沖縄料理,高級和食,35.67436056,139.7624275,東京都中央区銀座西2-2銀座インズ2B1F,0,999,3000,3999
"1,0.5,0,0,1","3.0,3.0,0.0,0.0,3.0",972.7218441060666,0.962250448649,62673,銀座しゃぶ通,https://tabelog.com/tokyo/A1301/A130101/13007813/,しゃぶしゃぶ、居酒屋、ダイニングバー,焼肉・ホルモン・鍋,35.66997722,139.7610156,東京都中央区銀座6-9-15鳥繁ビル　Ｂ１Ｆ,1000,1999,3000,3999
"1,0.5,0,0,1","3.0,3.0,0.0,0.0,3.0",539.1662730795273,0.962250448649,64776,いわし処田中,https://tabelog.com/tokyo/A1302/A130201/13074316/,魚介料理・海鮮料理、居酒屋,高級和食,35.68092466,139.7680293,東京都中央区八重洲1丁目7-15,0,999,3000,3999
"1,0.5,0,0,1","3.0,3.0,0.0,0.0,3.0",723.0752572015572,0.962250448649,61924,八丁堀右門,https://tabelog.com/tokyo/A1302/A130203/13064566/,焼鳥,Ｂ級和食,35.67491667,139.7765639,東京都中央区八丁堀3-26-10,0,999,3000,3999
"1,0.5,0,0,1","3.0,3.0,0.0,0.0,3.0",978.4942555848952,0.962250448649,64824,Bar.R,https://tabelog.com/tokyo/A1301/A130101/13002543/,バー,バー・お酒,35.67106361,139.7598342,東京都中央区銀座6-5-14銀座能楽堂ビル別館6F,,,4000,4999
"1,0.5,0,0,1","3.0,3.0,0.0,0.0,3.0",983.2625190008956,0.962250448649,64566,やきとりホルモン とりとん,https://tabelog.com/tokyo/A1302/A130203/13201103/,居酒屋、焼鳥、焼きとん,Ｂ級和食,35.67718417,139.7794881,東京都中央区新川1-6-7サイトウビル1F・2Fこのお店は「中央区勝どき5-4-10」から移転しています。※移転前の情報は最新のものとは異なります。移転前の店舗情報を見る,0,999,,
"1,0.5,0,0,1","3.0,0.0,0.0,0.0,3.0",599.1570582574951,0.942809041582,61216,天一 日本橋高島屋店,https://tabelog.com/tokyo/A1302/A130202/13035168/,天ぷら,高級和食,35.68060667,139.7723497,東京都中央区日本橋2-11-1タカシマヤ東京店新館8F,2000,2999,5000,5999
"1,0.5,0,0,1","3.0,0.0,0.0,0.0,3.0",79.89531389732538,0.942809041582,62672,アリスアクアガーデン トウキョウ 銀座店,https://tabelog.com/tokyo/A1302/A130201/13159258/,レストラン（その他）,創作料理・無国籍料理,35.67568361,139.7679864,東京都中央区京橋3-7-1京橋相互館110タワーＢ1Ｆ,1000,1999,4000,4999
"1,0.5,0,0,1","3.0,0.0,0.0,0.0,3.0",771.5033908314094,0.942809041582,52616,沼津魚がし鮨 東京駅店,https://tabelog.com/tokyo/A1302/A130201/13040942/,寿司,高級和食,35.68257917,139.765625,東京都千代田区丸の内1-9-1東京駅　改札外1Fキッチンストリート,1000,1999,3000,3999
"1,0.5,0,0,1","3.0,0.0,0.0,0.0,3.0",152.00006544246745,0.942809041582,61084,BEEF UP TOKYO charcoal grill & bar,https://tabelog.com/tokyo/A1302/A130202/13036705/,ステーキ、ワインバー、鉄板焼き,洋食・西洋料理,35.67539611,139.7672664,東京都中央区京橋3-6-18東京建物京橋ビル　B1,1000,1999,,
"1,0.5,0,0,1","3.0,0.0,0.0,0.0,3.0",375.99067249029105,0.942809041582,65063,中華・香港居酒屋 龍記 東京・八重洲店,https://tabelog.com/tokyo/A1302/A130201/13209518/,居酒屋、中華料理,居酒屋,35.67937139,139.7676392,東京都中央区京橋1-4-13初音ビル,,,3000,3999
"1,0.5,0,0,1","3.0,0.0,0.0,0.0,3.0",674.7248003093721,0.942809041582,52406,銀座ライオン LEO TEKKO avenue店,https://tabelog.com/tokyo/A1302/A130201/13188531/,洋食,洋食・西洋料理,35.6820625,139.7672622,東京都千代田区丸の内1-8-2,1000,1999,3000,3999
"1,0.5,0,0,1","3.0,0.0,0.0,0.0,3.0",250.43709202810157,0.942809041582,61516,和どころ いちふじ,https://tabelog.com/tokyo/A1301/A130101/13203352/,割烹・小料理,高級和食,35.67424556,139.7671267,東京都中央区銀座1-9-5池田ビルB1F,,,3000,3999
"1,0.5,0,0,1","3.0,0.0,0.0,0.0,3.0",849.4794864743985,0.942809041582,54239,串揚げとワインのお店 SABOTEN BAR,https://tabelog.com/tokyo/A1302/A130201/13208940/,串揚げ・串かつ、居酒屋、ダイニングバー,Ｂ級和食,35.67922667,139.7601453,東京都千代田区丸の内2-1-1丸の内マイプラザB2F,0,999,,
"1,0.5,0,0,1","3.0,0.0,0.0,0.0,3.0",461.83403692835094,0.942809041582,63484,ビストロ石川亭 銀座店,https://tabelog.com/tokyo/A1301/A130101/13197435/,ビストロ、フレンチ,洋食・西洋料理,35.67411306,139.7642244,東京都中央区銀座2-4-6銀座ベルビア館8F,1000,1999,3000,3999
"1,0.5,0,0,1","3.0,0.0,0.0,0.0,3.0",893.2298678568384,0.942809041582,61868,仙臺牛たん 撰 利久 東急プラザ銀座店,https://tabelog.com/tokyo/A1301/A130101/13193964/,牛タン、創作料理,創作料理・無国籍料理,35.67204923,139.7601805,東京都中央区銀座5-2-1東急プラザ銀座10FGINMACHIDINING,2000,2999,3000,3999
"1,0.5,0,0,1","3.0,0.0,0.0,0.0,3.0",599.4128431587465,0.942809041582,54178,后バー有楽,https://tabelog.com/tokyo/A1301/A130102/13169760/,日本酒バー,バー・お酒,35.67501028,139.7622233,東京都千代田区有楽町2-10-1東京交通会館ビルB1F,,,3000,3999
"1,0.5,0,0,1","3.0,0.0,0.0,0.0,3.0",418.3739276692582,0.942809041582,62719,一番どり 八重洲口店,https://tabelog.com/tokyo/A1302/A130201/13058789/,居酒屋、串焼き,居酒屋,35.67977778,139.7677056,東京都中央区八重洲2-1-4松勇八重洲ビル　Ｂ１Ｆ,0,999,3000,3999
"1,0.5,0,0,1","3.0,0.0,0.0,0.0,3.0",603.7030560482709,0.942809041582,64753,銀座 鳥松,https://tabelog.com/tokyo/A1301/A130101/13032757/,焼鳥,Ｂ級和食,35.67081111,139.7671278,東京都中央区銀座3-12-5ファーストビル　Ｂ１Ｆ,,,4000,4999
"1,0.5,0,0,1","3.0,0.0,0.0,0.0,3.0",950.5161638497898,0.942809041582,64913,だいにんぐ居酒屋　うめきち,https://tabelog.com/tokyo/A1302/A130203/13085215/,和食（その他）,Ｂ級和食,35.68108611,139.7772444,東京都中央区日本橋茅場町1-5-2日原ビルB1F,,,3000,3999
"1,0.5,0,0,1","3.0,0.0,0.0,0.0,3.0",136.29634081444817,0.942809041582,60724,酒蔵駒忠 京橋三丁目店,https://tabelog.com/tokyo/A1302/A130202/13075670/,居酒屋,居酒屋,35.67487417,139.7685656,東京都中央区京橋3-9-9,,,3000,3999
"1,0.5,0,0,1","3.0,0.0,0.0,0.0,3.0",541.0180742595657,0.942809041582,59262,しらゆき,https://tabelog.com/tokyo/A1313/A131301/13126945/,うなぎ、焼鳥、居酒屋,高級和食,35.67291222,139.7732342,東京都中央区新富1丁目15-3,1000,1999,3000,3999
"1,0.5,0,0,1","3.0,0.0,0.0,0.0,3.0",627.8476245605746,0.942809041582,61686,ねのひ 本店,https://tabelog.com/tokyo/A1301/A130101/13073082/,焼鳥、居酒屋,居酒屋,35.67054944,139.7673414,東京都中央区銀座3-13-5,0,999,3000,3999
"1,0.5,0,0,1","3.0,0.0,0.0,0.0,3.0",956.1501985939062,0.942809041582,64433,だるま,https://tabelog.com/tokyo/A1302/A130203/13157481/,お好み焼き、ホルモン,焼肉・ホルモン・鍋,35.67536056,139.7792319,東京都中央区新川2-12-13永峯ビル1F,0,999,4000,4999
"1,0.5,0,0,1","3.0,0.0,0.0,0.0,3.0",445.6204767524813,0.942809041582,64289,shiokara,https://tabelog.com/tokyo/A1301/A130101/13002280/,バー、割烹・小料理,高級和食,35.673075,139.7654669,東京都中央区銀座2-7-7銀座ロビービル　Ｂ１Ｆ,,,4000,4999
"1,0.5,0,0,1","3.0,0.0,0.0,0.0,3.0",846.5813317261354,0.942809041582,63124,日本酒バル のまえ,https://tabelog.com/tokyo/A1301/A130101/13193852/,京料理、日本酒バー、魚介料理・海鮮料理,高級和食,35.67236139,139.7605553,東京都中央区銀座5-2-1東急プラザ銀座11F,2000,2999,4000,4999
"1,0.5,0,0,1","3.0,0.0,0.0,0.0,3.0",934.1749578859105,0.942809041582,50594,キャンベルタウン・ロッホ,https://tabelog.com/tokyo/A1301/A130102/13014709/,バー,バー・お酒,35.67359251,139.7588574,東京都千代田区有楽町1-6-8松井ビル　Ｂ１Ｆ,5000,5999,4000,4999
"1,0.5,0,0,1","3.0,0.0,0.0,0.0,3.0",584.9023316214739,0.942809041582,65006,春帆楼 日本橋高島屋店,https://tabelog.com/tokyo/A1302/A130202/13010977/,ふぐ、寿司、魚介料理・海鮮料理,高級和食,35.68093083,139.7712869,東京都中央区日本橋2-4-1日本橋タカシマヤB1F,2000,2999,3000,3999
"1,0.5,0,0,1","3.0,0.0,0.0,0.0,3.0",498.6689142767688,0.942809041582,59465,かく山,https://tabelog.com/tokyo/A1302/A130203/13056498/,居酒屋、定食・食堂,居酒屋,35.676045,139.7742169,東京都中央区八丁堀2丁目18-7,0,999,3000,3999
"1,0.5,0,0,1","3.0,0.0,0.0,0.0,3.0",541.2065030725461,0.942809041582,61330,鳥やき 宮川,https://tabelog.com/tokyo/A1302/A130201/13042187/,焼鳥,Ｂ級和食,35.68093188,139.7679177,東京都中央区八重洲1丁目7-3,3000,3999,3000,3999
"1,0.5,0,0,1","3.0,0.0,0.0,0.0,3.0",938.1624776591384,0.942809041582,50725,まつ惣,https://tabelog.com/tokyo/A1301/A130102/13022708/,居酒屋,居酒屋,35.67310167,139.7590183,東京都千代田区有楽町2-1-20,,,3000,3999
"1,0.5,0,0,1","3.0,0.0,0.0,0.0,3.0",568.8086477001167,0.942809041582,63027,ワインの酒場。ディプント 銀座三丁目店,https://tabelog.com/tokyo/A1301/A130101/13104889/,ダイニングバー、イタリアン、ワインバー,バー・お酒,35.67165861,139.7655647,東京都中央区銀座3‐9‐18東銀座ビル1F,0,999,3000,3999
"1,0.5,0,0,1","3.0,0.0,0.0,0.0,3.0",557.7837215059883,0.942809041582,63945,魚や 銀座店,https://tabelog.com/tokyo/A1301/A130101/13014896/,魚介料理・海鮮料理,高級和食,35.67484667,139.7627414,東京都中央区銀座西2-2銀座インズ2B1F,0,999,3000,3999
"1,0.5,0,0,1","3.0,0.0,0.0,0.0,3.0",800.9983077572393,0.942809041582,50299,鶏繁 大丸東京店,https://tabelog.com/tokyo/A1302/A130201/13146635/,焼鳥、鳥料理、鍋（その他）,焼肉・ホルモン・鍋,35.68303806,139.7662764,東京都千代田区丸の内1-9-1大丸東京店12F,1000,1999,5000,5999
"1,0.5,0,0,1","3.0,0.0,0.0,0.0,3.0",929.2221400175632,0.942809041582,51723,レストラン大宮 新丸ビル店,https://tabelog.com/tokyo/A1302/A130201/13038495/,洋食、ハンバーグ,洋食・西洋料理,35.68258556,139.7622192,東京都千代田区丸の内1-5-1新丸の内ビルディング5F,2000,2999,3000,3999
"1,0.5,0,0,1","3.0,0.0,0.0,0.0,3.0",741.459537479351,0.942809041582,61921,なん八,https://tabelog.com/tokyo/A1302/A130203/13069380/,居酒屋、和食（その他）,Ｂ級和食,35.67319444,139.7760861,東京都中央区入船1-7-3,0,999,5000,5999
"1,0.5,0,0,1","3.0,0.0,0.0,0.0,3.0",555.9939040660427,0.942809041582,61238,すし田 乾山 銀座松屋店,https://tabelog.com/tokyo/A1301/A130101/13025337/,寿司,高級和食,35.67236056,139.7646167,東京都中央区銀座3-6-1松屋銀座本店8F,3000,3999,4000,4999
"1,0.5,0,0,1","3.0,0.0,0.0,0.0,3.0",497.8354635601018,0.942809041582,60077,かつ新,https://tabelog.com/tokyo/A1302/A130203/13048387/,とんかつ,Ｂ級和食,35.67614111,139.7742078,東京都中央区八丁堀2-18-3,1000,1999,4000,4999
"1,0.5,0,0,1","3.0,0.0,0.0,0.0,3.0",661.4410720706194,0.942809041582,63664,築地寿司清 銀座四丁目店,https://tabelog.com/tokyo/A1301/A130101/13014906/,寿司,高級和食,35.67175694,139.7637003,東京都中央区銀座4-6-18ギンザアクトビル4F,1000,1999,5000,5999
"1,0.5,0,0,1","3.0,0.0,0.0,0.0,3.0",869.2227928074168,0.942809041582,59677,楽山,https://tabelog.com/tokyo/A1301/A130101/13115385/,すき焼き、しゃぶしゃぶ,焼肉・ホルモン・鍋,35.67114377,139.7612705,東京都中央区銀座5-5-8西五番街坂口ビル５F,1000,1999,4000,4999
"1,0.5,0,0,1","3.0,0.0,0.0,0.0,3.0",822.1594714599902,0.942809041582,63326,TOKUOKA WINE&GOURMET GALLERY GINZA,https://tabelog.com/tokyo/A1301/A130101/13194312/,バル・バール,バー・お酒,35.6725,139.7607694,東京都中央区銀座5-2-1東急プラザ銀座B2F,3000,3999,3000,3999
"1,0.5,0,0,1","3.0,0.0,0.0,0.0,3.0",813.9842831625109,0.942809041582,51531,さわら,https://tabelog.com/tokyo/A1301/A130102/13036069/,魚介料理・海鮮料理、割烹・小料理、居酒屋,高級和食,35.67440694,139.7599597,東京都千代田区有楽町2-4-5,1000,1999,4000,4999
"1,0.5,0,0,1","3.0,0.0,0.0,0.0,3.0",597.8972195733908,0.942809041582,53443,串あげもの 旬s  丸の内店,https://tabelog.com/tokyo/A1302/A130201/13020117/,串揚げ・串かつ、和食（その他）、天ぷら・揚げ物（その他）,Ｂ級和食,35.67848111,139.7627861,東京都千代田区丸の内2-7-3東京ビルTOKIAB1F,1000,1999,5000,5999
"1,0.5,0,0,1","3.0,0.0,0.0,0.0,3.0",687.6176828614635,0.942809041582,63299,日本橋 お多幸本店,https://tabelog.com/tokyo/A1302/A130202/13000323/,おでん、居酒屋,Ｂ級和食,35.68216056,139.7702789,東京都中央区日本橋2-2-3お多幸ビル,0,999,3000,3999
"1,0.5,0,0,1","3.0,0.0,0.0,0.0,3.0",780.2220860398534,0.942809041582,60515,旬菜山,https://tabelog.com/tokyo/A1302/A130203/13064506/,居酒屋、魚介料理・海鮮料理、和食（その他）,Ｂ級和食,35.67656389,139.7773083,東京都中央区新川2-1-11,0,999,5000,5999
"1,0.5,0,0,1","3.0,0.0,0.0,0.0,3.0",929.2221400175632,0.942809041582,55300,天ぷら 船橋屋 新丸の内ビル店,https://tabelog.com/tokyo/A1302/A130201/13038477/,天ぷら,高級和食,35.68258556,139.7622192,東京都千代田区丸の内1-5-1新丸の内ビルディング5F,1000,1999,3000,3999
"1,0.5,0,0,1","3.0,0.0,0.0,0.0,3.0",928.1685954867858,0.942809041582,50741,たもつ,https://tabelog.com/tokyo/A1301/A130102/13063996/,居酒屋、焼鳥,居酒屋,35.67313278,139.7591219,東京都千代田区有楽町2-3-2,,,3000,3999
"1,0.5,0,0,1","3.0,0.0,0.0,0.0,3.0",274.13860190673864,0.942809041582,63361,尊 京橋店,https://tabelog.com/tokyo/A1302/A130202/13102124/,居酒屋、焼酎バー、郷土料理（その他）,高級和食,35.67675167,139.7716289,東京都中央区京橋1-19-2鹿島ビル　１Ｆ,0,999,3000,3999
"1,0.5,0,0,1","3.0,0.0,0.0,0.0,3.0",555.2577098664958,0.942809041582,63159,しうまい家 松富,https://tabelog.com/tokyo/A1302/A130202/13045361/,割烹・小料理、飲茶・点心、魚介料理・海鮮料理,高級和食,35.68106165,139.7694809,東京都中央区日本橋3-1-3,0,999,3000,3999
"1,0.5,0,0,1","3.0,0.0,0.0,0.0,3.0",750.6873181774187,0.942809041582,62152,花れん5 銀座店,https://tabelog.com/tokyo/A1313/A131301/13118871/,ホルモン,焼肉・ホルモン・鍋,35.66944611,139.7671872,東京都中央区銀座4-14-2三宝ビル1F,,,5000,5999
"1,0.5,0,0,1","3.0,0.0,0.0,0.0,3.0",498.9633026320801,0.942809041582,60983,森川,https://tabelog.com/tokyo/A1313/A131301/13171163/,居酒屋・ダイニングバー（その他）、鳥料理,Ｂ級和食,35.67167083,139.7677342,東京都中央区銀座2-13-17,1000,1999,5000,5999
"1,0.5,0,0,1","3.0,0.0,0.0,0.0,3.0",745.6174539393577,0.942809041582,59379,居酒屋 かあさん 茅場町店,https://tabelog.com/tokyo/A1302/A130203/13172236/,和食（その他）,Ｂ級和食,35.67986083,139.7755322,東京都中央区日本橋茅場町2-3-2,,,3000,3999
"1,0.5,0,0,1","3.0,0.0,0.0,0.0,3.0",941.3007760932582,0.942809041582,60444,ひょうたん屋 6丁目店,https://tabelog.com/tokyo/A1301/A130101/13007799/,うなぎ,高級和食,35.66926194,139.76255,東京都中央区銀座6-12-15,1000,1999,3000,3999
"1,0.5,0,0,1","3.0,0.0,0.0,0.0,3.0",721.3980180191517,0.942809041582,59571,和みダイニング 銀座店,https://tabelog.com/tokyo/A1301/A130101/13171294/,和食（その他）、居酒屋,Ｂ級和食,35.67296333,139.7617272,東京都中央区銀座4-2-12銀座クリスタルビルF-A,,,4000,4999
"1,0.5,0,0,1","3.0,0.0,0.0,0.0,3.0",776.461540723903,0.942809041582,50534,築地 奈可嶋 東京駅黒塀横丁店,https://tabelog.com/tokyo/A1302/A130201/13095630/,割烹・小料理、魚介料理・海鮮料理,高級和食,35.68266972,139.7657642,東京都千代田区丸の内1-9-1東京駅　改札外B1F黒塀横丁,1000,1999,3000,3999
"1,0.5,0,0,1","3.0,0.0,0.0,0.0,3.0",668.8930067823169,0.942809041582,60567,玉ゐ 本店,https://tabelog.com/tokyo/A1302/A130202/13019904/,魚介料理・海鮮料理、あなご、天ぷら,高級和食,35.68125583,139.7725322,東京都中央区日本橋2-9-9,1000,1999,3000,3999
"1,0.5,0,0,1","3.0,0.0,0.0,0.0,3.0",682.6649804582886,0.942809041582,61112,居酒屋 いさば2号,https://tabelog.com/tokyo/A1301/A130101/13094653/,魚介料理・海鮮料理、かに,居酒屋,35.67092778,139.7646194,東京都中央区銀座4-8-12コチワビルB1F,0,999,3000,3999
"1,0.5,0,0,1","3.0,0.0,0.0,0.0,3.0",646.7133803900389,0.942809041582,64744,美ゅら,https://tabelog.com/tokyo/A1302/A130202/13026160/,沖縄料理,高級和食,35.68116444,139.7722389,東京都中央区日本橋2-6-5日本橋二丁目ビルB1,0,999,3000,3999
"1,0.5,0,0,1","3.0,0.0,0.0,0.0,3.0",596.7140722494412,0.942809041582,58385,ショットバー ギンザアンドレ,https://tabelog.com/tokyo/A1301/A130101/13119830/,バー,バー・お酒,35.67150822,139.7652716,東京都中央区銀座3丁目8-13銀座三丁目ビルディング　1Ｆ,,,3000,3999
"1,0.5,0,0,1","3.0,0.0,0.0,0.0,3.0",752.4459794112023,0.942809041582,59872,鳥泉,https://tabelog.com/tokyo/A1301/A130101/13006325/,焼鳥、鳥料理、居酒屋,Ｂ級和食,35.66946583,139.7669678,東京都中央区銀座4-14-19銀座グレートビル　１Ｆ,0,999,3000,3999
"1,0.5,0,0,1","3.0,0.0,0.0,0.0,3.0",658.2721751609457,0.942809041582,50539,有楽苑,https://tabelog.com/tokyo/A1301/A130102/13029906/,焼肉,焼肉・ホルモン・鍋,35.67511111,139.7615389,東京都千代田区有楽町2-9-16,,,3000,3999
"1,0.5,0,0,1","3.0,0.0,0.0,0.0,3.0",539.5292327679969,0.942809041582,63084,舟よし,https://tabelog.com/tokyo/A1301/A130101/13031475/,魚介料理・海鮮料理,高級和食,35.6713975,139.7671781,東京都中央区銀座2-12-11下嶋ビル地下１階,,,3000,3999
"1,0.5,0,0,1","3.0,0.0,0.0,0.0,3.0",880.708125501655,0.942809041582,62652,ルパン,https://tabelog.com/tokyo/A1301/A130102/13002554/,バー,バー・お酒,35.67106278,139.7611878,東京都中央区銀座5-5-11塚本不動産ビル　Ｂ１Ｆ,,,3000,3999
"1,0.5,0,0,1","3.0,0.0,0.0,0.0,3.0",654.2510953085473,0.942809041582,58589,ソウメイ,https://tabelog.com/tokyo/A1302/A130203/13030260/,ダイニングバー,バー・お酒,35.67581944,139.7759278,東京都中央区八丁堀2-26-2八丁堀２丁目ビル　２Ｆ,,,3000,3999
"1,0.5,0,0,1","3.0,0.0,0.0,0.0,3.0",695.0058512655007,0.942809041582,62004,太平山酒蔵 茅場町店,https://tabelog.com/tokyo/A1302/A130203/13085554/,居酒屋,居酒屋,35.67793728,139.7760473,東京都中央区日本橋茅場町3-7-1,1000,1999,4000,4999
"1,0.5,0,0,1","3.0,0.0,0.0,0.0,3.0",596.4644780339809,0.942809041582,51016,べにづる,https://tabelog.com/tokyo/A1301/A130102/13078095/,割烹・小料理、魚介料理・海鮮料理、定食・食堂,高級和食,35.67498278,139.7622636,東京都千代田区有楽町2-10-1東京交通会館,0,999,3000,3999
"1,0.5,0,0,0","3.0,3.0,0.0,0.0,0.0",473.2873784171717,0.948683298051,62306,創作割烹 東,https://tabelog.com/tokyo/A1301/A130101/13208692/,居酒屋、ダイニングバー、割烹・小料理,高級和食,35.67218472,139.7666256,東京都中央区銀座2-11-15SF銀座ビルB1F,,,5000,5999
"1,0.5,0,0,0","3.0,3.0,0.0,0.0,0.0",905.3239768350563,0.948683298051,53902,はなたれ 丸の内本店,https://tabelog.com/tokyo/A1302/A130201/13151637/,居酒屋、魚介料理・海鮮料理、日本酒バー,高級和食,35.68007694,139.7599789,東京都千代田区丸の内2-2-1岸本ビルヂングB1F,1000,1999,4000,4999
"1,0.5,0,0,0","3.0,3.0,0.0,0.0,0.0",1228.0052292123803,0.948683298051,59532,なまはげ 銀座店,https://tabelog.com/tokyo/A1301/A130103/13021184/,居酒屋、郷土料理（その他）、鍋（その他）,焼肉・ホルモン・鍋,35.66898778,139.7583133,東京都中央区銀座8-5-6中島商事ビル　9Ｆ,,,5000,5999
"1,0.5,0,0,0","3.0,3.0,0.0,0.0,0.0",1005.2123022429375,0.948683298051,51803,丸の内ワイン倶楽部,https://tabelog.com/tokyo/A1302/A130201/13027024/,ステーキ、バル・バール、イタリアン,洋食・西洋料理,35.68261389,139.7609953,東京都千代田区丸の内1-2-1東京海上日動ビル本館1Ｆ,0,999,3000,3999
"1,0.5,0,0,0","3.0,3.0,0.0,0.0,0.0",1227.8844843835675,0.948683298051,62595,エヌビー クラブ,https://tabelog.com/tokyo/A1301/A130103/13014981/,イタリアン、創作料理、居酒屋・ダイニングバー（その他）,洋食・西洋料理,35.66898889,139.7583139,東京都中央区銀座8-5-6中島商事ビル　Ｂ２Ｆ,,,4000,4999
"1,0.5,0,0,0","3.0,3.0,0.0,0.0,0.0",1166.2075774707353,0.948683298051,61506,斬,https://tabelog.com/tokyo/A1313/A131301/13112646/,居酒屋、魚介料理・海鮮料理、寿司,高級和食,35.66559056,139.7690814,東京都中央区築地4-12-2ライオンズマンション東銀座B1F,1000,1999,5000,5999
"1,0.5,0,0,0","3.0,3.0,0.0,0.0,0.0",774.6599412424048,0.948683298051,59167,Kayaba walker's　port　Rotis＆Series,https://tabelog.com/tokyo/A1302/A130203/13202414/,バル・バール、イタリアン,洋食・西洋料理,35.67786889,139.7769858,東京都中央区日本橋茅場町3-12-9NIビル1F,0,999,,
"1,0.5,0,0,0","3.0,3.0,0.0,0.0,0.0",1133.769543290032,0.948683298051,60645,鉢や,https://tabelog.com/tokyo/A1301/A130101/13015359/,焼鳥、中国鍋・火鍋、鳥料理,Ｂ級和食,35.67108556,139.7577953,東京都中央区銀座7-1銀座コリドー街　２０８,0,999,4000,4999
"1,0.5,0,0,0","3.0,3.0,0.0,0.0,0.0",1181.2373788451323,0.948683298051,58557,銀座ストック,https://tabelog.com/tokyo/A1301/A130103/13004891/,ビストロ、ワインバー、野菜料理,バー・お酒,35.67044744,139.7576502,東京都中央区銀座7-2-14第26ポールスタービル,0,999,4000,4999
"1,0.5,0,0,0","3.0,3.0,0.0,0.0,0.0",273.258346251857,0.948683298051,64481,南インド料理ダクシン 八重洲店,https://tabelog.com/tokyo/A1302/A130202/13117635/,インドカレー、インド料理、居酒屋,居酒屋,35.67786028,139.7666017,東京都中央区八重洲2-5-12プレリービルB1F,1000,1999,3000,3999
"1,0.5,0,0,0","3.0,3.0,0.0,0.0,0.0",1183.2579303423793,0.948683298051,60397,和酒バル 銀座KUROTORI,https://tabelog.com/tokyo/A1301/A130103/13179290/,バル・バール、日本酒バー、おでん,バー・お酒,35.67037722,139.7576781,東京都中央区銀座7-2-14第26ポールスタービル7F,0,999,,
"1,0.5,0,0,0","3.0,3.0,0.0,0.0,0.0",1108.8622155894273,0.948683298051,59874,完全個室 炭火地鶏 室鶏 日本橋三越前本店,https://tabelog.com/tokyo/A1302/A130202/13202456/,居酒屋、焼鳥、魚介料理・海鮮料理,高級和食,35.68547083,139.7729567,東京都中央区日本橋室町1-11-2松楽ビル2F,,,5000,5999
"1,0.5,0,0,0","3.0,3.0,0.0,0.0,0.0",1207.0238408535115,0.948683298051,59664,車 銀座8丁目店,https://tabelog.com/tokyo/A1301/A130103/13043449/,焼鳥、居酒屋、鍋（その他）,焼肉・ホルモン・鍋,35.67004917,139.7576269,東京都中央区銀座8-2-1ニッタビル3F,,,4000,4999
"1,0.5,0,0,0","3.0,3.0,0.0,0.0,0.0",595.1935469607643,0.948683298051,59392,京町しずく 銀座有楽町駅前店,https://tabelog.com/tokyo/A1301/A130101/13115214/,居酒屋、魚介料理・海鮮料理、京料理,高級和食,35.67427778,139.7625242,東京都中央区銀座西3-1銀座インズ12Ｆ,1000,1999,3000,3999
"1,0.5,0,0,0","3.0,3.0,0.0,0.0,0.0",186.71064003919415,0.948683298051,64467,レ ロジェ ビストロ ド ロア,https://tabelog.com/tokyo/A1302/A130202/13154815/,フレンチ、カフェ、ビストロ,洋食・西洋料理,35.67603972,139.7666478,東京都中央区京橋3-1-1東京スクエアガーデン1F,1000,1999,5000,5999
"1,0.5,0,0,0","3.0,3.0,0.0,0.0,0.0",532.4558829714385,0.948683298051,58614,千や,https://tabelog.com/tokyo/A1302/A130202/13033979/,居酒屋、中華料理、串焼き,アジア・エスニック、中華料理,35.68089591,139.7687258,東京都中央区八重洲1-7-7,,,3000,3999
"1,0.5,0,0,0","3.0,3.0,0.0,0.0,0.0",880.4827663725549,0.948683298051,63868,居酒屋 きゃりこ,https://tabelog.com/tokyo/A1302/A130203/13131481/,居酒屋、焼酎バー,居酒屋,35.67817417,139.7780958,東京都中央区日本橋茅場町2-17-5第3高野ビル1F,0,999,3000,3999
"1,0.5,0,0,0","3.0,3.0,0.0,0.0,0.0",1192.3967904480078,0.948683298051,58615,銀座 カローン,https://tabelog.com/tokyo/A1301/A130103/13113724/,バー、しゃぶしゃぶ、イタリアン,焼肉・ホルモン・鍋,35.66954861,139.7582658,東京都中央区銀座8-4-2たくみビル2F,,,5000,5999
"1,0.5,0,0,0","3.0,3.0,0.0,0.0,0.0",585.7033393038172,0.948683298051,63350,ハタハタ屋敷,https://tabelog.com/tokyo/A1301/A130102/13118104/,郷土料理（その他）、居酒屋、鍋（その他）,焼肉・ホルモン・鍋,35.6744775,139.7625514,東京都中央区銀座西2-2銀座インズ2B1F,0,999,3000,3999
"1,0.5,0,0,0","3.0,3.0,0.0,0.0,0.0",1090.2050261825907,0.948683298051,58846,mu－MU Nana,https://tabelog.com/tokyo/A1301/A130101/13051701/,ダイニングバー、鍋（その他）、居酒屋,焼肉・ホルモン・鍋,35.66913658,139.7602095,東京都中央区銀座7-8-7銀座グリーンビル　Ｂ１Ｆ,1000,1999,5000,5999
"1,0.5,0,0,0","3.0,3.0,0.0,0.0,0.0",659.7029904930606,0.948683298051,62643,bar chair,https://tabelog.com/tokyo/A1301/A130101/13051664/,バー,バー・お酒,35.67077361,139.7654633,東京都中央区銀座4-10-6銀座AZA8F,,,5000,5999
"1,0.5,0,0,0","3.0,3.0,0.0,0.0,0.0",624.8644295537805,0.948683298051,65015,BOICHI 入船店,https://tabelog.com/tokyo/A1302/A130203/13181311/,バル・バール、炭火焼き、その他肉料理,創作料理・無国籍料理,35.67270333,139.7742172,東京都中央区入船1-3-9,1000,1999,4000,4999
"1,0.5,0,0,0","3.0,3.0,0.0,0.0,0.0",442.9768584216806,0.948683298051,59765,銀の月 八重洲店,https://tabelog.com/tokyo/A1302/A130202/13165610/,魚介料理・海鮮料理、もつ鍋、日本酒バー,高級和食,35.68008806,139.7685789,東京都中央区日本橋3-4-1第二弥生ビル6F,,,5000,5999
"1,0.5,0,0,0","3.0,3.0,0.0,0.0,0.0",158.98292560980678,0.948683298051,64291,京橋ZION,https://tabelog.com/tokyo/A1302/A130202/13195184/,スペイン料理、イタリアン、ダイニングバー,洋食・西洋料理,35.67707278,139.769995,東京都中央区京橋2-9-12日本工築1号館1F,0,999,3000,3999
"1,0.5,0,0,0","3.0,3.0,0.0,0.0,0.0",622.6896853467284,0.948683298051,59080,KOREAN DINING 長寿韓酒房 銀座店,https://tabelog.com/tokyo/A1301/A130101/13048676/,韓国料理、居酒屋、ダイニングバー,バー・お酒,35.67119417,139.7653619,東京都中央区銀座3-9-11紙パルプ会館Ｂ１Ｆ,1000,1999,4000,4999
"1,0.5,0,0,0","3.0,3.0,0.0,0.0,0.0",1151.3190066759316,0.948683298051,58807,Cave+SRh,https://tabelog.com/tokyo/A1301/A130103/13161157/,バー、ダイニングバー、ワインバー,バー・お酒,35.66955361,139.7588392,東京都中央区銀座7-5-10第2一越ビル4F,1000,1999,5000,5999
"1,0.5,0,0,0","3.0,3.0,0.0,0.0,0.0",246.22134648510055,0.948683298051,63179,パルコ ディ ジョイア,https://tabelog.com/tokyo/A1301/A130101/13167304/,イタリアン,洋食・西洋料理,35.67557694,139.766065,東京都中央区京橋3-3-12山京ビル2F,1000,1999,5000,5999
"1,0.5,0,0,0","3.0,3.0,0.0,0.0,0.0",756.2297282606492,0.948683298051,62465,南部どり 別館,https://tabelog.com/tokyo/A1302/A130203/13011123/,鳥料理、焼鳥、居酒屋,Ｂ級和食,35.67759028,139.7768594,東京都中央区日本橋茅場町3-10-2ＳＫＫビル　Ｂ１Ｆこのお店は「中央区日本橋室町3-4-4」から移転しています。※移転前の情報は最新のものとは異なります。移転前の店舗情報を見る,0,999,3000,3999
"1,0.5,0,0,0","3.0,3.0,0.0,0.0,0.0",1198.411554140683,0.948683298051,63049,つきぢ厨房お和んや,https://tabelog.com/tokyo/A1313/A131301/13007642/,魚介料理・海鮮料理、割烹・小料理、居酒屋,高級和食,35.66557333,139.7716897,東京都中央区築地6-6-3米山ビル　１Ｆ,0,999,5000,5999
"1,0.5,0,0,0","3.0,3.0,0.0,0.0,0.0",599.5681041608317,0.948683298051,54810,北海道の旬　焼肉たむら,https://tabelog.com/tokyo/A1302/A130201/13133948/,焼肉、ホルモン、鍋（その他）,焼肉・ホルモン・鍋,35.67861694,139.7628503,東京都千代田区丸の内2-7-3東京ビルTOKIAB1F,1000,1999,5000,5999
"1,0.5,0,0,0","3.0,3.0,0.0,0.0,0.0",1034.7771180026598,0.948683298051,61377,銀座 秋田県産比内地鶏専門店 美郷錦,https://tabelog.com/tokyo/A1301/A130101/13210144/,居酒屋、ダイニングバー、鳥料理,バー・お酒,35.67174833,139.7585978,東京都中央区銀座6-2-1DAIWA銀座ビルB2F,,,5000,5999
"1,0.5,0,0,0","3.0,3.0,0.0,0.0,0.0",870.7786448701466,0.948683298051,63625,パーティプラネット 銀座PPサロン ー貸切ダイニングー,https://tabelog.com/tokyo/A1301/A130101/13096679/,イタリアン、ダイニングバー、洋食,洋食・西洋料理,35.66996694,139.7627031,東京都中央区銀座5-9-13菊正ビル9F,,,5000,5999
"1,0.5,0,0,0","3.0,3.0,0.0,0.0,0.0",1045.9805494468421,0.948683298051,61840,タイ料理 エムエム,https://tabelog.com/tokyo/A1302/A130203/13191747/,タイ料理、鍋（その他）、居酒屋,焼肉・ホルモン・鍋,35.67848528,139.7798861,東京都中央区新川1-3-7ストークマンション新川102,0,999,3000,3999
"1,0.5,0,0,0","3.0,3.0,0.0,0.0,0.0",718.571932930977,0.948683298051,62365,嵐山,https://tabelog.com/tokyo/A1302/A130202/13116475/,鉄板焼き、ステーキ,洋食・西洋料理,35.68110773,139.7737379,東京都中央区日本橋2-15-91F,1000,1999,5000,5999
"1,0.5,0,0,0","3.0,3.0,0.0,0.0,0.0",925.147274094117,0.948683298051,58527,とり健 本店,https://tabelog.com/tokyo/A1302/A130203/13008009/,焼鳥、鳥料理、串焼き,Ｂ級和食,35.67886472,139.7783489,東京都中央区日本橋茅場町2-14-8,,,4000,4999
"1,0.5,0,0,0","3.0,3.0,0.0,0.0,0.0",1025.854419319441,0.948683298051,50317,別海町酒場 新大手町ビル店,https://tabelog.com/tokyo/A1302/A130201/13129255/,郷土料理（その他）、魚介料理・海鮮料理、居酒屋,高級和食,35.68484658,139.7650463,東京都千代田区大手町2-2-1新大手町ビルＢ１Ｆ,0,999,3000,3999
"1,0.5,0,0,0","3.0,3.0,0.0,0.0,0.0",882.1191838659461,0.948683298051,51577,Oyster Bar ジャックポット 国際ビル,https://tabelog.com/tokyo/A1301/A130102/13073822/,シーフード、ダイニングバー、オイスターバー,創作料理・無国籍料理,35.67693972,139.75902,東京都千代田区丸の内3-1-1国際ビルB1F,0,999,4000,4999
"1,0.5,0,0,0","3.0,3.0,0.0,0.0,0.0",1033.7531786249122,0.948683298051,53684,魚河岸 魚◯本店,https://tabelog.com/tokyo/A1301/A130102/13128821/,魚介料理・海鮮料理、居酒屋、居酒屋・ダイニングバー（その他）,高級和食,35.67224962,139.7583095,東京都千代田区有楽町2-1-1インターナショナルアーケード,1000,1999,3000,3999
"1,0.5,0,0,0","3.0,3.0,0.0,0.0,0.0",50.34014284967378,0.948683298051,58598,三喜屋,https://tabelog.com/tokyo/A1302/A130202/13042604/,中華料理、居酒屋、餃子,アジア・エスニック、中華料理,35.67585097,139.7691762,東京都中央区京橋2-12-10,0,999,4000,4999
"1,0.5,0,0,0","3.0,3.0,0.0,0.0,0.0",547.3816264590878,0.948683298051,59278,天ぷら かんだ,https://tabelog.com/tokyo/A1301/A130101/13028326/,居酒屋、天ぷら、鍋（その他）,高級和食,35.67482722,139.7628664,東京都中央区銀座西2-2銀座インズ2B1F,0,999,4000,4999
"1,0.5,0,0,0","3.0,3.0,0.0,0.0,0.0",1187.6334845644699,0.948683298051,63905,笑座こんぱる,https://tabelog.com/tokyo/A1301/A130103/13005673/,居酒屋・ダイニングバー（その他）,バー・お酒,35.66868222,139.7592482,東京都中央区銀座8-7-5金春ビル　Ｂ１Ｆ,,,5000,5999
"1,0.5,0,0,0","3.0,3.0,0.0,0.0,0.0",860.3957656168434,0.948683298051,64796,カヴァタッピ,https://tabelog.com/tokyo/A1313/A131301/13101165/,イタリアン、パスタ、ピザ,洋食・西洋料理,35.66835188,139.7691788,東京都中央区築地2-12-14フェニックス東銀座　第3ビル2F,1000,1999,3000,3999
"1,0.5,0,0,0","3.0,3.0,0.0,0.0,0.0",918.4956514541678,0.948683298051,51027,蔵ノ助 有楽町店,https://tabelog.com/tokyo/A1301/A130102/13119425/,和食（その他）、居酒屋、バー・お酒（その他）,Ｂ級和食,35.67362944,139.7590247,東京都千代田区有楽町1-3-7なる巳ビル4F,,,3000,3999
"1,0.5,0,0,0","3.0,3.0,0.0,0.0,0.0",333.669796947502,0.948683298051,61163,バルデエスパーニャリブラ ギンザ,https://tabelog.com/tokyo/A1301/A130101/13137255/,スペイン料理、イタリアン、ダイニングバー,洋食・西洋料理,35.67507113,139.7652444,東京都中央区銀座1-5-2西勢ビル1F,1000,1999,4000,4999
"1,0.5,0,0,0","3.0,3.0,0.0,0.0,0.0",1162.3135615262556,0.948683298051,58950,バージャム,https://tabelog.com/tokyo/A1301/A130103/13163051/,バー、バー・お酒（その他）,バー・お酒,35.67043117,139.7579104,東京都中央区銀座7-2-11菊村ビルB1F,,,5000,5999
"1,0.5,0,0,0","3.0,3.0,0.0,0.0,0.0",1017.6114215749319,0.948683298051,61221,毛利,https://tabelog.com/tokyo/A1301/A130101/13002661/,バー,バー・お酒,35.6708225,139.7595136,東京都中央区銀座6-5-12新堀ギタ-ビル銀座10F,,,5000,5999
"1,0.5,0,0,0","3.0,3.0,0.0,0.0,0.0",1018.7517784267064,0.948683298051,63023,自然派ワインとナチュラルイタリアン　SOYA銀座,https://tabelog.com/tokyo/A1301/A130101/13112210/,イタリアン、バル・バール、居酒屋,洋食・西洋料理,35.67216056,139.7585428,東京都中央区銀座5-1-16西山興業西銀座ビル７F,0,999,5000,5999
"1,0.5,0,0,0","3.0,3.0,0.0,0.0,0.0",1110.6960696227547,0.948683298051,63761,K,https://tabelog.com/tokyo/A1301/A130101/13163532/,バー、バー・お酒（その他）,バー・お酒,35.66806194,139.7613919,東京都中央区銀座7-12-15MYS銀座ビル　B1F,,,,
"1,0.5,0,0,0","3.0,3.0,0.0,0.0,0.0",722.1091610602823,0.948683298051,63151,日菜魚,https://tabelog.com/tokyo/A1302/A130203/13153441/,居酒屋、魚介料理・海鮮料理、野菜料理,高級和食,35.67872944,139.7760039,東京都中央区日本橋茅場町2-4-8井門茅場町ビル1Ｆ,0,999,3000,3999
"1,0.5,0,0,0","3.0,3.0,0.0,0.0,0.0",971.6506433906596,0.948683298051,52610,日比谷Bar 有楽町店,https://tabelog.com/tokyo/A1301/A130102/13031403/,居酒屋、イタリアン、バー,洋食・西洋料理,35.67385111,139.7583353,東京都千代田区有楽町1-6-1第二日比谷ビル　７Ｆ,,,4000,4999
"1,0.5,0,0,0","3.0,3.0,0.0,0.0,0.0",1209.7252491854765,0.948683298051,64056,銀座流 板前BAR 一八,https://tabelog.com/tokyo/A1301/A130103/13032744/,居酒屋、寿司、鍋（その他）,高級和食,35.66851444,139.7591075,東京都中央区銀座8-7-6松長ビル　１Ｆ,5000,5999,4000,4999
"1,0.5,0,0,0","3.0,3.0,0.0,0.0,0.0",446.94500774644666,0.948683298051,62349,八吉 八重洲仲通り本店,https://tabelog.com/tokyo/A1302/A130202/13028573/,魚介料理・海鮮料理、日本酒バー、居酒屋,高級和食,35.68012389,139.7685814,東京都中央区日本橋3-4-1第二弥生ビル,,,5000,5999
"1,0.5,0,0,0","3.0,3.0,0.0,0.0,0.0",709.4707724134496,0.948683298051,60720,魚豊,https://tabelog.com/tokyo/A1302/A130203/13194436/,居酒屋、魚介料理・海鮮料理,高級和食,35.67616778,139.7765453,東京都中央区八丁堀2-30-171F・2F・3F,0,999,3000,3999
"1,0.5,0,0,0","3.0,3.0,0.0,0.0,0.0",1194.2203699207287,0.948683298051,64984,Maillard,https://tabelog.com/tokyo/A1301/A130103/13130554/,ワインバー、飲茶・点心、創作料理,バー・お酒,35.66890583,139.7588944,東京都中央区銀座8-6-51F,,,,
"1,0.5,0,0,0","3.0,3.0,0.0,0.0,0.0",542.7352753205124,0.948683298051,64395,焼ジビエ 罠 八丁堀,https://tabelog.com/tokyo/A1302/A130203/13139915/,焼肉、居酒屋、ホルモン,焼肉・ホルモン・鍋,35.67534694,139.7746331,東京都中央区八丁堀3-20-11,,,4000,4999
"1,0.5,0,0,0","3.0,3.0,0.0,0.0,0.0",1008.5272644666182,0.948683298051,63296,いちばち,https://tabelog.com/tokyo/A1301/A130101/13176436/,居酒屋、ダイニングバー、しゃぶしゃぶ,焼肉・ホルモン・鍋,35.6697575,139.7607258,東京都中央区銀座6-9-13中嶋ビルB1F,,,4000,4999
"1,0.5,0,0,0","3.0,3.0,0.0,0.0,0.0",1154.5304163913665,0.948683298051,61606,和院,https://tabelog.com/tokyo/A1301/A130101/13034685/,ダイニングバー、ワインバー,バー・お酒,35.67084944,139.7576969,東京都中央区銀座7-108銀座コリドー街　Ｂ１Ｆ,0,999,4000,4999
"1,0.5,0,0,0","3.0,3.0,0.0,0.0,0.0",675.7437725283768,0.948683298051,64494,和もと,https://tabelog.com/tokyo/A1301/A130101/13083207/,割烹・小料理,高級和食,35.67099861,139.7646261,東京都中央区銀座4-8-12コチワビル　B1　北側,0,999,3000,3999
"1,0.5,0,0,0","3.0,3.0,0.0,0.0,0.0",518.3723220652896,0.948683298051,65007,INTHEBARREL,https://tabelog.com/tokyo/A1302/A130202/13025951/,バー、ピザ、イタリアン,洋食・西洋料理,35.68071944,139.7695408,東京都中央区日本橋3-1-14STAGE日本橋1・2F,0,999,4000,4999
"1,0.5,0,0,0","3.0,3.0,0.0,0.0,0.0",1196.496375052952,0.948683298051,63559,バルネア グリル 銀座8丁目店,https://tabelog.com/tokyo/A1301/A130101/13176425/,スペイン料理、ダイニングバー、イタリアン,洋食・西洋料理,35.6674275,139.7608494,東京都中央区銀座8-12-5峯田ビル1F,0,999,4000,4999
"1,0.5,0,0,0","3.0,3.0,0.0,0.0,0.0",641.804102055723,0.948683298051,63984,カキ酒場 北海道厚岸 日本橋本店,https://tabelog.com/tokyo/A1302/A130202/13144578/,居酒屋、魚介料理・海鮮料理、郷土料理（その他）,高級和食,35.68174083,139.7702628,東京都中央区日本橋2-2-15日本橋テイトビルB1F,1000,1999,5000,5999
"1,0.5,0,0,0","3.0,3.0,0.0,0.0,0.0",727.1766021528717,0.948683298051,60428,ゴチュ,https://tabelog.com/tokyo/A1302/A130202/13141103/,韓国料理、焼肉、韓国鍋,焼肉・ホルモン・鍋,35.68263631,139.7692449,東京都中央区八重洲1-4-41F・2F,0,999,4000,4999
"1,0.5,0,0,0","3.0,3.0,0.0,0.0,0.0",638.5508260948927,0.948683298051,61939,A4-5 BEEF BAR,https://tabelog.com/tokyo/A1301/A130101/13175168/,焼肉、イタリアン、ワインバー,バー・お酒,35.6731425,139.7626561,東京都中央区銀座3-2-11,,,5000,5999
"1,0.5,0,0,0","3.0,3.0,0.0,0.0,0.0",797.8954377891355,0.948683298051,59404,義常,https://tabelog.com/tokyo/A1313/A131301/13110195/,焼鳥、居酒屋、和食（その他）,Ｂ級和食,35.67030786,139.7739374,東京都中央区入船3-3-12,0,999,4000,4999
"1,0.5,0,0,0","3.0,3.0,0.0,0.0,0.0",1102.3726609662833,0.948683298051,64668,イスタンブール 銀座店,https://tabelog.com/tokyo/A1301/A130102/13058690/,トルコ料理,アジア・エスニック、中華料理,35.6714,139.7579792,東京都中央区銀座7-2銀座コリドー街　1Ｆ,1000,1999,5000,5999
"1,0.5,0,0,0","3.0,3.0,0.0,0.0,0.0",756.8873378298678,0.948683298051,63060,雛鮨 西銀座店,https://tabelog.com/tokyo/A1301/A130101/13002486/,寿司,高級和食,35.67297889,139.7612731,東京都中央区銀座4-1西銀座デパート　２Ｆ,1000,1999,4000,4999
"1,0.5,0,0,0","3.0,3.0,0.0,0.0,0.0",1136.3889678776432,0.948683298051,64267,泡盛 銀座店,https://tabelog.com/tokyo/A1313/A131301/13030775/,沖縄料理,高級和食,35.66662658,139.7639293,東京都中央区銀座7-17-18ジュエル銀座ビル１Ｆ,0,999,5000,5999
"1,0.5,0,0,0","3.0,3.0,0.0,0.0,0.0",670.0398090822989,0.948683298051,64790,にんにく鍋や,https://tabelog.com/tokyo/A1302/A130203/13210755/,居酒屋、鍋（その他）、焼肉,焼肉・ホルモン・鍋,35.67903806,139.7751733,東京都中央区日本橋茅場町2-3-9このお店は「台東区浅草1-5-1」から移転しています。※移転前の情報は最新のものとは異なります。移転前の店舗情報を見る,0,999,,
"1,0.5,0,0,0","3.0,3.0,0.0,0.0,0.0",1217.7052729000789,0.948683298051,63944,房家 日本橋店,https://tabelog.com/tokyo/A1302/A130202/13117977/,焼肉、居酒屋、ホルモン,焼肉・ホルモン・鍋,35.68668889,139.7722319,東京都中央区日本橋室町2-2-1コレド室町1　3F,1000,1999,5000,5999
"1,0.5,0,0,0","3.0,3.0,0.0,0.0,0.0",292.68142708491456,0.948683298051,62969,アルザス,https://tabelog.com/tokyo/A1302/A130202/13168521/,ワインバー、洋食・欧風料理（その他）、ダイニングバー,バー・お酒,35.67866306,139.7679597,東京都中央区京橋1-4-11竹本ビルB1F,,,3000,3999
"1,0.5,0,0,0","3.0,3.0,0.0,0.0,0.0",522.944228141189,0.948683298051,62881,仙厓,https://tabelog.com/tokyo/A1313/A131301/13110376/,懐石・会席料理、ダイニングバー、創作料理,高級和食,35.67233222,139.7721842,東京都中央区新富1-9-4ファンデックス銀座ビル1F,,,3000,3999
"1,0.5,0,0,0","3.0,3.0,0.0,0.0,0.0",808.5683980425462,0.948683298051,63852,B.E.HOUSE HIBIYA Bar,https://tabelog.com/tokyo/A1301/A130101/13167852/,ダイニングバー、イタリアン、バル・バール,洋食・西洋料理,35.67126639,139.7620219,東京都中央区銀座5-6-5NOCO7F,,,4000,4999
"1,0.5,0,0,0","3.0,3.0,0.0,0.0,0.0",1082.4675674027806,0.948683298051,61724,ワインの酒場。ディプント 銀座7丁目店,https://tabelog.com/tokyo/A1301/A130101/13138235/,イタリアン、ダイニングバー、ワインバー,バー・お酒,35.67096,139.7585442,東京都中央区銀座7-2-4武蔵セブンビルB1F,0,999,3000,3999
"1,0.5,0,0,0","3.0,3.0,0.0,0.0,0.0",861.1829042403264,0.948683298051,59303,バー ギンザ グレイス,https://tabelog.com/tokyo/A1301/A130101/13172172/,バー,バー・お酒,35.66977694,139.7631872,東京都中央区銀座5-10-10銀座マルシマビルB1F,,,4000,4999
"1,0.5,0,0,0","3.0,3.0,0.0,0.0,0.0",1248.0611314744126,0.948683298051,59433,築地たぬきや 本店,https://tabelog.com/tokyo/A1313/A131301/13013463/,魚介料理・海鮮料理、ふぐ、あんこう,高級和食,35.66578889,139.7742269,東京都中央区築地7-9-14,0,999,5000,5999
"1,0.5,0,0,0","3.0,3.0,0.0,0.0,0.0",1171.2395956575795,0.948683298051,62178,築地直送鮮魚 うお秀 銀座本店,https://tabelog.com/tokyo/A1301/A130101/13214389/,居酒屋、ダイニングバー、魚介料理・海鮮料理,高級和食,35.67015417,139.7580169,東京都中央区銀座7-3-13ニューギンザビル6F,,,,
"1,0.5,0,0,0","3.0,3.0,0.0,0.0,0.0",1225.301401389498,0.948683298051,50754,ビヤレストラン 銀座ライオン 大手町ファーストスクエア店,https://tabelog.com/tokyo/A1302/A130201/13027724/,ビアホール・ビアレストラン、ダイニングバー、居酒屋,バー・お酒,35.685715,139.7620575,東京都千代田区大手町1-5-1大手町ファーストスクエアB1F,1000,1999,4000,4999
"1,0.5,0,0,0","3.0,3.0,0.0,0.0,0.0",577.5221264414605,0.948683298051,61931,福福屋 八丁堀駅前店,https://tabelog.com/tokyo/A1302/A130203/13052010/,居酒屋、魚介料理・海鮮料理、創作料理,高級和食,35.67613615,139.7750881,東京都中央区八丁堀2-21-2京橋第９長岡ビル　Ｂ１Ｆ,,,3000,3999
"1,0.5,0,0,0","3.0,3.0,0.0,0.0,0.0",518.9354179556377,0.948683298051,60373,八重洲バル ヴェルデ,https://tabelog.com/tokyo/A1302/A130201/13157296/,イタリアン、居酒屋、ピザ,洋食・西洋料理,35.68077083,139.7684956,東京都中央区八重洲1-7-12第2ロータリービル1F,,,3000,3999
"1,0.5,0,0,0","3.0,3.0,0.0,0.0,0.0",872.0018096625366,0.948683298051,61705,和民 銀座５丁目店,https://tabelog.com/tokyo/A1301/A130101/13045558/,居酒屋、魚介料理・海鮮料理、ダイニングバー,高級和食,35.6698125,139.7629253,東京都中央区銀座5-9-11緑ビル2F,,,3000,3999
"1,0.5,0,0,0","3.0,3.0,0.0,0.0,0.0",942.707636238894,0.948683298051,64346,ピグレット,https://tabelog.com/tokyo/A1313/A131301/13153567/,イタリアン、ワインバー、レストラン（その他）,バー・お酒,35.66771611,139.7704206,東京都中央区築地3-10-8アクティオ築地1F,,,3000,3999
"1,0.5,0,0,0","3.0,3.0,0.0,0.0,0.0",338.6858435537917,0.948683298051,61407,日本料理 岩戸 銀座店,https://tabelog.com/tokyo/A1301/A130101/13014913/,魚介料理・海鮮料理、割烹・小料理、居酒屋,高級和食,35.67508778,139.7651783,東京都中央区銀座1-5-1,0,999,5000,5999
"1,0.5,0,0,0","3.0,3.0,0.0,0.0,0.0",671.4631857411298,0.948683298051,62238,麦酒倶楽部 Hachi,https://tabelog.com/tokyo/A1302/A130202/13156510/,ビアバー、ビアホール・ビアレストラン、ダイニングバー,バー・お酒,35.67719056,139.7760039,東京都中央区八丁堀1-11-6互明ビルB1F,0,999,3000,3999
"1,0.5,0,0,0","3.0,3.0,0.0,0.0,0.0",597.8972195733908,0.948683298051,51608,車 丸の内店,https://tabelog.com/tokyo/A1302/A130201/13020111/,焼鳥、居酒屋、鍋（その他）,焼肉・ホルモン・鍋,35.67848111,139.7627861,東京都千代田区丸の内2-7-3東京ビルTOKIAB1F,1000,1999,4000,4999
"1,0.5,0,0,0","3.0,3.0,0.0,0.0,0.0",1062.8691414799796,0.948683298051,63457,銀座MUN,https://tabelog.com/tokyo/A1301/A130101/13143799/,居酒屋、韓国料理、ダイニングバー,バー・お酒,35.67178944,139.7582228,東京都中央区銀座6-2山下ビル2Fこのお店は「港区西新橋2-13-3」から移転しています。※移転前の情報は最新のものとは異なります。移転前の店舗情報を見る,1000,1999,4000,4999
"1,0.5,0,0,0","3.0,3.0,0.0,0.0,0.0",696.5811879582584,0.948683298051,62784,沖縄食堂 じまんや,https://tabelog.com/tokyo/A1301/A130101/13053097/,沖縄料理、居酒屋、創作料理,創作料理・無国籍料理,35.669964,139.767064,東京都中央区銀座3-14-13第一厚生館ビルB1,0,999,4000,4999
"1,0.5,0,0,0","3.0,3.0,0.0,0.0,0.0",1101.4694712547061,0.948683298051,63070,日比谷Bar 銀座2号コリドー店,https://tabelog.com/tokyo/A1301/A130101/13028394/,イタリアン、居酒屋、バル・バール,洋食・西洋料理,35.67136556,139.7580133,東京都中央区銀座7-108銀座コリドー　２Ｆ,,,3000,3999
"1,0.5,0,0,0","3.0,3.0,0.0,0.0,0.0",1172.119380662068,0.948683298051,58943,大阪焼肉 ホルモン ふたご 銀座店,https://tabelog.com/tokyo/A1301/A130103/13168183/,焼肉、ホルモン、居酒屋,焼肉・ホルモン・鍋,35.670145,139.7580128,東京都中央区銀座7-3-13ニューギンザビルル1号館　2Ｆ,,,4000,4999
"1,0.5,0,0,0","3.0,3.0,0.0,0.0,0.0",471.29187953599876,0.948683298051,63863,酒席 いづみや,https://tabelog.com/tokyo/A1302/A130201/13011464/,居酒屋、魚介料理・海鮮料理,高級和食,35.68033701,139.7690215,東京都中央区日本橋3-3-3,,,5000,5999
"1,0.5,0,0,0","3.0,3.0,0.0,0.0,0.0",1242.1485691819933,0.948683298051,63563,海鮮問屋 地魚屋 日本橋新川,https://tabelog.com/tokyo/A1302/A130203/13028930/,居酒屋、魚介料理・海鮮料理、日本酒バー,高級和食,35.67591111,139.7824278,東京都中央区新川1-28-44Ｋ＆Ｔビル　Ｂ１Ｆ,0,999,4000,4999
"1,0.5,0,0,0","3.0,3.0,0.0,0.0,0.0",1098.4830265964338,0.948683298051,58796,銀座 鳥幸 はなれ,https://tabelog.com/tokyo/A1301/A130101/13206600/,焼鳥,Ｂ級和食,35.67017083,139.7589894,東京都中央区銀座7-4-5銀座745ビル10F,,,4000,4999
"1,0.5,0,0,0","3.0,3.0,0.0,0.0,0.0",1034.7771180026598,0.948683298051,58418,隠れ家個室居酒屋 八坂 銀座店,https://tabelog.com/tokyo/A1301/A130101/13210134/,居酒屋、ダイニングバー、魚介料理・海鮮料理,居酒屋,35.67174833,139.7585978,東京都中央区銀座6-2-1DAIWA銀座ビルB2F,,,3000,3999
"1,0.5,0,0,0","3.0,3.0,0.0,0.0,0.0",518.6206941157858,0.948683298051,64586,黒毛和牛食べ放題 みやもと牧場 八丁堀店,https://tabelog.com/tokyo/A1302/A130203/13211167/,焼肉、ホルモン、居酒屋,焼肉・ホルモン・鍋,35.67530265,139.7743543,東京都中央区八丁堀3-19-9京橋第六長岡ビルB1F,,,4000,4999
"1,0.5,0,0,0","3.0,3.0,0.0,0.0,0.0",1116.796098247108,0.948683298051,60013,ご当地酒場 北海道八雲町 三越前店,https://tabelog.com/tokyo/A1302/A130202/13096583/,居酒屋、郷土料理（その他）、魚介料理・海鮮料理,高級和食,35.68573,139.7722864,東京都中央区日本橋室町1-5-2東洋ビルB1F,0,999,3000,3999
"1,0.5,0,0,0","3.0,3.0,0.0,0.0,0.0",401.35913921581067,0.948683298051,59018,暖 銀座店,https://tabelog.com/tokyo/A1301/A130101/13004960/,居酒屋、魚介料理・海鮮料理、馬肉料理,高級和食,35.67274778,139.7670339,東京都中央区銀座2-11-19国光ビル　１Ｆ,,,4000,4999
"1,0.5,0,0,0","3.0,3.0,0.0,0.0,0.0",293.8264761935079,0.948683298051,62781,一の倉 八重洲店,https://tabelog.com/tokyo/A1302/A130202/13048686/,居酒屋、焼鳥、魚介料理・海鮮料理,高級和食,35.67864444,139.7678222,東京都中央区京橋1-4-13セントラル京橋ビルB1,0,999,4000,4999
"1,0.5,0,0,0","3.0,3.0,0.0,0.0,0.0",1181.985556659735,0.948683298051,63363,原価BAR GINZA,https://tabelog.com/tokyo/A1301/A130102/13158729/,ダイニングバー、バーベキュー、バー,創作料理・無国籍料理,35.67039412,139.7576816,東京都中央区銀座7-2-14第26ポールスタービル2F,,,5000,5999
"1,0.5,0,0,0","3.0,3.0,0.0,0.0,0.0",956.0462985419692,0.948683298051,62894,KU RO BE,https://tabelog.com/tokyo/A1301/A130101/13126421/,イタリアン、ビストロ、バル・バール,洋食・西洋料理,35.67027611,139.7609228,東京都中央区銀座6-8-6木の実ビル３Ｆ,,,5000,5999
"1,0.5,0,0,0","3.0,3.0,0.0,0.0,0.0",1145.5311370304132,0.948683298051,60849,ビストロjeujeu 銀座コリドー店,https://tabelog.com/tokyo/A1301/A130101/13091722/,鉄板焼き、フレンチ、ビストロ,洋食・西洋料理,35.67094583,139.7577433,東京都中央区銀座7-2コリドー街108,0,999,3000,3999
"1,0.5,0,0,0","3.0,3.0,0.0,0.0,0.0",793.6191583412359,0.948683298051,59089,TIME,https://tabelog.com/tokyo/A1313/A131301/13153421/,バル・バール、ステーキ、ワインバー,洋食・西洋料理,35.66903833,139.7701261,東京都中央区築地2-11-3ウィンド築地ビル1F,0,999,5000,5999
"1,0.5,0,0,0","3.0,3.0,0.0,0.0,0.0",473.2873784171717,0.948683298051,62306,創作割烹 東,https://tabelog.com/tokyo/A1301/A130101/13208692/,居酒屋、ダイニングバー、割烹・小料理,高級和食,35.67218472,139.7666256,東京都中央区銀座2-11-15SF銀座ビルB1F,,,5000,5999
"1,0.5,0,0,0","3.0,3.0,0.0,0.0,0.0",905.3239768350563,0.948683298051,53902,はなたれ 丸の内本店,https://tabelog.com/tokyo/A1302/A130201/13151637/,居酒屋、魚介料理・海鮮料理、日本酒バー,高級和食,35.68007694,139.7599789,東京都千代田区丸の内2-2-1岸本ビルヂングB1F,1000,1999,4000,4999
"1,0.5,0,0,0","3.0,3.0,0.0,0.0,0.0",1228.0052292123803,0.948683298051,59532,なまはげ 銀座店,https://tabelog.com/tokyo/A1301/A130103/13021184/,居酒屋、郷土料理（その他）、鍋（その他）,焼肉・ホルモン・鍋,35.66898778,139.7583133,東京都中央区銀座8-5-6中島商事ビル　9Ｆ,,,5000,5999
"1,0.5,0,0,0","3.0,3.0,0.0,0.0,0.0",1005.2123022429375,0.948683298051,51803,丸の内ワイン倶楽部,https://tabelog.com/tokyo/A1302/A130201/13027024/,ステーキ、バル・バール、イタリアン,洋食・西洋料理,35.68261389,139.7609953,東京都千代田区丸の内1-2-1東京海上日動ビル本館1Ｆ,0,999,3000,3999
"1,0.5,0,0,0","3.0,3.0,0.0,0.0,0.0",1227.8844843835675,0.948683298051,62595,エヌビー クラブ,https://tabelog.com/tokyo/A1301/A130103/13014981/,イタリアン、創作料理、居酒屋・ダイニングバー（その他）,洋食・西洋料理,35.66898889,139.7583139,東京都中央区銀座8-5-6中島商事ビル　Ｂ２Ｆ,,,4000,4999
"1,0.5,0,0,0","3.0,3.0,0.0,0.0,0.0",1166.2075774707353,0.948683298051,61506,斬,https://tabelog.com/tokyo/A1313/A131301/13112646/,居酒屋、魚介料理・海鮮料理、寿司,高級和食,35.66559056,139.7690814,東京都中央区築地4-12-2ライオンズマンション東銀座B1F,1000,1999,5000,5999
"1,0.5,0,0,0","3.0,3.0,0.0,0.0,0.0",774.6599412424048,0.948683298051,59167,Kayaba walker's　port　Rotis＆Series,https://tabelog.com/tokyo/A1302/A130203/13202414/,バル・バール、イタリアン,洋食・西洋料理,35.67786889,139.7769858,東京都中央区日本橋茅場町3-12-9NIビル1F,0,999,,
"1,0.5,0,0,0","3.0,3.0,0.0,0.0,0.0",1133.769543290032,0.948683298051,60645,鉢や,https://tabelog.com/tokyo/A1301/A130101/13015359/,焼鳥、中国鍋・火鍋、鳥料理,Ｂ級和食,35.67108556,139.7577953,東京都中央区銀座7-1銀座コリドー街　２０８,0,999,4000,4999
"1,0.5,0,0,0","3.0,3.0,0.0,0.0,0.0",1181.2373788451323,0.948683298051,58557,銀座ストック,https://tabelog.com/tokyo/A1301/A130103/13004891/,ビストロ、ワインバー、野菜料理,バー・お酒,35.67044744,139.7576502,東京都中央区銀座7-2-14第26ポールスタービル,0,999,4000,4999
"1,0.5,0,0,0","3.0,3.0,0.0,0.0,0.0",273.258346251857,0.948683298051,64481,南インド料理ダクシン 八重洲店,https://tabelog.com/tokyo/A1302/A130202/13117635/,インドカレー、インド料理、居酒屋,居酒屋,35.67786028,139.7666017,東京都中央区八重洲2-5-12プレリービルB1F,1000,1999,3000,3999
"1,0.5,0,0,0","3.0,3.0,0.0,0.0,0.0",1183.2579303423793,0.948683298051,60397,和酒バル 銀座KUROTORI,https://tabelog.com/tokyo/A1301/A130103/13179290/,バル・バール、日本酒バー、おでん,バー・お酒,35.67037722,139.7576781,東京都中央区銀座7-2-14第26ポールスタービル7F,0,999,,
"1,0.5,0,0,0","3.0,3.0,0.0,0.0,0.0",1108.8622155894273,0.948683298051,59874,完全個室 炭火地鶏 室鶏 日本橋三越前本店,https://tabelog.com/tokyo/A1302/A130202/13202456/,居酒屋、焼鳥、魚介料理・海鮮料理,高級和食,35.68547083,139.7729567,東京都中央区日本橋室町1-11-2松楽ビル2F,,,5000,5999
"1,0.5,0,0,0","3.0,3.0,0.0,0.0,0.0",1207.0238408535115,0.948683298051,59664,車 銀座8丁目店,https://tabelog.com/tokyo/A1301/A130103/13043449/,焼鳥、居酒屋、鍋（その他）,焼肉・ホルモン・鍋,35.67004917,139.7576269,東京都中央区銀座8-2-1ニッタビル3F,,,4000,4999
"1,0.5,0,0,0","3.0,3.0,0.0,0.0,0.0",595.1935469607643,0.948683298051,59392,京町しずく 銀座有楽町駅前店,https://tabelog.com/tokyo/A1301/A130101/13115214/,居酒屋、魚介料理・海鮮料理、京料理,高級和食,35.67427778,139.7625242,東京都中央区銀座西3-1銀座インズ12Ｆ,1000,1999,3000,3999
"1,0.5,0,0,0","3.0,3.0,0.0,0.0,0.0",186.71064003919415,0.948683298051,64467,レ ロジェ ビストロ ド ロア,https://tabelog.com/tokyo/A1302/A130202/13154815/,フレンチ、カフェ、ビストロ,洋食・西洋料理,35.67603972,139.7666478,東京都中央区京橋3-1-1東京スクエアガーデン1F,1000,1999,5000,5999
"1,0.5,0,0,0","3.0,3.0,0.0,0.0,0.0",532.4558829714385,0.948683298051,58614,千や,https://tabelog.com/tokyo/A1302/A130202/13033979/,居酒屋、中華料理、串焼き,アジア・エスニック、中華料理,35.68089591,139.7687258,東京都中央区八重洲1-7-7,,,3000,3999
"1,0.5,0,0,0","3.0,3.0,0.0,0.0,0.0",880.4827663725549,0.948683298051,63868,居酒屋 きゃりこ,https://tabelog.com/tokyo/A1302/A130203/13131481/,居酒屋、焼酎バー,居酒屋,35.67817417,139.7780958,東京都中央区日本橋茅場町2-17-5第3高野ビル1F,0,999,3000,3999
"1,0.5,0,0,0","3.0,3.0,0.0,0.0,0.0",1192.3967904480078,0.948683298051,58615,銀座 カローン,https://tabelog.com/tokyo/A1301/A130103/13113724/,バー、しゃぶしゃぶ、イタリアン,焼肉・ホルモン・鍋,35.66954861,139.7582658,東京都中央区銀座8-4-2たくみビル2F,,,5000,5999
"1,0.5,0,0,0","3.0,3.0,0.0,0.0,0.0",585.7033393038172,0.948683298051,63350,ハタハタ屋敷,https://tabelog.com/tokyo/A1301/A130102/13118104/,郷土料理（その他）、居酒屋、鍋（その他）,焼肉・ホルモン・鍋,35.6744775,139.7625514,東京都中央区銀座西2-2銀座インズ2B1F,0,999,3000,3999
"1,0.5,0,0,0","3.0,3.0,0.0,0.0,0.0",1090.2050261825907,0.948683298051,58846,mu－MU Nana,https://tabelog.com/tokyo/A1301/A130101/13051701/,ダイニングバー、鍋（その他）、居酒屋,焼肉・ホルモン・鍋,35.66913658,139.7602095,東京都中央区銀座7-8-7銀座グリーンビル　Ｂ１Ｆ,1000,1999,5000,5999
"1,0.5,0,0,0","3.0,3.0,0.0,0.0,0.0",659.7029904930606,0.948683298051,62643,bar chair,https://tabelog.com/tokyo/A1301/A130101/13051664/,バー,バー・お酒,35.67077361,139.7654633,東京都中央区銀座4-10-6銀座AZA8F,,,5000,5999
"1,0.5,0,0,0","3.0,3.0,0.0,0.0,0.0",624.8644295537805,0.948683298051,65015,BOICHI 入船店,https://tabelog.com/tokyo/A1302/A130203/13181311/,バル・バール、炭火焼き、その他肉料理,創作料理・無国籍料理,35.67270333,139.7742172,東京都中央区入船1-3-9,1000,1999,4000,4999
"1,0.5,0,0,0","3.0,3.0,0.0,0.0,0.0",442.9768584216806,0.948683298051,59765,銀の月 八重洲店,https://tabelog.com/tokyo/A1302/A130202/13165610/,魚介料理・海鮮料理、もつ鍋、日本酒バー,高級和食,35.68008806,139.7685789,東京都中央区日本橋3-4-1第二弥生ビル6F,,,5000,5999
"1,0.5,0,0,0","3.0,3.0,0.0,0.0,0.0",158.98292560980678,0.948683298051,64291,京橋ZION,https://tabelog.com/tokyo/A1302/A130202/13195184/,スペイン料理、イタリアン、ダイニングバー,洋食・西洋料理,35.67707278,139.769995,東京都中央区京橋2-9-12日本工築1号館1F,0,999,3000,3999
"1,0.5,0,0,0","3.0,3.0,0.0,0.0,0.0",622.6896853467284,0.948683298051,59080,KOREAN DINING 長寿韓酒房 銀座店,https://tabelog.com/tokyo/A1301/A130101/13048676/,韓国料理、居酒屋、ダイニングバー,バー・お酒,35.67119417,139.7653619,東京都中央区銀座3-9-11紙パルプ会館Ｂ１Ｆ,1000,1999,4000,4999
"1,0.5,0,0,0","3.0,3.0,0.0,0.0,0.0",1151.3190066759316,0.948683298051,58807,Cave+SRh,https://tabelog.com/tokyo/A1301/A130103/13161157/,バー、ダイニングバー、ワインバー,バー・お酒,35.66955361,139.7588392,東京都中央区銀座7-5-10第2一越ビル4F,1000,1999,5000,5999
"1,0.5,0,0,0","3.0,3.0,0.0,0.0,0.0",246.22134648510055,0.948683298051,63179,パルコ ディ ジョイア,https://tabelog.com/tokyo/A1301/A130101/13167304/,イタリアン,洋食・西洋料理,35.67557694,139.766065,東京都中央区京橋3-3-12山京ビル2F,1000,1999,5000,5999
"1,0.5,0,0,0","3.0,3.0,0.0,0.0,0.0",756.2297282606492,0.948683298051,62465,南部どり 別館,https://tabelog.com/tokyo/A1302/A130203/13011123/,鳥料理、焼鳥、居酒屋,Ｂ級和食,35.67759028,139.7768594,東京都中央区日本橋茅場町3-10-2ＳＫＫビル　Ｂ１Ｆこのお店は「中央区日本橋室町3-4-4」から移転しています。※移転前の情報は最新のものとは異なります。移転前の店舗情報を見る,0,999,3000,3999
"1,0.5,0,0,0","3.0,3.0,0.0,0.0,0.0",1198.411554140683,0.948683298051,63049,つきぢ厨房お和んや,https://tabelog.com/tokyo/A1313/A131301/13007642/,魚介料理・海鮮料理、割烹・小料理、居酒屋,高級和食,35.66557333,139.7716897,東京都中央区築地6-6-3米山ビル　１Ｆ,0,999,5000,5999
"1,0.5,0,0,0","3.0,3.0,0.0,0.0,0.0",599.5681041608317,0.948683298051,54810,北海道の旬　焼肉たむら,https://tabelog.com/tokyo/A1302/A130201/13133948/,焼肉、ホルモン、鍋（その他）,焼肉・ホルモン・鍋,35.67861694,139.7628503,東京都千代田区丸の内2-7-3東京ビルTOKIAB1F,1000,1999,5000,5999
"1,0.5,0,0,0","3.0,3.0,0.0,0.0,0.0",1034.7771180026598,0.948683298051,61377,銀座 秋田県産比内地鶏専門店 美郷錦,https://tabelog.com/tokyo/A1301/A130101/13210144/,居酒屋、ダイニングバー、鳥料理,バー・お酒,35.67174833,139.7585978,東京都中央区銀座6-2-1DAIWA銀座ビルB2F,,,5000,5999
"1,0.5,0,0,0","3.0,3.0,0.0,0.0,0.0",870.7786448701466,0.948683298051,63625,パーティプラネット 銀座PPサロン ー貸切ダイニングー,https://tabelog.com/tokyo/A1301/A130101/13096679/,イタリアン、ダイニングバー、洋食,洋食・西洋料理,35.66996694,139.7627031,東京都中央区銀座5-9-13菊正ビル9F,,,5000,5999
"1,0.5,0,0,0","3.0,3.0,0.0,0.0,0.0",1045.9805494468421,0.948683298051,61840,タイ料理 エムエム,https://tabelog.com/tokyo/A1302/A130203/13191747/,タイ料理、鍋（その他）、居酒屋,焼肉・ホルモン・鍋,35.67848528,139.7798861,東京都中央区新川1-3-7ストークマンション新川102,0,999,3000,3999
"1,0.5,0,0,0","3.0,3.0,0.0,0.0,0.0",718.571932930977,0.948683298051,62365,嵐山,https://tabelog.com/tokyo/A1302/A130202/13116475/,鉄板焼き、ステーキ,洋食・西洋料理,35.68110773,139.7737379,東京都中央区日本橋2-15-91F,1000,1999,5000,5999
"1,0.5,0,0,0","3.0,3.0,0.0,0.0,0.0",925.147274094117,0.948683298051,58527,とり健 本店,https://tabelog.com/tokyo/A1302/A130203/13008009/,焼鳥、鳥料理、串焼き,Ｂ級和食,35.67886472,139.7783489,東京都中央区日本橋茅場町2-14-8,,,4000,4999
"1,0.5,0,0,0","3.0,3.0,0.0,0.0,0.0",1025.854419319441,0.948683298051,50317,別海町酒場 新大手町ビル店,https://tabelog.com/tokyo/A1302/A130201/13129255/,郷土料理（その他）、魚介料理・海鮮料理、居酒屋,高級和食,35.68484658,139.7650463,東京都千代田区大手町2-2-1新大手町ビルＢ１Ｆ,0,999,3000,3999
"1,0.5,0,0,0","3.0,3.0,0.0,0.0,0.0",882.1191838659461,0.948683298051,51577,Oyster Bar ジャックポット 国際ビル,https://tabelog.com/tokyo/A1301/A130102/13073822/,シーフード、ダイニングバー、オイスターバー,創作料理・無国籍料理,35.67693972,139.75902,東京都千代田区丸の内3-1-1国際ビルB1F,0,999,4000,4999
"1,0.5,0,0,0","3.0,3.0,0.0,0.0,0.0",1033.7531786249122,0.948683298051,53684,魚河岸 魚◯本店,https://tabelog.com/tokyo/A1301/A130102/13128821/,魚介料理・海鮮料理、居酒屋、居酒屋・ダイニングバー（その他）,高級和食,35.67224962,139.7583095,東京都千代田区有楽町2-1-1インターナショナルアーケード,1000,1999,3000,3999
"1,0.5,0,0,0","3.0,3.0,0.0,0.0,0.0",50.34014284967378,0.948683298051,58598,三喜屋,https://tabelog.com/tokyo/A1302/A130202/13042604/,中華料理、居酒屋、餃子,アジア・エスニック、中華料理,35.67585097,139.7691762,東京都中央区京橋2-12-10,0,999,4000,4999
"1,0.5,0,0,0","3.0,3.0,0.0,0.0,0.0",547.3816264590878,0.948683298051,59278,天ぷら かんだ,https://tabelog.com/tokyo/A1301/A130101/13028326/,居酒屋、天ぷら、鍋（その他）,高級和食,35.67482722,139.7628664,東京都中央区銀座西2-2銀座インズ2B1F,0,999,4000,4999
"1,0.5,0,0,0","3.0,3.0,0.0,0.0,0.0",1187.6334845644699,0.948683298051,63905,笑座こんぱる,https://tabelog.com/tokyo/A1301/A130103/13005673/,居酒屋・ダイニングバー（その他）,バー・お酒,35.66868222,139.7592482,東京都中央区銀座8-7-5金春ビル　Ｂ１Ｆ,,,5000,5999
"1,0.5,0,0,0","3.0,3.0,0.0,0.0,0.0",860.3957656168434,0.948683298051,64796,カヴァタッピ,https://tabelog.com/tokyo/A1313/A131301/13101165/,イタリアン、パスタ、ピザ,洋食・西洋料理,35.66835188,139.7691788,東京都中央区築地2-12-14フェニックス東銀座　第3ビル2F,1000,1999,3000,3999
"1,0.5,0,0,0","3.0,3.0,0.0,0.0,0.0",918.4956514541678,0.948683298051,51027,蔵ノ助 有楽町店,https://tabelog.com/tokyo/A1301/A130102/13119425/,和食（その他）、居酒屋、バー・お酒（その他）,Ｂ級和食,35.67362944,139.7590247,東京都千代田区有楽町1-3-7なる巳ビル4F,,,3000,3999
"1,0.5,0,0,0","3.0,3.0,0.0,0.0,0.0",333.669796947502,0.948683298051,61163,バルデエスパーニャリブラ ギンザ,https://tabelog.com/tokyo/A1301/A130101/13137255/,スペイン料理、イタリアン、ダイニングバー,洋食・西洋料理,35.67507113,139.7652444,東京都中央区銀座1-5-2西勢ビル1F,1000,1999,4000,4999
"1,0.5,0,0,0","3.0,3.0,0.0,0.0,0.0",1162.3135615262556,0.948683298051,58950,バージャム,https://tabelog.com/tokyo/A1301/A130103/13163051/,バー、バー・お酒（その他）,バー・お酒,35.67043117,139.7579104,東京都中央区銀座7-2-11菊村ビルB1F,,,5000,5999
"1,0.5,0,0,0","3.0,3.0,0.0,0.0,0.0",1017.6114215749319,0.948683298051,61221,毛利,https://tabelog.com/tokyo/A1301/A130101/13002661/,バー,バー・お酒,35.6708225,139.7595136,東京都中央区銀座6-5-12新堀ギタ-ビル銀座10F,,,5000,5999
"1,0.5,0,0,0","3.0,3.0,0.0,0.0,0.0",1018.7517784267064,0.948683298051,63023,自然派ワインとナチュラルイタリアン　SOYA銀座,https://tabelog.com/tokyo/A1301/A130101/13112210/,イタリアン、バル・バール、居酒屋,洋食・西洋料理,35.67216056,139.7585428,東京都中央区銀座5-1-16西山興業西銀座ビル７F,0,999,5000,5999
"1,0.5,0,0,0","3.0,3.0,0.0,0.0,0.0",1110.6960696227547,0.948683298051,63761,K,https://tabelog.com/tokyo/A1301/A130101/13163532/,バー、バー・お酒（その他）,バー・お酒,35.66806194,139.7613919,東京都中央区銀座7-12-15MYS銀座ビル　B1F,,,,
"1,0.5,0,0,0","3.0,3.0,0.0,0.0,0.0",722.1091610602823,0.948683298051,63151,日菜魚,https://tabelog.com/tokyo/A1302/A130203/13153441/,居酒屋、魚介料理・海鮮料理、野菜料理,高級和食,35.67872944,139.7760039,東京都中央区日本橋茅場町2-4-8井門茅場町ビル1Ｆ,0,999,3000,3999
"1,0.5,0,0,0","3.0,3.0,0.0,0.0,0.0",971.6506433906596,0.948683298051,52610,日比谷Bar 有楽町店,https://tabelog.com/tokyo/A1301/A130102/13031403/,居酒屋、イタリアン、バー,洋食・西洋料理,35.67385111,139.7583353,東京都千代田区有楽町1-6-1第二日比谷ビル　７Ｆ,,,4000,4999
"1,0.5,0,0,0","3.0,3.0,0.0,0.0,0.0",1209.7252491854765,0.948683298051,64056,銀座流 板前BAR 一八,https://tabelog.com/tokyo/A1301/A130103/13032744/,居酒屋、寿司、鍋（その他）,高級和食,35.66851444,139.7591075,東京都中央区銀座8-7-6松長ビル　１Ｆ,5000,5999,4000,4999
"1,0.5,0,0,0","3.0,3.0,0.0,0.0,0.0",446.94500774644666,0.948683298051,62349,八吉 八重洲仲通り本店,https://tabelog.com/tokyo/A1302/A130202/13028573/,魚介料理・海鮮料理、日本酒バー、居酒屋,高級和食,35.68012389,139.7685814,東京都中央区日本橋3-4-1第二弥生ビル,,,5000,5999
"1,0.5,0,0,0","3.0,3.0,0.0,0.0,0.0",709.4707724134496,0.948683298051,60720,魚豊,https://tabelog.com/tokyo/A1302/A130203/13194436/,居酒屋、魚介料理・海鮮料理,高級和食,35.67616778,139.7765453,東京都中央区八丁堀2-30-171F・2F・3F,0,999,3000,3999
"1,0.5,0,0,0","3.0,3.0,0.0,0.0,0.0",1194.2203699207287,0.948683298051,64984,Maillard,https://tabelog.com/tokyo/A1301/A130103/13130554/,ワインバー、飲茶・点心、創作料理,バー・お酒,35.66890583,139.7588944,東京都中央区銀座8-6-51F,,,,
"1,0.5,0,0,0","3.0,3.0,0.0,0.0,0.0",542.7352753205124,0.948683298051,64395,焼ジビエ 罠 八丁堀,https://tabelog.com/tokyo/A1302/A130203/13139915/,焼肉、居酒屋、ホルモン,焼肉・ホルモン・鍋,35.67534694,139.7746331,東京都中央区八丁堀3-20-11,,,4000,4999
"1,0.5,0,0,0","3.0,3.0,0.0,0.0,0.0",1008.5272644666182,0.948683298051,63296,いちばち,https://tabelog.com/tokyo/A1301/A130101/13176436/,居酒屋、ダイニングバー、しゃぶしゃぶ,焼肉・ホルモン・鍋,35.6697575,139.7607258,東京都中央区銀座6-9-13中嶋ビルB1F,,,4000,4999
"1,0.5,0,0,0","3.0,3.0,0.0,0.0,0.0",1154.5304163913665,0.948683298051,61606,和院,https://tabelog.com/tokyo/A1301/A130101/13034685/,ダイニングバー、ワインバー,バー・お酒,35.67084944,139.7576969,東京都中央区銀座7-108銀座コリドー街　Ｂ１Ｆ,0,999,4000,4999
"1,0.5,0,0,0","3.0,3.0,0.0,0.0,0.0",675.7437725283768,0.948683298051,64494,和もと,https://tabelog.com/tokyo/A1301/A130101/13083207/,割烹・小料理,高級和食,35.67099861,139.7646261,東京都中央区銀座4-8-12コチワビル　B1　北側,0,999,3000,3999
"1,0.5,0,0,0","3.0,3.0,0.0,0.0,0.0",518.3723220652896,0.948683298051,65007,INTHEBARREL,https://tabelog.com/tokyo/A1302/A130202/13025951/,バー、ピザ、イタリアン,洋食・西洋料理,35.68071944,139.7695408,東京都中央区日本橋3-1-14STAGE日本橋1・2F,0,999,4000,4999
"1,0.5,0,0,0","3.0,3.0,0.0,0.0,0.0",1196.496375052952,0.948683298051,63559,バルネア グリル 銀座8丁目店,https://tabelog.com/tokyo/A1301/A130101/13176425/,スペイン料理、ダイニングバー、イタリアン,洋食・西洋料理,35.6674275,139.7608494,東京都中央区銀座8-12-5峯田ビル1F,0,999,4000,4999
"1,0.5,0,0,0","3.0,3.0,0.0,0.0,0.0",641.804102055723,0.948683298051,63984,カキ酒場 北海道厚岸 日本橋本店,https://tabelog.com/tokyo/A1302/A130202/13144578/,居酒屋、魚介料理・海鮮料理、郷土料理（その他）,高級和食,35.68174083,139.7702628,東京都中央区日本橋2-2-15日本橋テイトビルB1F,1000,1999,5000,5999
"1,0.5,0,0,0","3.0,3.0,0.0,0.0,0.0",727.1766021528717,0.948683298051,60428,ゴチュ,https://tabelog.com/tokyo/A1302/A130202/13141103/,韓国料理、焼肉、韓国鍋,焼肉・ホルモン・鍋,35.68263631,139.7692449,東京都中央区八重洲1-4-41F・2F,0,999,4000,4999
