user_vec,shop_vec,dist_score,distance [m],cosθ,oaiso_score,id,shop_name,URL,genre,oaiso_genre,lat,lng,address
"0,1,0,1,0,0,0,1,0","0.0,3.0,0.0,3.0,0.0,0.0,0.0,3.0,0.0",0.8788764413961655,84.78649102268415,1.0,1.3313240774661845,20044,肉寿司 大井町店,https://tabelog.com/tokyo/A1315/A131501/13117263/,牛料理、寿司、創作料理,高級和食,35.607478,139.734095,東京都品川区東大井5-4-13
"0,1,0,1,0,0,0,1,0","0.0,3.0,0.0,3.0,0.0,0.0,0.0,3.0,0.0",0.8617151174254929,96.79941780215489,1.0,1.320057931910426,17599,洋風居酒屋 春菜亭,https://tabelog.com/tokyo/A1315/A131501/13028524/,居酒屋、洋食,居酒屋,35.60715833,139.73365,東京都品川区東大井5-15-16まめそうビル　Ｂ１Ｆ
"0,1,0,1,0,0,0,1,0","0.0,3.0,0.0,3.0,0.0,0.0,0.0,3.0,0.0",0.8477162581801829,106.59861927387195,1.0,1.3109625678801857,17519,みさき,https://tabelog.com/tokyo/A1315/A131501/13074891/,居酒屋,居酒屋,35.60754167,139.7338194,東京都品川区東大井5-3-4
"0,1,0,1,0,0,0,1,0","0.0,3.0,0.0,3.0,0.0,0.0,0.0,3.0,0.0",0.8359579173208664,114.82945787539352,1.0,1.3033900565569159,18040,餃子屋EX,https://tabelog.com/tokyo/A1315/A131501/13203810/,バー・お酒（その他）,バー・お酒,35.60754472,139.7336992,東京都品川区東大井5-3-3
"0,1,0,1,0,0,0,1,0","0.0,3.0,0.0,3.0,0.0,0.0,0.0,3.0,0.0",0.83191167927956,117.66182450430797,1.0,1.3007986170509782,20311,宮川 大井町,https://tabelog.com/tokyo/A1315/A131501/13045689/,うなぎ,高級和食,35.60719972,139.73589,東京都品川区東大井5-7-10
"0,1,0,1,0,0,0,1,0","0.0,3.0,0.0,3.0,0.0,0.0,0.0,3.0,0.0",0.8122863323036283,131.39956738746008,1.0,1.288335781404553,17954,ユイット,https://tabelog.com/tokyo/A1315/A131501/13117441/,ビストロ、ワインバー,バー・お酒,35.60756917,139.7334892,東京都品川区東大井5-3-2
"0,1,0,1,0,0,0,1,0","0.0,3.0,0.0,3.0,0.0,0.0,0.0,3.0,0.0",0.7982815009168513,141.20294935820397,1.0,1.2795520132867053,18767,牛タン いろ葉,https://tabelog.com/tokyo/A1315/A131501/13181078/,牛タン、居酒屋、焼肉,焼肉・ホルモン・鍋,35.60755972,139.7333497,東京都品川区東大井5-3-13
"0,1,0,1,0,0,0,1,0","0.0,3.0,0.0,3.0,0.0,0.0,0.0,3.0,0.0",0.7982301517534748,141.23889377256765,1.0,1.2795199784170528,19432,美寿々,https://tabelog.com/tokyo/A1315/A131501/13167874/,居酒屋,居酒屋,35.60756132,139.7333505,東京都品川区東大井5-3-13
"0,1,0,1,0,0,0,1,0","0.0,3.0,0.0,3.0,0.0,0.0,0.0,3.0,0.0",0.7708683417960447,160.3921607427687,1.0,1.2626313794545831,20094,たら福,https://tabelog.com/tokyo/A1315/A131501/13083838/,居酒屋,居酒屋,35.60784444,139.7333528,東京都品川区東大井5-2-14
"0,1,0,1,0,0,0,1,0","0.0,3.0,0.0,3.0,3.0,0.0,0.0,3.0,0.0",0.8627339361123636,96.0862447213455,0.816496580928,1.1878453229215487,20121,旬鮮料理 じょう 大井町店,https://tabelog.com/tokyo/A1315/A131501/13033234/,魚介料理・海鮮料理、居酒屋,高級和食,35.60679722,139.7336,東京都品川区東大井5-17-2野村ビル　２Ｆ
"0,1,0,1,0,0,0,1,0","0.0,3.0,0.0,3.0,0.0,0.0,0.0,0.0,3.0",0.9449094198799847,38.56340608401075,0.707106781187,1.1801922774607234,20294,藤半,https://tabelog.com/tokyo/A1315/A131501/13029458/,魚介料理・海鮮料理、郷土料理（その他）,高級和食,35.60673261,139.7342645,東京都品川区東大井5-14-19中川ビル
"0,1,0,1,0,0,0,1,0","0.0,3.0,0.0,3.0,3.0,0.0,0.0,3.0,0.0",0.8380326788797154,113.37712478419922,0.816496580928,1.1700279644252007,19975,Speak Easy,https://tabelog.com/tokyo/A1315/A131501/13060294/,バー,バー・お酒,35.60778861,139.7351975,東京都品川区東大井5-6-14
"0,1,0,1,0,0,0,1,0","0.0,3.0,0.0,3.0,0.0,0.0,0.0,3.0,0.0",0.5825957244724934,292.1829928692546,1.0,1.1573321814300461,18194,はなの舞 阪急大井町ガーデン店,https://tabelog.com/tokyo/A1315/A131501/13125286/,居酒屋,居酒屋,35.60569028,139.7317722,東京都品川区大井1-50-5阪急大井町ガーデン2F
"0,1,0,1,0,0,0,1,0","0.0,3.0,0.0,3.0,0.0,0.0,0.0,3.0,0.0",0.5797981950819504,294.1412634426347,1.0,1.1559264453330442,19092,宝田水産 阪急大井町ガーデン店,https://tabelog.com/tokyo/A1315/A131501/13165752/,寿司,高級和食,35.6053275,139.7320142,東京都品川区大井1-50-5阪急大井町ガーデン1F
"0,1,0,1,0,0,0,1,0","0.0,3.0,0.0,3.0,0.0,0.0,0.0,0.0,3.0",0.9094742173908981,63.36804782637134,0.707106781187,1.1520170797773732,20226,つるや,https://tabelog.com/tokyo/A1315/A131501/13052312/,居酒屋、割烹・小料理,高級和食,35.607367,139.734319,東京都品川区東大井5-4-9
"0,1,0,1,0,0,0,1,0","0.0,3.0,0.0,3.0,0.0,0.0,0.0,0.0,3.0",0.904450705197064,66.88450636205522,0.707106781187,1.1480553462840832,20349,らくらくや,https://tabelog.com/tokyo/A1315/A131501/13054503/,居酒屋、ビストロ,洋食・西洋料理,35.60638833,139.7342083,東京都品川区東大井5-14-16
"0,1,0,1,0,0,0,1,0","0.0,3.0,0.0,3.0,0.0,0.0,0.0,0.0,3.0",0.8957425656870056,72.98020401909608,0.707106781187,1.1412075814607698,17821,昭和浪漫,https://tabelog.com/tokyo/A1315/A131501/13033344/,居酒屋、焼鳥、和食（その他）,Ｂ級和食,35.60748583,139.73493,東京都品川区東大井5-6-11
"0,1,0,1,0,0,0,1,0","0.0,3.0,0.0,3.0,0.0,0.0,0.0,3.0,0.0",0.534484564357439,325.86080494979274,1.0,1.133875544112475,20104,ひな鳥そのだ,https://tabelog.com/tokyo/A1315/A131501/13137722/,鳥料理、焼酎バー、居酒屋,バー・お酒,35.60716806,139.7382344,東京都品川区南品川5-14-11
"0,1,0,1,0,0,0,1,0","0.0,3.0,0.0,3.0,0.0,0.0,0.0,0.0,3.0",0.8857981741714093,79.94127808001353,0.707106781187,1.133418901097649,18308,くっちゃいな 大井町店,https://tabelog.com/tokyo/A1315/A131501/13020982/,中華料理、居酒屋,アジア・エスニック、中華料理,35.60717028,139.7338567,東京都品川区東大井5-15-1
"0,1,0,1,0,0,0,1,0","0.0,3.0,0.0,3.0,0.0,0.0,0.0,0.0,3.0",0.8827189158052896,82.0967589362973,0.707106781187,1.1310140071283228,18118,くいものや陣 大井町店,https://tabelog.com/tokyo/A1315/A131501/13147758/,居酒屋,居酒屋,35.60709467,139.7337949,東京都品川区東大井5-15-16まめそうビルB1F
"0,1,0,1,0,0,0,1,0","0.0,3.0,0.0,3.0,0.0,0.0,0.0,0.0,3.0",0.8669056770735319,93.16602604852763,0.707106781187,1.118715984038093,20213,千年の宴 大井町東口駅前店,https://tabelog.com/tokyo/A1315/A131501/13052003/,居酒屋、魚介料理・海鮮料理、創作料理,高級和食,35.60671222,139.7336464,東京都品川区東大井5-17-4高山ビルＢ１Ｆ
"0,1,0,1,0,0,0,1,0","0.0,3.0,0.0,3.0,3.0,0.0,0.0,3.0,0.0",0.7572887155807647,169.89789909346476,0.816496580928,1.1136215090472306,19900,呑み処食べ処　真琴,https://tabelog.com/tokyo/A1315/A131501/13135652/,居酒屋、和食（その他）,Ｂ級和食,35.60826409,139.7338894,東京都品川区東大井5-1-8
"0,1,0,1,0,0,0,1,0","0.0,3.0,0.0,3.0,0.0,0.0,0.0,0.0,3.0",0.8566474711615633,100.34677018690567,0.707106781187,1.110785708337797,19118,金井寿司,https://tabelog.com/tokyo/A1315/A131501/13070977/,寿司,高級和食,35.607525,139.7338972,東京都品川区東大井5-3-5
"0,1,0,1,0,0,0,1,0","0.0,3.0,0.0,3.0,0.0,0.0,0.0,0.0,3.0",0.848598500810257,105.9810494328201,0.707106781187,1.1045901572879488,20175,御婆灯,https://tabelog.com/tokyo/A1315/A131501/13074402/,おでん、居酒屋,Ｂ級和食,35.60769005,139.7340634,東京都品川区東大井5-2-8
"0,1,0,1,0,0,0,1,0","0.0,3.0,0.0,3.0,0.0,0.0,0.0,0.0,3.0",0.841073327350377,111.24867085473613,0.707106781187,1.098819522023628,20027,青葉,https://tabelog.com/tokyo/A1315/A131501/13040818/,焼肉,焼肉・ホルモン・鍋,35.60711417,139.7358469,東京都品川区東大井5-7-10クレストワン２階
"0,1,0,1,0,0,0,1,0","0.0,3.0,0.0,3.0,0.0,0.0,0.0,0.0,3.0",0.8375635516092113,113.70551387355219,0.707106781187,1.0961353488434884,18220,七甲山,https://tabelog.com/tokyo/A1315/A131501/13040613/,焼肉,焼肉・ホルモン・鍋,35.60771028,139.7339439,東京都品川区東大井5-2-8
"0,1,0,1,0,0,0,1,0","0.0,3.0,0.0,3.0,0.0,0.0,0.0,0.0,3.0",0.8276618650621125,120.63669445652121,0.707106781187,1.0885881511747657,17801,YOU,https://tabelog.com/tokyo/A1315/A131501/13202566/,バー・お酒（その他）,バー・お酒,35.60762778,139.7337058,東京都品川区東大井5-2-10
"0,1,0,1,0,0,0,1,0","0.0,3.0,0.0,3.0,0.0,0.0,0.0,3.0,0.0",0.424663312871102,402.7356809902286,1.0,1.086434042774185,19974,活魚・串焼き ほんま,https://tabelog.com/tokyo/A1315/A131501/13025627/,ホルモン,焼肉・ホルモン・鍋,35.61040667,139.7336725,東京都品川区南品川6-8-26
"0,1,0,1,0,0,0,1,0","0.0,3.0,0.0,3.0,0.0,0.0,0.0,0.0,3.0",0.8091291076745875,133.6096246277888,0.707106781187,1.0745649877444705,20357,安味家,https://tabelog.com/tokyo/A1315/A131501/13101950/,中華料理、ダイニングバー,バー・お酒,35.60763517,139.7335214,東京都品川区東大井5-2-11
"0,1,0,1,0,0,0,1,0","0.0,3.0,0.0,3.0,0.0,0.0,0.0,3.0,0.0",0.3908560179001073,426.40078746992486,1.0,1.0736705391919483,19771,わらじ,https://tabelog.com/tokyo/A1315/A131501/13081256/,定食・食堂、居酒屋,居酒屋,35.60695167,139.7299522,東京都品川区大井1-22-18
"0,1,0,1,0,0,0,1,0","0.0,3.0,0.0,3.0,3.0,0.0,0.0,0.0,3.0",0.9312020283624045,48.158580146316844,0.5,1.0569471214901227,19107,大井町 よし臓2号館 焼肉居酒屋,https://tabelog.com/tokyo/A1315/A131501/13055824/,居酒屋、ホルモン、焼肉,居酒屋,35.60661222,139.7342267,東京都品川区東大井5-14-19高田ビル　3F
"0,1,0,1,0,0,0,1,0","0.0,3.0,0.0,3.0,0.0,0.0,0.0,0.0,3.0",0.7846184030695605,150.76711785130755,0.707106781187,1.0562320002894379,19958,めいくわん,https://tabelog.com/tokyo/A1315/A131501/13022616/,鉄板焼き、居酒屋,洋食・西洋料理,35.60822583,139.7346667,東京都品川区南品川6-18-18
"0,1,0,1,0,0,0,1,0","0.0,3.0,0.0,3.0,0.0,0.0,0.0,0.0,3.0",0.7799941937368952,154.00406438417335,0.707106781187,1.0528014733382876,19232,創作イタリアンちゃぶっとりあ,https://tabelog.com/tokyo/A1315/A131501/13096567/,イタリアン、パスタ、ダイニングバー,洋食・西洋料理,35.60709436,139.7363337,東京都品川区東大井5-10-10アーバンステージ大井町Ⅱ1F
"0,1,0,1,0,0,0,1,0","0.0,3.0,0.0,3.0,0.0,0.0,0.0,0.0,3.0",0.7777910372899259,155.5462738970518,0.707106781187,1.0511702515237666,17928,釣り仲間,https://tabelog.com/tokyo/A1315/A131501/13007361/,魚介料理・海鮮料理、割烹・小料理,高級和食,35.60815778,139.7353269,東京都品川区南品川5-11-42
"0,1,0,1,0,0,0,1,0","0.0,3.0,0.0,3.0,3.0,0.0,0.0,0.0,3.0",0.922497603695936,54.25167741284474,0.5,1.049286342627571,18898,お魚sun,https://tabelog.com/tokyo/A1315/A131501/13109164/,魚介料理・海鮮料理、居酒屋、和食（その他）,Ｂ級和食,35.60734914,139.7345573,東京都品川区東大井5-5-7
"0,1,0,1,0,0,0,1,0","0.0,3.0,0.0,3.0,0.0,0.0,0.0,0.0,3.0",0.7710043444181546,160.29695890729175,0.707106781187,1.0461585439653343,18758,相席屋 大井町店,https://tabelog.com/tokyo/A1315/A131501/13180722/,居酒屋,居酒屋,35.60783355,139.7333421,東京都品川区東大井5-2-13大井町大井ビル4F
"0,1,0,1,0,0,0,1,0","0.0,3.0,0.0,3.0,0.0,0.0,0.0,3.0,0.0",0.2989816634152793,490.7128356093045,1.0,1.0437384897849498,20073,まぐろダイニング美蔵 ホテルルートイン品川大井町店,https://tabelog.com/tokyo/A1315/A131501/13173340/,居酒屋、バイキング,創作料理・無国籍料理,35.60518633,139.7296476,東京都品川区大井1-35-2
"0,1,0,1,0,0,0,1,0","0.0,3.0,0.0,3.0,3.0,0.0,0.0,0.0,3.0",0.909480908794236,63.36336384403478,0.5,1.0378610328272226,19980,瓢箪,https://tabelog.com/tokyo/A1315/A131501/13022613/,居酒屋、創作料理、炭火焼き,創作料理・無国籍料理,35.6074325,139.7345594,東京都品川区東大井5-5-11サンライズビル　３Ｆ
"0,1,0,1,0,0,0,1,0","0.0,3.0,0.0,3.0,0.0,0.0,0.0,3.0,0.0",0.2774853192501704,505.76027652488074,1.0,1.037785190874956,18872,よろい,https://tabelog.com/tokyo/A1315/A131501/13138041/,焼肉,焼肉・ホルモン・鍋,35.60532917,139.7294025,東京都品川区大井1-34-7
"0,1,0,1,0,0,0,1,0","0.0,3.0,0.0,3.0,3.0,0.0,0.0,0.0,3.0",0.9091522942608521,63.593394017403554,0.5,1.0375730789490305,19521,H,https://tabelog.com/tokyo/A1315/A131501/13031730/,ダイニングバー、和食（その他）、居酒屋,Ｂ級和食,35.60694389,139.7353525,東京都品川区東大井5-12-2シティ大井町　１Ｆ・Ｂ１Ｆ
"0,1,0,1,0,0,0,1,0","0.0,3.0,0.0,3.0,0.0,0.0,0.0,0.0,3.0",0.7572887155807647,169.89789909346476,0.707106781187,1.0360917906951894,18885,広,https://tabelog.com/tokyo/A1315/A131501/13061509/,居酒屋、もつ焼き,居酒屋,35.60826409,139.7338894,東京都品川区東大井5丁目1-8
"0,1,0,1,0,0,0,1,0","0.0,3.0,0.0,3.0,3.0,0.0,0.0,0.0,3.0",0.9059321727602885,65.8474790677981,0.5,1.0347526765571458,20375,マリアナ,https://tabelog.com/tokyo/A1315/A131501/13156484/,居酒屋、ダイニングバー、ハワイ料理,バー・お酒,35.60660806,139.7340031,東京都品川区東大井5-15-10カンナビル2F
"0,1,0,1,0,0,0,1,0","0.0,3.0,0.0,3.0,3.0,0.0,0.0,0.0,3.0",0.9043239994237662,66.97320040336368,0.5,1.033345003342928,19937,唐屋利久,https://tabelog.com/tokyo/A1315/A131501/13028356/,居酒屋、魚介料理・海鮮料理、焼鳥,高級和食,35.60731667,139.7341639,東京都品川区東大井5-4-10
"0,1,0,1,0,0,0,1,0","0.0,3.0,0.0,3.0,0.0,0.0,0.0,3.0,0.0",0.2325163487731475,537.2385558587968,1.0,1.0266761185723547,17471,オステリア　トスカーナ,https://tabelog.com/tokyo/A1315/A131501/13149995/,イタリアン,洋食・西洋料理,35.60315889,139.7308442,東京都品川区大井4-6-9
"0,1,0,1,0,0,0,1,0","0.0,3.0,0.0,3.0,3.0,0.0,0.0,0.0,3.0",0.8957426486621112,72.98014593652216,0.5,1.0258435029926418,20198,ビストロ マケロニ,https://tabelog.com/tokyo/A1315/A131501/13130656/,ビストロ、ワインバー、イタリアン,洋食・西洋料理,35.60752472,139.7346664,東京都品川区東大井5-5-11サンライスビル1F
"0,1,0,1,0,0,0,1,0","0.0,3.0,0.0,3.0,3.0,0.0,0.0,0.0,3.0",0.8882345948413974,78.2357836110218,0.5,1.0192942143822172,19549,庄や 大井町店,https://tabelog.com/tokyo/A1315/A131501/13085831/,居酒屋,居酒屋,35.60705556,139.733825,東京都品川区東大井5-15-16
"0,1,0,1,0,0,0,1,0","0.0,3.0,0.0,3.0,3.0,0.0,0.0,0.0,3.0",0.8866019786296588,79.37861495923875,0.5,1.0178718330467869,19794,銀寿司,https://tabelog.com/tokyo/A1315/A131501/13071005/,寿司,高級和食,35.60616278,139.7345025,東京都品川区東大井5-14-14
"0,1,0,1,0,0,0,1,0","0.0,3.0,0.0,3.0,0.0,0.0,0.0,0.0,3.0",0.7305956682848848,188.58303220058065,0.707106781187,1.0167448207473875,17479,和食 瑞花 アトレ店,https://tabelog.com/tokyo/A1315/A131501/13030724/,居酒屋、魚介料理・海鮮料理、割烹・小料理,高級和食,35.60621,139.7327375,東京都品川区大井1-2-1アトレ大井町6F
"0,1,0,1,0,0,0,1,0","0.0,3.0,0.0,3.0,0.0,0.0,0.0,0.0,3.0",0.7305255349634379,188.6321255255935,0.707106781187,1.0166944266757918,19718,タントチッタ アトレ大井町店,https://tabelog.com/tokyo/A1315/A131501/13021826/,パスタ、イタリアン、ダイニングバー,洋食・西洋料理,35.60620944,139.7327372,東京都品川区大井1-2-1アトレ大井町6F
"0,1,0,1,0,0,0,1,0","0.0,3.0,0.0,3.0,0.0,0.0,0.0,0.0,3.0",0.7269628840342848,191.12598117600066,0.707106781187,1.0141375817725349,19968,すし京辰,https://tabelog.com/tokyo/A1315/A131501/13041924/,寿司、魚介料理・海鮮料理、海鮮丼,高級和食,35.60623222,139.7326961,東京都品川区大井1-2-1アトレ大井町6F
"0,1,0,1,0,0,0,1,0","0.0,3.0,0.0,3.0,0.0,0.0,0.0,3.0,0.0",0.16822024718380393,582.2458269713372,1.0,1.0140503200347506,19282,なるほど,https://tabelog.com/tokyo/A1315/A131501/13069378/,懐石・会席料理、割烹・小料理,高級和食,35.60520167,139.7285633,東京都品川区大井1-32-15
"0,1,0,1,0,0,0,1,0","0.0,3.0,0.0,3.0,3.0,0.0,0.0,0.0,3.0",0.8789997612317941,84.70016713774413,0.5,1.0112569308763977,19946,土間土間 大井町店,https://tabelog.com/tokyo/A1315/A131501/13052055/,居酒屋、焼鳥、ダイニングバー,バー・お酒,35.60718735,139.7338085,東京都品川区東大井5-15-1２Ｆ・３Ｆ
"0,1,0,1,0,0,0,1,0","0.0,3.0,0.0,3.0,0.0,0.0,0.0,3.0,0.0",0.14555055298704425,598.114612909069,1.0,1.0105369678912466,19202,まなpiece23,https://tabelog.com/tokyo/A1315/A131501/13167947/,居酒屋,居酒屋,35.60266306,139.730525,東京都品川区大井4-12-24
"0,1,0,1,0,0,0,1,0","0.0,3.0,0.0,3.0,0.0,0.0,0.0,3.0,0.0",0.13535986877501094,605.2480918574923,1.0,1.0091195638153034,18482,駅前酒蔵 鮫州南店,https://tabelog.com/tokyo/A1315/A131501/13085751/,居酒屋,居酒屋,35.605,139.7409333,東京都品川区東大井1-2-15
"0,1,0,1,0,0,0,1,0","0.0,3.0,0.0,3.0,3.0,0.0,0.0,0.0,3.0",0.8755005368788733,87.14962418478869,0.5,1.008216836833821,19529,かき殻荘,https://tabelog.com/tokyo/A1315/A131501/13158091/,魚介料理・海鮮料理、オイスターバー、バーベキュー,創作料理・無国籍料理,35.6076486,139.7345616,東京都品川区東大井5-4-61F～2F
"0,1,0,1,0,0,0,1,0","0.0,3.0,0.0,3.0,0.0,0.0,0.0,3.0,0.0",0.12419573617147729,613.0629846799659,1.0,1.007682777903431,19744,弦六,https://tabelog.com/tokyo/A1315/A131501/13093568/,焼鳥,Ｂ級和食,35.60410023,139.7288004,東京都品川区大井1-41-15月曜日
"0,1,0,1,0,0,0,1,0","0.0,3.0,0.0,3.0,3.0,0.0,0.0,0.0,3.0",0.8730056707329586,88.89603048692888,0.5,1.0060511424037564,19478,炭火焼肉酒家 牛角 大井町店,https://tabelog.com/tokyo/A1315/A131501/13028256/,焼肉、ホルモン、韓国料理,焼肉・ホルモン・鍋,35.60755833,139.7341611,東京都品川区東大井5-4-14
"0,1,0,1,0,0,0,1,0","0.0,3.0,0.0,3.0,0.0,0.0,0.0,3.0,0.0",0.10124663349718227,629.1273565519724,1.0,1.0051123722223863,20380,居酒屋 まつり,https://tabelog.com/tokyo/A1315/A131501/13159619/,居酒屋、魚介料理・海鮮料理、定食・食堂,居酒屋,35.60428644,139.7408395,東京都品川区東大井1-17-17
"0,1,0,1,0,0,0,1,0","0.0,3.0,0.0,3.0,0.0,0.0,0.0,3.0,0.0",0.0796987214280458,644.2108950003679,1.0,1.0031709157453008,19122,宮美,https://tabelog.com/tokyo/A1315/A131501/13065429/,焼鳥,Ｂ級和食,35.60393558,139.72852,東京都品川区大井2-27-18
"0,1,0,1,0,0,0,1,0","0.0,3.0,0.0,3.0,3.0,0.0,0.0,0.0,3.0",0.8690025031343228,91.69824780597405,0.5,1.0025793487069834,17594,大井町のひもの屋,https://tabelog.com/tokyo/A1315/A131501/13019410/,居酒屋、魚介料理・海鮮料理、ろばた焼き,高級和食,35.6074327,139.7339192,東京都品川区東大井5-4-12鈴木ビル
"0,1,0,1,0,0,0,1,0","0.0,3.0,0.0,3.0,3.0,0.0,0.0,0.0,3.0",0.8679533424954383,92.43266025319313,0.5,1.0016701077445624,17878,豚のいろ葉,https://tabelog.com/tokyo/A1315/A131501/13201908/,居酒屋、豚料理、焼肉,焼肉・ホルモン・鍋,35.60756361,139.7340975,東京都品川区東大井5-4-14
"0,1,0,1,0,0,0,1,0","0.0,3.0,0.0,3.0,3.0,0.0,0.0,0.0,3.0",0.8672289201185595,92.93975591700836,0.5,1.0010424565871334,17758,HO-bar,https://tabelog.com/tokyo/A1315/A131501/13169003/,バル・バール、西洋各国料理（その他）、ダイニングバー,洋食・西洋料理,35.60696132,139.7356762,東京都品川区東大井5-11-1DMビル1F
"0,1,0,1,0,0,0,1,0","0.0,3.0,0.0,3.0,3.0,0.0,0.0,0.0,3.0",0.8644043256394548,94.91697205238164,0.5,0.9985964340934733,17612,ホルモン酒場 福ちゃん,https://tabelog.com/tokyo/A1315/A131501/13029763/,ホルモン、居酒屋,焼肉・ホルモン・鍋,35.60683944,139.73361,東京都品川区東大井5-17-2
"0,1,0,1,0,0,0,1,0","0.0,3.0,0.0,3.0,3.0,0.0,0.0,0.0,3.0",0.8577211154871559,99.59521915899087,0.5,0.9928169579295728,19102,フレッシュホルモン かびら,https://tabelog.com/tokyo/A1315/A131501/13098583/,ホルモン、牛タン、もつ焼き,焼肉・ホルモン・鍋,35.60751558,139.7338971,東京都品川区東大井5-3-5
"0,1,0,1,0,0,0,1,0","0.0,3.0,0.0,3.0,3.0,0.0,0.0,0.0,3.0",0.8566262868672808,100.36159919290343,0.5,0.991871259464667,18987,TAKA,https://tabelog.com/tokyo/A1315/A131501/13101039/,ダイニングバー、バー、居酒屋・ダイニングバー（その他）,バー・お酒,35.60716028,139.7336092,東京都品川区東大井5-15-16まめそうビル2F
"0,1,0,1,0,0,0,1,0","0.0,3.0,0.0,3.0,3.0,0.0,0.0,0.0,3.0",0.8515694640545107,103.90137516184244,0.5,0.9875072415481755,19599,博多かわ屋 大井町店,https://tabelog.com/tokyo/A1315/A131501/13191067/,居酒屋、鳥料理、焼鳥,Ｂ級和食,35.60694417,139.7335142,東京都品川区東大井5-17-1北橋ビル2F
"0,1,0,1,0,0,0,1,0","0.0,3.0,0.0,3.0,3.0,0.0,0.0,0.0,3.0",0.8515416724986326,103.9208292509572,0.5,0.9874832758086429,19919,電雷 大井町店,https://tabelog.com/tokyo/A1315/A131501/13056414/,もつ鍋、串焼き,焼肉・ホルモン・鍋,35.60694333,139.7335139,東京都品川区東大井5-17-1北橋ビル1F
"0,1,0,1,0,0,0,1,0","0.0,3.0,0.0,3.0,3.0,0.0,0.0,0.0,3.0",0.8459368645700313,107.84419480097814,0.5,0.9826541501660568,19583,牛タン ふかざわ 大井町店,https://tabelog.com/tokyo/A1315/A131501/13190507/,居酒屋、ダイニングバー、もつ鍋,バー・お酒,35.60782167,139.7344333,東京都品川区東大井5-4-17河本ビル3F
"0,1,0,1,0,0,0,1,0","0.0,3.0,0.0,3.0,3.0,0.0,0.0,0.0,3.0",0.843622285356181,109.46440025067331,0.5,0.9806623069893049,19873,イタリアンバル バル道,https://tabelog.com/tokyo/A1315/A131501/13130425/,イタリアン、ピザ、バル・バール,洋食・西洋料理,35.606825,139.73345,東京都品川区東大井5-17-3
"0,1,0,1,0,0,0,1,0","0.0,3.0,0.0,3.0,3.0,0.0,0.0,3.0,0.0",0.5358028220929691,324.93802453492157,0.816496580928,0.9766019305886389,19303,治郎丸 大井町店,https://tabelog.com/tokyo/A1315/A131501/13181040/,焼肉、ホルモン、居酒屋,焼肉・ホルモン・鍋,35.60774583,139.7312361,東京都品川区大井1-1-9
"0,1,0,1,0,0,0,1,0","0.0,3.0,0.0,3.0,3.0,0.0,0.0,0.0,3.0",0.837266274014217,113.91360819004805,0.5,0.975199883922086,18525,玄品ふぐ 大井町の関,https://tabelog.com/tokyo/A1315/A131501/13027813/,ふぐ、鍋（その他）、懐石・会席料理,高級和食,35.60710278,139.7358806,東京都品川区東大井5-7-10クレストワン　Ｂ１Ｆ
"0,1,0,1,0,0,0,1,0","0.0,3.0,0.0,3.0,3.0,0.0,0.0,3.0,0.0",0.5308471562318251,328.4069906377224,0.816496580928,0.973891867686594,17747,CFT北一倶楽部 大井町店,https://tabelog.com/tokyo/A1315/A131501/13085851/,ジンギスカン,焼肉・ホルモン・鍋,35.60766222,139.7311658,東京都品川区大井1-1-10
"0,1,0,1,0,0,0,1,0","0.0,3.0,0.0,3.0,3.0,0.0,0.0,0.0,3.0",0.8335618678228581,116.50669252399928,0.5,0.9720212896271007,20085,よし臓,https://tabelog.com/tokyo/A1315/A131501/13038711/,焼肉、もつ鍋、居酒屋,焼肉・ホルモン・鍋,35.607745,139.7339517,東京都品川区東大井5-2-5
"0,1,0,1,0,0,0,1,0","0.0,3.0,0.0,3.0,3.0,0.0,0.0,0.0,3.0",0.8299525973829447,119.03318183193868,0.5,0.968927919869531,17543,旨唐揚げと居酒メシ ミライザカ 大井町東口駅前店,https://tabelog.com/tokyo/A1315/A131501/13052997/,居酒屋,居酒屋,35.60686806,139.7333433,東京都品川区東大井5-17-2林ビル1・2F
"0,1,0,1,0,0,0,1,0","0.0,3.0,0.0,3.0,3.0,0.0,0.0,0.0,3.0",0.8275586735255694,120.7089285321014,0.5,0.9668781506101997,17699,鹿児島県霧島市 塚田農場 大井町店,https://tabelog.com/tokyo/A1315/A131501/13188829/,居酒屋、鳥料理、もつ鍋,Ｂ級和食,35.60748167,139.7335578,東京都品川区東大井5-3-7プラザヤワタヤB1F
"0,1,0,1,0,0,0,1,0","0.0,3.0,0.0,3.0,3.0,0.0,0.0,0.0,3.0",0.8161552238520694,128.6913433035514,0.5,0.9571360140654104,20149,うまい鮨勘 大井町支店,https://tabelog.com/tokyo/A1315/A131501/13038410/,寿司、天ぷら、魚介料理・海鮮料理,高級和食,35.60795389,139.7341611,東京都品川区東大井5-1-12
"0,1,0,1,0,0,0,1,0","0.0,3.0,0.0,3.0,0.0,0.0,0.0,0.0,3.0",0.6260512281353692,261.76414030524154,0.707106781187,0.9444258257003585,18756,青森料理割烹 なか村,https://tabelog.com/tokyo/A1315/A131501/13033505/,割烹・小料理、郷土料理（その他）,高級和食,35.60457778,139.7339583,東京都品川区東大井6-5-6
"0,1,0,1,0,0,0,1,0","0.0,3.0,0.0,3.0,3.0,0.0,0.0,0.0,3.0",0.7982301517534748,141.23889377256765,0.5,0.9418977519711869,18239,がんばり亭,https://tabelog.com/tokyo/A1315/A131501/13136070/,居酒屋、おでん、焼きとん,Ｂ級和食,35.60756132,139.7333505,東京都品川区東大井5-3-13
"0,1,0,1,0,0,0,1,0","0.0,3.0,0.0,3.0,3.0,0.0,0.0,0.0,3.0",0.7975786880498633,141.69491836509562,0.5,0.9413457195055073,17521,炭火焼肉 唐がらし,https://tabelog.com/tokyo/A1315/A131501/13009403/,焼肉、居酒屋、韓国料理,焼肉・ホルモン・鍋,35.60813972,139.7345278,東京都品川区東大井5-1-9
"0,1,0,1,0,0,0,1,0","0.0,3.0,0.0,3.0,0.0,0.0,0.0,0.0,3.0",0.6186956314302005,266.9130579988597,0.707106781187,0.9395660085118098,18022,堅,https://tabelog.com/tokyo/A1315/A131501/13081786/,割烹・小料理,高級和食,35.6091,139.7335611,東京都品川区南品川6-11-26
"0,1,0,1,0,0,0,1,0","0.0,3.0,0.0,3.0,3.0,0.0,0.0,0.0,3.0",0.7905315931779441,146.62788477543918,0.5,0.93538238160255,18260,田,https://tabelog.com/tokyo/A1315/A131501/13060061/,居酒屋、割烹・小料理,高級和食,35.60570852,139.7338783,東京都品川区東大井5丁目19-6
"0,1,0,1,0,0,0,1,0","0.0,3.0,0.0,3.0,3.0,0.0,0.0,0.0,3.0",0.7899083299491167,147.06416903561828,0.5,0.934855694598371,19626,らんまん,https://tabelog.com/tokyo/A1315/A131501/13182651/,串揚げ・串かつ、寿司,高級和食,35.60760417,139.7333081,東京都品川区東大井5-3-11F・2F
"0,1,0,1,0,0,0,1,0","0.0,3.0,0.0,3.0,3.0,0.0,0.0,0.0,3.0",0.7849200482584596,150.55596621907833,0.5,0.9306446594474512,18171,酔庵たくみ,https://tabelog.com/tokyo/A1315/A131501/13033488/,居酒屋,居酒屋,35.60820147,139.7343558,東京都品川区東大井5-1-8大井ハイツ　１Ｆ
"0,1,0,1,0,0,0,1,0","0.0,3.0,0.0,3.0,3.0,0.0,0.0,0.0,3.0",0.7802578459975572,153.81950780170996,0.5,0.926715871365516,17664,鉄板料理　八天,https://tabelog.com/tokyo/A1315/A131501/13109910/,鉄板焼き、魚介料理・海鮮料理、ステーキ,洋食・西洋料理,35.60821064,139.7350752,東京都品川区南品川6-19-21F
"0,1,0,1,0,0,0,1,0","0.0,3.0,0.0,3.0,0.0,0.0,0.0,0.0,3.0",0.5978106832045639,281.5325217568053,0.707106781187,0.9259468737208995,19203,B＆M 151A,https://tabelog.com/tokyo/A1315/A131501/13014235/,豚しゃぶ、しゃぶしゃぶ、ステーキ,洋食・西洋料理,35.60472222,139.7329967,東京都品川区東大井6-2-24ドラゴンハイツ　１Ｆ
"0,1,0,1,0,0,0,1,0","0.0,3.0,0.0,3.0,0.0,0.0,0.0,0.0,3.0",0.5930152126975331,284.8893511117268,0.707106781187,0.9228580836134558,19819,日本海庄や 大井町西口店,https://tabelog.com/tokyo/A1315/A131501/13055982/,居酒屋、魚介料理・海鮮料理,高級和食,35.60769647,139.7316814,東京都品川区大井1-1-16大井デパート西館地下1階
"0,1,0,1,0,0,0,1,0","0.0,3.0,0.0,3.0,3.0,0.0,0.0,0.0,3.0",0.7710534300542715,160.26259896201,0.5,0.9189795384003158,17590,三来風,https://tabelog.com/tokyo/A1315/A131501/13044550/,焼肉,焼肉・ホルモン・鍋,35.60783345,139.7333425,東京都品川区東大井5-2-13大井ビル３階
"0,1,0,1,0,0,0,1,0","0.0,3.0,0.0,3.0,0.0,0.0,0.0,0.0,3.0",0.5798556722540947,294.10102942213365,0.707106781187,0.9144575444739073,18831,くいもの屋 わん 阪急大井町ガーデン店,https://tabelog.com/tokyo/A1315/A131501/13165842/,居酒屋,居酒屋,35.60532801,139.7320143,東京都品川区大井1-50-5阪急大井町ガーデン2F
"0,1,0,1,0,0,0,1,0","0.0,3.0,0.0,3.0,0.0,0.0,0.0,0.0,3.0",0.5607262648960394,307.49161457277245,0.707106781187,0.9024488595728088,19438,ヴィクトリー,https://tabelog.com/tokyo/A1315/A131501/13045346/,焼肉、ホルモン,焼肉・ホルモン・鍋,35.60497167,139.7321811,東京都品川区大井1-50-15
"0,1,0,1,0,0,0,1,0","0.0,2.0,0.0,3.0,3.0,0.0,0.0,0.0,3.0",0.7507262256138137,174.4916420703304,0.5,0.9019921650570822,19327,アジアンダイニング&バー シャングリラ,https://tabelog.com/tokyo/A1315/A131501/13206646/,インドカレー、タイ料理、居酒屋・ダイニングバー（その他）,バー・お酒,35.60843806,139.7347444,東京都品川区南品川6-18-19
"0,1,0,1,0,0,0,1,0","0.0,3.0,0.0,3.0,3.0,0.0,0.0,0.0,3.0",0.7506834740229419,174.52156818394064,0.5,0.901956583307175,18938,かわち屋,https://tabelog.com/tokyo/A1315/A131501/13091953/,焼鳥、居酒屋,居酒屋,35.60843833,139.7347444,東京都品川区南品川6-18-192Fこのお店は「品川区大井4-2-6」から移転しています。※移転前の情報は最新のものとは異なります。移転前の店舗情報を見る
"0,1,0,1,0,0,0,1,0","0.0,3.0,0.0,3.0,3.0,0.0,0.0,3.0,0.0",0.3584603086507752,449.07778394445734,0.816496580928,0.8917177017109593,18126,焼鳥 晋ちゃん,https://tabelog.com/tokyo/A1315/A131501/13183186/,焼鳥,Ｂ級和食,35.604,139.7311586,東京都品川区大井4-1-5ケイビル21F
"0,1,0,1,0,0,0,1,0","0.0,3.0,0.0,3.0,3.0,0.0,0.0,0.0,3.0",0.7383475770427981,183.1566960700414,0.5,0.8917158429258565,19057,八幸 すずらん通り店,https://tabelog.com/tokyo/A1315/A131501/13108429/,おでん、鳥料理、居酒屋,Ｂ級和食,35.60844694,139.7352428,東京都品川区南品川6-18-16
"0,1,0,1,0,0,0,1,0","0.0,3.0,0.0,3.0,3.0,0.0,0.0,3.0,0.0",0.3541012225525923,452.1291442131854,0.816496580928,0.8899743493381744,18823,むろと,https://tabelog.com/tokyo/A1315/A131501/13079179/,割烹・小料理、すっぽん、ふぐ,高級和食,35.60554722,139.7299361,東京都品川区大井1-25-3シティハイツ大井町1F
"0,1,0,1,0,0,0,1,0","0.0,3.0,0.0,3.0,3.0,0.0,0.0,3.0,0.0",0.33806569612495235,463.35401271253335,0.816496580928,0.8837166296744196,19367,鳥はし,https://tabelog.com/tokyo/A1315/A131501/13124330/,焼鳥,Ｂ級和食,35.60406093,139.7308697,東京都品川区大井1-55-6Ｍビル１
"0,1,0,1,0,0,0,1,0","0.0,3.0,0.0,3.0,0.0,0.0,0.0,0.0,3.0",0.5234488668466045,333.58579320737687,0.707106781187,0.8797719682980324,19833,Cafe bar μ(ミュー),https://tabelog.com/tokyo/A1315/A131501/13052996/,居酒屋、ダイニングバー,バー・お酒,35.607214,139.731,東京都品川区大井1-9-6高中ビル1F
"0,1,0,1,0,0,0,1,0","0.0,3.0,0.0,3.0,3.0,0.0,0.0,0.0,3.0",0.7223004223815946,194.38970433288372,0.5,0.8784747578460237,18183,黒ぶたや アトレ大井町店,https://tabelog.com/tokyo/A1315/A131501/13070212/,居酒屋、豚しゃぶ、バイキング,焼肉・ホルモン・鍋,35.60623139,139.7326578,東京都品川区大井1-2-1アトレ大井町6F
"0,1,0,1,0,0,0,1,0","0.0,3.0,0.0,3.0,0.0,0.0,0.0,0.0,3.0",0.48263270982903966,362.15710311967223,0.707106781187,0.8561158406412779,18182,山田寿司,https://tabelog.com/tokyo/A1315/A131501/13023094/,寿司,高級和食,35.60461583,139.7317628,東京都品川区大井1-53-6
"0,1,0,1,0,0,0,1,0","0.0,3.0,0.0,3.0,0.0,0.0,0.0,0.0,3.0",0.4766425403324432,366.3502217672898,0.707106781187,0.8527532534412077,17662,バルザル 大井町店,https://tabelog.com/tokyo/A1315/A131501/13200152/,イタリアン、バル・バール、居酒屋,洋食・西洋料理,35.6044,139.7319697,東京都品川区大井4-3-1ヴィアイン大井町1F
"0,1,0,1,0,0,0,1,0","0.0,3.0,0.0,3.0,0.0,0.0,0.0,0.0,3.0",0.4686796594039469,371.9242384172372,0.707106781187,0.8483281341196929,17926,グリルハウス バンフ,https://tabelog.com/tokyo/A1315/A131501/13003383/,ステーキ、ハンバーグ、鉄板焼き,洋食・西洋料理,35.60598333,139.7306975,東京都品川区大井1-24-4大井町センタービル1F
"0,1,0,1,0,0,0,1,0","0.0,3.0,0.0,3.0,0.0,0.0,0.0,0.0,3.0",0.4669200408920276,373.1559713755807,0.707106781187,0.84735725912192,18102,小料理 東,https://tabelog.com/tokyo/A1315/A131501/13128590/,割烹・小料理,高級和食,35.60597768,139.7306853,東京都品川区大井1-24-5大井町センタービル１０６
"0,1,0,1,0,0,0,1,0","0.0,3.0,0.0,3.0,0.0,0.0,0.0,0.0,3.0",0.4497748399110656,385.1576120622541,0.707106781187,0.8380318649174532,18067,三々五々,https://tabelog.com/tokyo/A1315/A131501/13096335/,もつ鍋、居酒屋、魚介料理・海鮮料理,高級和食,35.60753806,139.7304864,東京都品川区大井1-11-4小川ビル1F
"0,1,0,1,0,0,0,1,0","0.0,3.0,0.0,3.0,0.0,0.0,0.0,0.0,3.0",0.44293436563312955,389.9459440568093,0.707106781187,0.8343805200619335,19346,ポワソンルージュ,https://tabelog.com/tokyo/A1315/A131501/13034087/,ビストロ、フレンチ,洋食・西洋料理,35.60449028,139.7314867,東京都品川区大井1-53-8
"0,1,0,1,0,0,0,1,0","0.0,3.0,0.0,3.0,3.0,0.0,0.0,0.0,3.0",0.6632153360295892,235.7492647792876,0.5,0.830574850296372,17457,炭火焼居酒屋櫻井,https://tabelog.com/tokyo/A1315/A131501/13184513/,居酒屋、焼酎バー、炭火焼き,居酒屋,35.60487988,139.7337357,東京都品川区東大井6-5-5
"0,1,0,1,0,0,0,1,0","0.0,3.0,0.0,3.0,0.0,0.0,0.0,0.0,3.0",0.434696000069018,395.71279995168743,0.707106781187,0.8300365127366408,19038,南風 どなん,https://tabelog.com/tokyo/A1315/A131501/13050598/,沖縄料理、居酒屋,居酒屋,35.60758722,139.7303797,東京都品川区大井1-11-4小川家ビル2F
"0,1,0,1,0,0,0,1,0","0.0,3.0,0.0,3.0,0.0,0.0,0.0,0.0,3.0",0.42587309445173505,401.8888338837855,0.707106781187,0.8254501151359156,17671,沖縄の味 ぶがりの～し,https://tabelog.com/tokyo/A1315/A131501/13027389/,沖縄料理,高級和食,35.60754389,139.7302997,東京都品川区大井1-11-3ニュー森田ビル２Ｆ
"0,1,0,1,0,0,0,1,0","0.0,3.0,0.0,3.0,0.0,0.0,0.0,0.0,3.0",0.41947859502796486,406.3649834804246,0.707106781187,0.8221692597553348,20006,水炊き・焼き鳥 とりいちず 大井町西口店,https://tabelog.com/tokyo/A1315/A131501/13177683/,居酒屋、水炊き、焼鳥,Ｂ級和食,35.60754639,139.73025,東京都品川区大井1-11-3
"0,1,0,1,0,0,0,1,0","0.0,3.0,0.0,3.0,0.0,0.0,0.0,0.0,3.0",0.41665334568323287,408.342658021737,0.707106781187,0.8207313875251947,19880,Gecky,https://tabelog.com/tokyo/A1315/A131501/13143418/,イタリアン、パスタ,洋食・西洋料理,35.60599167,139.7302797,東京都品川区大井1-24-1
"0,1,0,1,0,0,0,1,0","0.0,2.0,0.0,3.0,3.0,0.0,0.0,3.0,0.0",0.010843139554059949,692.409802312158,0.816496580928,0.8165685766315376,19669,あをよこ ひなの家 青物横丁店,https://tabelog.com/tokyo/A1315/A131501/13193368/,居酒屋、創作料理、和食（その他）,Ｂ級和食,35.61013222,139.7411694,東京都品川区南品川3-5-3青横ビル3F
"0,1,0,1,0,0,0,1,0","0.0,3.0,0.0,3.0,3.0,0.0,0.0,3.0,0.0",0.010819919253677231,692.4260565224259,0.816496580928,0.8165682686213827,17707,やきとり家すみれ 青物横丁店,https://tabelog.com/tokyo/A1315/A131501/13147855/,焼鳥、鳥料理、居酒屋,Ｂ級和食,35.6101325,139.7411694,東京都品川区南品川3-5-3山崎ビル2F
"0,1,0,1,0,0,0,1,0","0.0,3.0,0.0,3.0,0.0,0.0,0.0,0.0,3.0",0.40701923554497405,415.08653511851816,0.707106781187,0.8158827477668681,19209,中国酒家　多聞天,https://tabelog.com/tokyo/A1315/A131501/13111326/,中華料理,アジア・エスニック、中華料理,35.60433839,139.7312808,東京都品川区大井1-55-3
"0,1,0,1,0,0,0,1,0","0.0,3.0,0.0,3.0,0.0,0.0,0.0,0.0,3.0",0.39787942844937807,421.48440008543537,0.707106781187,0.8113618425728459,17503,居酒屋 かもめ,https://tabelog.com/tokyo/A1315/A131501/13177555/,居酒屋,居酒屋,35.6077871,139.7301438,東京都品川区大井町1-1-16
"0,1,0,1,0,0,0,1,0","0.0,3.0,0.0,3.0,0.0,0.0,0.0,0.0,3.0",0.37294122344801356,438.9411435863905,0.707106781187,0.799428018114765,19268,大井一丁目酒場,https://tabelog.com/tokyo/A1315/A131501/13178747/,居酒屋,居酒屋,35.60706944,139.729819,東京都品川区大井1-21-6
"0,1,0,1,0,0,0,1,0","0.0,3.0,0.0,3.0,0.0,0.0,0.0,0.0,3.0",0.370009649840548,440.9932451116164,0.707106781187,0.7980646220545833,18000,ワインバー ハイジ,https://tabelog.com/tokyo/A1315/A131501/13209218/,ワインバー,バー・お酒,35.60698352,139.7297921,東京都品川区大井1-21-6
"0,1,0,1,0,0,0,1,0","0.0,3.0,0.0,3.0,0.0,3.0,0.0,0.0,3.0",0.6117023624663374,271.8083462735638,0.5,0.7900504922135663,18524,PIZZERIA&BAR CERTO! 阪急大井町ガーデン店,https://tabelog.com/tokyo/A1315/A131501/13165771/,イタリアン、居酒屋、バル・バール,洋食・西洋料理,35.60589472,139.7319036,東京都品川区大井1-50-5阪急大井町ガーデン2F
"0,1,0,1,0,0,0,1,0","0.0,3.0,0.0,3.0,3.0,0.0,0.0,0.0,3.0",0.6086341358223724,273.95610492433934,0.5,0.7876772887980495,19895,グリシーヌ,https://tabelog.com/tokyo/A1315/A131501/13183084/,バー、ビストロ,洋食・西洋料理,35.60732472,139.7376281,東京都品川区南品川5-11-24
"0,1,0,1,0,0,0,1,0","0.0,3.0,0.0,3.0,3.0,0.0,0.0,0.0,3.0",0.5897583795742626,287.1691342980162,0.5,0.7731849366600853,19875,ビストロ ドライチ,https://tabelog.com/tokyo/A1315/A131501/13147251/,イタリアン、居酒屋、ワインバー,洋食・西洋料理,35.60931806,139.7336389,東京都品川区南品川6-11-27ガーデンプラザ1F
"0,1,0,1,0,0,0,1,0","0.0,3.0,0.0,3.0,0.0,0.0,0.0,0.0,3.0",0.30858540032567494,483.99021977202756,0.707106781187,0.7715082302180301,18154,炭乃家 大井町店,https://tabelog.com/tokyo/A1315/A131501/13030666/,焼肉,焼肉・ホルモン・鍋,35.60541667,139.7296194,東京都品川区大井1-34-5
"0,1,0,1,0,0,0,1,0","0.0,3.0,0.0,3.0,0.0,0.0,0.0,0.0,3.0",0.2640050007899077,515.1964994470646,0.707106781187,0.7547838368977432,17604,プティタプティ,https://tabelog.com/tokyo/A1315/A131501/13122539/,フレンチ,洋食・西洋料理,35.60381778,139.7303689,東京都品川区大井1-43-5ソレイユ大井1F
"0,1,0,1,0,0,0,1,0","0.0,3.0,0.0,3.0,3.0,0.0,0.0,0.0,3.0",0.5649308535304138,304.5484025287103,0.5,0.7544182323291252,19791,八幸,https://tabelog.com/tokyo/A1315/A131501/13077153/,割烹・小料理、おでん,高級和食,35.60457944,139.7327994,東京都品川区東大井6-1-5
"0,1,0,1,0,0,0,1,0","0.0,3.0,0.0,3.0,3.0,0.0,0.0,0.0,3.0",0.5643121223510477,304.9815143542666,0.5,0.7539550195020547,17771,食彩　市,https://tabelog.com/tokyo/A1315/A131501/13098889/,魚介料理・海鮮料理、鍋（その他）、懐石・会席料理,高級和食,35.60457611,139.7327969,東京都品川区東大井6-1-5桐木ハイツ1F
"0,1,0,1,0,0,0,1,0","0.0,3.0,0.0,3.0,0.0,0.0,0.0,0.0,3.0",0.2517229166727124,523.7939583291013,0.707106781187,0.750576063286205,17497,俺のやきとり 大井町,https://tabelog.com/tokyo/A1315/A131501/13109557/,焼鳥、割烹・小料理,Ｂ級和食,35.60792361,139.7290228,東京都品川区大井1-1-16
"0,1,0,1,0,0,0,1,0","0.0,3.0,0.0,3.0,0.0,0.0,0.0,0.0,3.0",0.18859045364008725,567.9866824519389,0.707106781187,0.7318239946900988,17924,魚菜 由良 2号店,https://tabelog.com/tokyo/A1315/A131501/13176008/,割烹・小料理、魚介料理・海鮮料理,高級和食,35.60780083,139.7284936,東京都品川区大井1-15-1
"0,1,0,1,0,0,0,1,0","0.0,3.0,0.0,3.0,3.0,0.0,0.0,0.0,3.0",0.5278891065280721,330.4776254303496,0.5,0.7270948416754215,18730,屋台屋　博多劇場　大井町店,https://tabelog.com/tokyo/A1315/A131501/13209241/,居酒屋、餃子、もつ鍋,居酒屋,35.60729472,139.7310475,東京都品川区大井1-9-4
"0,1,0,1,0,0,0,1,0","0.0,3.0,0.0,3.0,3.0,0.0,0.0,0.0,3.0",0.5224195537975297,334.3063123417292,0.5,0.7231335908322957,18459,まかないや 大井町店,https://tabelog.com/tokyo/A1315/A131501/13095745/,居酒屋、創作料理、和食（その他）,Ｂ級和食,35.60495222,139.7318083,東京都品川区大井1-52-6コスモ大井町　１Ｆ
"0,1,0,1,0,0,0,1,0","0.0,3.0,0.0,3.0,0.0,0.0,0.0,0.0,3.0",0.09573915971685389,632.9825881982023,0.707106781187,0.7135586778277517,20146,PIZZERIA Bakka M'unica,https://tabelog.com/tokyo/A1315/A131501/13182694/,ピザ、居酒屋、イタリアン,洋食・西洋料理,35.60495139,139.7412372,東京都品川区東大井1-3-17コーポマルイノ1F
"0,1,0,1,0,0,0,1,0","0.0,3.0,0.0,3.0,0.0,0.0,0.0,0.0,3.0",0.09443553380079217,633.8951263394455,0.707106781187,0.7133849381955303,18086,ＢＡＲイーヴレース,https://tabelog.com/tokyo/A1315/A131501/13143783/,バー,バー・お酒,35.60291409,139.729606,東京都品川区大井3-5-9氏原ビル1F
"0,1,0,1,0,0,0,1,0","0.0,3.0,0.0,3.0,0.0,0.0,0.0,0.0,3.0",0.07680922256323519,646.2335442057354,0.707106781187,0.7112662347326552,18708,炭焼きイタリアン酒場 炭リッチ 青物横丁店,https://tabelog.com/tokyo/A1315/A131501/13167800/,イタリアン、ピザ、ワインバー,洋食・西洋料理,35.60965778,139.7409172,東京都品川区南品川3-5-353F
"0,1,0,1,0,0,0,1,0","0.0,3.0,0.0,3.0,0.0,0.0,0.0,0.0,3.0",0.06833454576193308,652.1658179666468,0.707106781187,0.7104010206527646,18307,もっこく屋,https://tabelog.com/tokyo/A1315/A131501/13038826/,居酒屋、郷土料理（その他）,高級和食,35.60391159,139.7284355,東京都品川区大井2-27-19
"0,1,0,1,0,0,0,1,0","0.0,3.0,0.0,3.0,0.0,0.0,0.0,0.0,3.0",0.05798768754131255,659.4086187210812,0.707106781187,0.709480494380493,20275,庄や 青物横丁店,https://tabelog.com/tokyo/A1315/A131501/13085829/,居酒屋,居酒屋,35.60984556,139.7409547,東京都品川区南品川3-5-35OTビル１Ｆ
"0,1,0,1,0,0,0,1,0","0.0,3.0,0.0,3.0,0.0,0.0,0.0,0.0,3.0",0.03783280316341055,673.5170377856126,0.707106781187,0.7081181546855025,20193,いさりび 青物横丁店,https://tabelog.com/tokyo/A1315/A131501/13022608/,居酒屋、魚介料理・海鮮料理,高級和食,35.60821389,139.741905,東京都品川区南品川3-4-11
"0,1,0,1,0,0,0,1,0","0.0,3.0,0.0,3.0,0.0,0.0,0.0,0.0,3.0",0.007899638280290446,694.4702532037967,0.707106781187,0.7071509063028621,19990,ステーキハウスB&M 大井本店,https://tabelog.com/tokyo/A1317/A131712/13008380/,ステーキ、ハンバーグ、シチュー,洋食・西洋料理,35.60905222,139.7274747,東京都品川区二葉1-7-10
"0,1,0,1,0,0,0,1,0","0.0,3.0,0.0,3.0,3.0,0.0,0.0,0.0,3.0",0.48923483683840946,357.5356142131134,0.5,0.699536078823891,19287,ひなの家　Ｂ’２ｎｄ,https://tabelog.com/tokyo/A1315/A131501/13164069/,居酒屋、ダイニングバー,バー・お酒,35.6040625,139.7327136,東京都品川区東大井6-1-7NICハイム1F
"0,1,0,1,0,0,0,1,0","0.0,3.0,0.0,3.0,3.0,0.0,0.0,0.0,3.0",0.4746447867860302,367.74864924977885,0.5,0.6894111063967248,18341,山内農場 大井町西口駅前店,https://tabelog.com/tokyo/A1315/A131501/13147078/,居酒屋、魚介料理・海鮮料理、創作料理,高級和食,35.60749639,139.7306722,東京都品川区大井1-10-2YK-5ビル4F
"0,1,0,1,0,0,0,1,0","0.0,3.0,0.0,3.0,3.0,0.0,0.0,0.0,3.0",0.46352218461836797,375.5344707671424,0.5,0.681801155494316,18201,串揚げ&泡 東京大井町 串あん,https://tabelog.com/tokyo/A1315/A131501/13163507/,串揚げ・串かつ、居酒屋、ダイニングバー,Ｂ級和食,35.60455972,139.7316247,東京都品川区大井1-53-7
"0,1,0,1,0,0,0,1,0","0.0,3.0,0.0,3.0,3.0,0.0,0.0,0.0,3.0",0.46161652627661576,376.868431606369,0.5,0.6805070295975564,19013,Cocktail&Wine KIYOMI,https://tabelog.com/tokyo/A1315/A131501/13044259/,バー,バー・お酒,35.60754056,139.7305803,東京都品川区大井1-10-1梅原ビル2階
"0,1,0,1,0,0,0,1,0","0.0,3.0,0.0,3.0,3.0,0.0,0.0,0.0,3.0",0.46059185417970877,377.5857020742039,0.5,0.6798123683316611,19444,魚箱 大井町店,https://tabelog.com/tokyo/A1315/A131501/13044837/,居酒屋、日本酒バー、魚介料理・海鮮料理,高級和食,35.60775213,139.7306332,東京都品川区大井1-1-13
"0,1,0,1,0,0,0,1,0","0.0,3.0,0.0,3.0,3.0,0.0,0.0,0.0,3.0",0.45790050359881546,379.46964748082917,0.5,0.6779917928677668,19481,炭火焼肉 にくなべ屋 神戸びいどろ 大井町店,https://tabelog.com/tokyo/A1315/A131501/13194580/,焼肉、居酒屋、鍋（その他）,焼肉・ホルモン・鍋,35.6061075,139.7305736,東京都品川区大井1-23-9
"0,1,0,1,0,0,0,1,0","0.0,3.0,0.0,3.0,3.0,0.0,0.0,0.0,3.0",0.453804953574269,382.3365324980117,0.5,0.6752325050592162,18432,わたる商店,https://tabelog.com/tokyo/A1315/A131501/13183045/,居酒屋、焼鳥、鳥料理,Ｂ級和食,35.60451896,139.7315686,東京都品川区大井1-53-8堀江ビル　1F
"0,1,0,1,0,0,0,1,0","0.0,3.0,0.0,3.0,3.0,0.0,0.0,0.0,3.0",0.43036675814474634,398.74326929867755,0.5,0.6597086830685334,19053,しゃぶしゃぶ 温野菜 大井町店,https://tabelog.com/tokyo/A1315/A131501/13026873/,しゃぶしゃぶ、バイキング、居酒屋,焼肉・ホルモン・鍋,35.60753556,139.7303331,東京都品川区大井1-11-3大井ビル　３Ｆ
"0,1,0,1,0,0,0,1,0","0.0,3.0,0.0,3.0,3.0,0.0,0.0,0.0,3.0",0.4258983440138515,401.87115919030396,0.5,0.6568024051674454,19354,ワインカフェ 大井町,https://tabelog.com/tokyo/A1315/A131501/13149124/,ダイニングバー、ワインバー、イタリアン,バー・お酒,35.60756958,139.730306,東京都品川区大井1-11-3ニュー森田ビル5F
"0,1,0,1,0,0,0,1,0","0.0,3.0,0.0,3.0,3.0,0.0,0.0,0.0,3.0",0.4258561278262029,401.90071052165797,0.5,0.6567750311995176,20025,晴天の月 大井町,https://tabelog.com/tokyo/A1315/A131501/13119643/,居酒屋、魚介料理・海鮮料理、日本酒バー,高級和食,35.60756806,139.7303053,東京都品川区大井1-11-3YK-6ビル5F
"0,1,0,1,0,0,0,1,0","0.0,3.0,0.0,3.0,3.0,0.0,0.0,0.0,3.0",0.425835198914916,401.9153607595588,0.5,0.656761460984813,19999,手作り料理 大井町の名物家,https://tabelog.com/tokyo/A1315/A131501/13097646/,居酒屋、ビアバー、居酒屋・ダイニングバー（その他）,居酒屋,35.6075675,139.730305,東京都品川区大井1-11-3銀泉大井町ビル　3F
"0,1,0,1,0,0,0,1,0","0.0,3.0,0.0,3.0,3.0,0.0,0.0,0.0,3.0",0.411342676706878,412.0601263051854,0.5,0.6474587227618291,18520,唐揚げと手作り家庭料理 あおば 大井町酒場,https://tabelog.com/tokyo/A1315/A131501/13030949/,定食・食堂、居酒屋,居酒屋,35.60588444,139.7302714,東京都品川区大井1-24-10ＫｏＡビル　Ｂ１Ｆ
"0,1,0,1,0,0,0,1,0","0.0,3.0,0.0,3.0,3.0,0.0,0.0,0.0,3.0",0.37257493179723783,439.19754774193353,0.5,0.6235479771466799,19704,軍鶏チュー,https://tabelog.com/tokyo/A1315/A131501/13139916/,居酒屋、焼鳥、串焼き,居酒屋,35.60567798,139.7300337,東京都品川区大井1-25-3シティーハイツ大井町105このお店は「品川区南品川6-11-27」から移転しています。※移転前の情報は最新のものとは異なります。移転前の店舗情報を見る
"0,1,0,1,0,0,0,1,0","0.0,3.0,0.0,3.0,3.0,0.0,0.0,0.0,3.0",0.3685192171441648,442.03654799908463,0.5,0.6211331688169197,20159,おぎ,https://tabelog.com/tokyo/A1315/A131501/13168514/,割烹・小料理、韓国料理,高級和食,35.6069518,139.7297796,東京都品川区大井1-21-6
"0,1,0,1,0,0,0,1,0","0.0,3.0,0.0,3.0,3.0,0.0,0.0,0.0,3.0",0.3664833535435129,443.46165251954096,0.5,0.6199274541625814,18514,まんぷく,https://tabelog.com/tokyo/A1315/A131501/13179895/,焼肉、韓国料理、居酒屋,焼肉・ホルモン・鍋,35.60758917,139.7298433,東京都品川区大井1-11-10
"0,1,0,1,0,0,0,1,0","0.0,3.0,0.0,3.0,3.0,0.0,0.0,0.0,3.0",0.3664494975504059,443.4853517147159,0.5,0.6199074400706487,18605,魚菜　由良,https://tabelog.com/tokyo/A1315/A131501/13120584/,割烹・小料理、魚介料理・海鮮料理,高級和食,35.6070325,139.7297667,東京都品川区大井1丁目21-5
"0,1,0,1,0,0,0,1,0","0.0,3.0,0.0,3.0,3.0,0.0,0.0,0.0,3.0",0.32525352032853994,472.32253577002206,0.5,0.5964812255939896,17515,地酒屋のぼる,https://tabelog.com/tokyo/A1315/A131501/13151396/,居酒屋、日本酒バー,バー・お酒,35.6054975,139.7297214,東京都品川区大井1-25-91F
"0,1,0,1,0,0,0,1,0","0.0,3.0,0.0,3.0,3.0,0.0,0.0,0.0,3.0",0.2973988685013337,491.8207920490664,0.5,0.5817611941216718,18726,ふわり,https://tabelog.com/tokyo/A1315/A131501/13150902/,お好み焼き、鉄板焼き、居酒屋,洋食・西洋料理,35.60378028,139.7307614,東京都品川区大井4-1-2ひろせビルB1F
"0,1,0,1,0,0,0,1,0","0.0,3.0,0.0,3.0,3.0,0.0,0.0,0.0,3.0",0.20485140623490597,556.6040156355658,0.5,0.5403370231960961,17652,たもん,https://tabelog.com/tokyo/A1315/A131501/13105022/,居酒屋,居酒屋,35.60382694,139.7297706,東京都品川区大井1-42-8
"0,1,0,1,0,0,0,1,0","0.0,3.0,0.0,3.0,3.0,0.0,0.0,0.0,3.0",0.1882604224480167,568.2177042863883,0.5,0.534267710666016,17859,燻製キッチン,https://tabelog.com/tokyo/A1315/A131501/13060616/,ダイニングバー、ビストロ、イタリアン,洋食・西洋料理,35.60334139,139.7301086,東京都品川区大井3-4-8
"0,1,0,1,0,0,0,1,0","0.0,3.0,0.0,3.0,3.0,0.0,0.0,0.0,3.0",0.12132120412271905,615.0751571140967,0.5,0.5145083425657804,17729,大井町 日本酒 宵月,https://tabelog.com/tokyo/A1315/A131501/13192489/,割烹・小料理,高級和食,35.60409833,139.7287761,東京都品川区大井1-41-1薩田ビル1F
"0,1,0,1,0,0,0,1,0","0.0,3.0,0.0,3.0,3.0,0.0,0.0,0.0,3.0",0.10601323663666823,625.7907343543322,0.5,0.5111152573952202,19391,van-vino 青物横丁,https://tabelog.com/tokyo/A1315/A131501/13128427/,ダイニングバー、ワインバー,バー・お酒,35.61009611,139.7403197,東京都品川区南品川2-4-4
"0,1,0,1,0,0,0,1,0","0.0,3.0,0.0,3.0,3.0,0.0,0.0,0.0,3.0",0.10488843695598624,626.5780941308096,0.5,0.5108831414394782,18653,Bar たしろ,https://tabelog.com/tokyo/A1315/A131501/13149922/,バー,バー・お酒,35.61011361,139.7403153,東京都品川区南品川2-4-4グリーングラスビル2F
"0,1,0,1,0,0,0,1,0","0.0,3.0,0.0,3.0,3.0,0.0,0.0,0.0,3.0",0.04793466938940729,666.4457314274149,0.5,0.5022924770783171,18134,品川　漢城軒,https://tabelog.com/tokyo/A1314/A131405/13189307/,焼肉、ホルモン、韓国料理,焼肉・ホルモン・鍋,35.61065583,139.7403645,東京都品川区南品川2-4-7アサミビル3F
"0,1,0,1,0,0,0,1,0","0.0,3.0,0.0,3.0,3.0,0.0,0.0,0.0,3.0",0.017490544339265657,687.756618962514,0.5,0.5003058256119789,18394,ふうこうめいび,https://tabelog.com/tokyo/A1315/A131501/13155813/,居酒屋、魚介料理・海鮮料理、鍋（その他）,高級和食,35.61068083,139.7406408,東京都品川区南品川2-5-1
"0,1,0,1,0,0,0,1,0","0.0,3.0,0.0,3.0,3.0,0.0,0.0,0.0,3.0",0.009619111522929902,693.2666219339491,0.5,0.5000925187467721,17704,藍の家 大井町店,https://tabelog.com/tokyo/A1317/A131712/13059181/,うなぎ,高級和食,35.60756083,139.7270531,東京都品川区二葉1-17-2
"0,1,0,1,0,0,0,1,0","0.0,3.0,0.0,3.0,3.0,0.0,0.0,0.0,3.0",0.009295974915824314,693.492817558923,0.5,0.5000864076833479,17469,焼肉 乙ちゃん,https://tabelog.com/tokyo/A1315/A131501/13154344/,焼肉、ホルモン、居酒屋,焼肉・ホルモン・鍋,35.6021713,139.7397083,東京都品川区東大井2-5-13乙川ビル1F
"0,1,0,1,0,0,0,1,0","0.0,3.0,0.0,3.0,3.0,0.0,0.0,0.0,3.0",0.003918520904453382,697.2570353668826,0.5,0.5000153545703158,19402,魚ちょ,https://tabelog.com/tokyo/A1317/A131712/13052615/,魚介料理・海鮮料理、創作料理、懐石・会席料理,高級和食,35.6089825,139.7274108,東京都品川区二葉1-7-11
"0,1,0,1,0,0,0,0,1","0.0,3.0,0.0,3.0,0.0,0.0,0.0,0.0,3.0",0.9449094198799847,38.56340608401075,1.0,1.375810238287944,20294,藤半,https://tabelog.com/tokyo/A1315/A131501/13029458/,魚介料理・海鮮料理、郷土料理（その他）,高級和食,35.60673261,139.7342645,東京都品川区東大井5-14-19中川ビル
"0,1,0,1,0,0,0,0,1","0.0,3.0,0.0,3.0,0.0,0.0,0.0,0.0,3.0",0.9094742173908981,63.36804782637134,1.0,1.3517186660317992,20226,つるや,https://tabelog.com/tokyo/A1315/A131501/13052312/,居酒屋、割烹・小料理,高級和食,35.607367,139.734319,東京都品川区東大井5-4-9
"0,1,0,1,0,0,0,0,1","0.0,3.0,0.0,3.0,0.0,0.0,0.0,0.0,3.0",0.904450705197064,66.88450636205522,1.0,1.3483438278612272,20349,らくらくや,https://tabelog.com/tokyo/A1315/A131501/13054503/,居酒屋、ビストロ,洋食・西洋料理,35.60638833,139.7342083,東京都品川区東大井5-14-16
"0,1,0,1,0,0,0,0,1","0.0,3.0,0.0,3.0,0.0,0.0,0.0,0.0,3.0",0.8957425656870056,72.98020401909608,1.0,1.342518060952455,17821,昭和浪漫,https://tabelog.com/tokyo/A1315/A131501/13033344/,居酒屋、焼鳥、和食（その他）,Ｂ級和食,35.60748583,139.73493,東京都品川区東大井5-6-11
"0,1,0,1,0,0,0,0,1","0.0,3.0,0.0,3.0,0.0,0.0,0.0,0.0,3.0",0.8857981741714093,79.94127808001353,1.0,1.3359035913438524,18308,くっちゃいな 大井町店,https://tabelog.com/tokyo/A1315/A131501/13020982/,中華料理、居酒屋,アジア・エスニック、中華料理,35.60717028,139.7338567,東京都品川区東大井5-15-1
"0,1,0,1,0,0,0,0,1","0.0,3.0,0.0,3.0,0.0,0.0,0.0,0.0,3.0",0.8827189158052896,82.0967589362973,1.0,1.333863817756695,18118,くいものや陣 大井町店,https://tabelog.com/tokyo/A1315/A131501/13147758/,居酒屋,居酒屋,35.60709467,139.7337949,東京都品川区東大井5-15-16まめそうビルB1F
"0,1,0,1,0,0,0,0,1","0.0,3.0,0.0,3.0,0.0,0.0,0.0,0.0,3.0",0.8669056770735319,93.16602604852763,1.0,1.323452096957921,20213,千年の宴 大井町東口駅前店,https://tabelog.com/tokyo/A1315/A131501/13052003/,居酒屋、魚介料理・海鮮料理、創作料理,高級和食,35.60671222,139.7336464,東京都品川区東大井5-17-4高山ビルＢ１Ｆ
"0,1,0,1,0,0,0,0,1","0.0,3.0,0.0,3.0,0.0,0.0,0.0,0.0,3.0",0.8566474711615633,100.34677018690567,1.0,1.3167554404093045,19118,金井寿司,https://tabelog.com/tokyo/A1315/A131501/13070977/,寿司,高級和食,35.607525,139.7338972,東京都品川区東大井5-3-5
"0,1,0,1,0,0,0,0,1","0.0,3.0,0.0,3.0,0.0,0.0,0.0,0.0,3.0",0.848598500810257,105.9810494328201,1.0,1.3115332308323018,20175,御婆灯,https://tabelog.com/tokyo/A1315/A131501/13074402/,おでん、居酒屋,Ｂ級和食,35.60769005,139.7340634,東京都品川区東大井5-2-8
"0,1,0,1,0,0,0,0,1","0.0,3.0,0.0,3.0,0.0,0.0,0.0,0.0,3.0",0.841073327350377,111.24867085473613,1.0,1.3066768315005184,20027,青葉,https://tabelog.com/tokyo/A1315/A131501/13040818/,焼肉,焼肉・ホルモン・鍋,35.60711417,139.7358469,東京都品川区東大井5-7-10クレストワン２階
"0,1,0,1,0,0,0,0,1","0.0,3.0,0.0,3.0,0.0,0.0,0.0,0.0,3.0",0.8375635516092113,113.70551387355219,1.0,1.3044204471658039,18220,七甲山,https://tabelog.com/tokyo/A1315/A131501/13040613/,焼肉,焼肉・ホルモン・鍋,35.60771028,139.7339439,東京都品川区東大井5-2-8
"0,1,0,1,0,0,0,0,1","0.0,3.0,0.0,3.0,0.0,0.0,0.0,0.0,3.0",0.8276618650621125,120.63669445652121,1.0,1.298084805734238,17801,YOU,https://tabelog.com/tokyo/A1315/A131501/13202566/,バー・お酒（その他）,バー・お酒,35.60762778,139.7337058,東京都品川区東大井5-2-10
"0,1,0,1,0,0,0,0,1","0.0,3.0,0.0,3.0,0.0,0.0,0.0,0.0,3.0",0.8091291076745875,133.6096246277888,1.0,1.286347508601884,20357,安味家,https://tabelog.com/tokyo/A1315/A131501/13101950/,中華料理、ダイニングバー,バー・お酒,35.60763517,139.7335214,東京都品川区東大井5-2-11
"0,1,0,1,0,0,0,0,1","0.0,3.0,0.0,3.0,0.0,0.0,0.0,0.0,3.0",0.7846184030695605,150.76711785130755,1.0,1.2710727903764707,19958,めいくわん,https://tabelog.com/tokyo/A1315/A131501/13022616/,鉄板焼き、居酒屋,洋食・西洋料理,35.60822583,139.7346667,東京都品川区南品川6-18-18
"0,1,0,1,0,0,0,0,1","0.0,3.0,0.0,3.0,0.0,0.0,0.0,0.0,3.0",0.7799941937368952,154.00406438417335,1.0,1.2682235379708378,19232,創作イタリアンちゃぶっとりあ,https://tabelog.com/tokyo/A1315/A131501/13096567/,イタリアン、パスタ、ダイニングバー,洋食・西洋料理,35.60709436,139.7363337,東京都品川区東大井5-10-10アーバンステージ大井町Ⅱ1F
"0,1,0,1,0,0,0,0,1","0.0,3.0,0.0,3.0,0.0,0.0,0.0,0.0,3.0",0.7777910372899259,155.5462738970518,1.0,1.2668697240397446,17928,釣り仲間,https://tabelog.com/tokyo/A1315/A131501/13007361/,魚介料理・海鮮料理、割烹・小料理,高級和食,35.60815778,139.7353269,東京都品川区南品川5-11-42
"0,1,0,1,0,0,0,0,1","0.0,3.0,0.0,3.0,0.0,0.0,0.0,0.0,3.0",0.7710043444181546,160.29695890729175,1.0,1.2627144170839535,18758,相席屋 大井町店,https://tabelog.com/tokyo/A1315/A131501/13180722/,居酒屋,居酒屋,35.60783355,139.7333421,東京都品川区東大井5-2-13大井町大井ビル4F
"0,1,0,1,0,0,0,0,1","0.0,3.0,0.0,3.0,0.0,0.0,0.0,0.0,3.0",0.7572887155807647,169.89789909346476,1.0,1.254386781956014,18885,広,https://tabelog.com/tokyo/A1315/A131501/13061509/,居酒屋、もつ焼き,居酒屋,35.60826409,139.7338894,東京都品川区東大井5丁目1-8
"0,1,0,1,0,0,0,0,1","0.0,3.0,0.0,3.0,0.0,0.0,0.0,0.0,3.0",0.7305956682848848,188.58303220058065,1.0,1.2384546945757189,17479,和食 瑞花 アトレ店,https://tabelog.com/tokyo/A1315/A131501/13030724/,居酒屋、魚介料理・海鮮料理、割烹・小料理,高級和食,35.60621,139.7327375,東京都品川区大井1-2-1アトレ大井町6F
"0,1,0,1,0,0,0,0,1","0.0,3.0,0.0,3.0,0.0,0.0,0.0,0.0,3.0",0.7305255349634379,188.6321255255935,1.0,1.2384133224548326,19718,タントチッタ アトレ大井町店,https://tabelog.com/tokyo/A1315/A131501/13021826/,パスタ、イタリアン、ダイニングバー,洋食・西洋料理,35.60620944,139.7327372,東京都品川区大井1-2-1アトレ大井町6F
"0,1,0,1,0,0,0,0,1","0.0,3.0,0.0,3.0,0.0,0.0,0.0,0.0,3.0",0.7269628840342848,191.12598117600066,1.0,1.2363151033468145,19968,すし京辰,https://tabelog.com/tokyo/A1315/A131501/13041924/,寿司、魚介料理・海鮮料理、海鮮丼,高級和食,35.60623222,139.7326961,東京都品川区大井1-2-1アトレ大井町6F
"0,1,0,1,0,0,0,0,1","0.0,3.0,0.0,3.0,0.0,0.0,0.0,0.0,3.0",0.6260512281353692,261.76414030524154,1.0,1.179805128082517,18756,青森料理割烹 なか村,https://tabelog.com/tokyo/A1315/A131501/13033505/,割烹・小料理、郷土料理（その他）,高級和食,35.60457778,139.7339583,東京都品川区東大井6-5-6
"0,1,0,1,0,0,0,0,1","0.0,3.0,0.0,3.0,0.0,0.0,0.0,0.0,3.0",0.6186956314302005,266.9130579988597,1.0,1.1759184854192974,18022,堅,https://tabelog.com/tokyo/A1315/A131501/13081786/,割烹・小料理,高級和食,35.6091,139.7335611,東京都品川区南品川6-11-26
"0,1,0,1,0,0,0,0,1","0.0,3.0,0.0,3.0,3.0,0.0,0.0,0.0,3.0",0.9312020283624045,48.158580146316844,0.707106781187,1.1692464315217117,19107,大井町 よし臓2号館 焼肉居酒屋,https://tabelog.com/tokyo/A1315/A131501/13055824/,居酒屋、ホルモン、焼肉,居酒屋,35.60661222,139.7342267,東京都品川区東大井5-14-19高田ビル　3F
"0,1,0,1,0,0,0,0,1","0.0,3.0,0.0,3.0,0.0,0.0,0.0,0.0,3.0",0.5978106832045639,281.5325217568053,1.0,1.165065497280521,19203,B＆M 151A,https://tabelog.com/tokyo/A1315/A131501/13014235/,豚しゃぶ、しゃぶしゃぶ、ステーキ,洋食・西洋料理,35.60472222,139.7329967,東京都品川区東大井6-2-24ドラゴンハイツ　１Ｆ
"0,1,0,1,0,0,0,0,1","0.0,3.0,0.0,3.0,0.0,0.0,0.0,0.0,3.0",0.5930152126975331,284.8893511117268,1.0,1.1626121634021813,19819,日本海庄や 大井町西口店,https://tabelog.com/tokyo/A1315/A131501/13055982/,居酒屋、魚介料理・海鮮料理,高級和食,35.60769647,139.7316814,東京都品川区大井1-1-16大井デパート西館地下1階
"0,1,0,1,0,0,0,0,1","0.0,3.0,0.0,3.0,3.0,0.0,0.0,0.0,3.0",0.922497603695936,54.25167741284474,0.707106781187,1.1623260423929012,18898,お魚sun,https://tabelog.com/tokyo/A1315/A131501/13109164/,魚介料理・海鮮料理、居酒屋、和食（その他）,Ｂ級和食,35.60734914,139.7345573,東京都品川区東大井5-5-7
"0,1,0,1,0,0,0,0,1","0.0,3.0,0.0,3.0,0.0,0.0,0.0,0.0,3.0",0.5798556722540947,294.10102942213365,1.0,1.1559552762305505,18831,くいもの屋 わん 阪急大井町ガーデン店,https://tabelog.com/tokyo/A1315/A131501/13165842/,居酒屋,居酒屋,35.60532801,139.7320143,東京都品川区大井1-50-5阪急大井町ガーデン2F
"0,1,0,1,0,0,0,0,1","0.0,3.0,0.0,3.0,3.0,0.0,0.0,0.0,3.0",0.909480908794236,63.36336384403478,0.707106781187,1.1520223623963164,19980,瓢箪,https://tabelog.com/tokyo/A1315/A131501/13022613/,居酒屋、創作料理、炭火焼き,創作料理・無国籍料理,35.6074325,139.7345594,東京都品川区東大井5-5-11サンライズビル　３Ｆ
"0,1,0,1,0,0,0,0,1","0.0,3.0,0.0,3.0,3.0,0.0,0.0,0.0,3.0",0.9091522942608521,63.593394017403554,0.707106781187,1.1517629505066445,19521,H,https://tabelog.com/tokyo/A1315/A131501/13031730/,ダイニングバー、和食（その他）、居酒屋,Ｂ級和食,35.60694389,139.7353525,東京都品川区東大井5-12-2シティ大井町　１Ｆ・Ｂ１Ｆ
"0,1,0,1,0,0,0,0,1","0.0,3.0,0.0,3.0,3.0,0.0,0.0,0.0,3.0",0.9059321727602885,65.8474790677981,0.707106781187,1.1492228250614314,20375,マリアナ,https://tabelog.com/tokyo/A1315/A131501/13156484/,居酒屋、ダイニングバー、ハワイ料理,バー・お酒,35.60660806,139.7340031,東京都品川区東大井5-15-10カンナビル2F
"0,1,0,1,0,0,0,0,1","0.0,3.0,0.0,3.0,3.0,0.0,0.0,0.0,3.0",0.9043239994237662,66.97320040336368,0.707106781187,1.147955528726525,19937,唐屋利久,https://tabelog.com/tokyo/A1315/A131501/13028356/,居酒屋、魚介料理・海鮮料理、焼鳥,高級和食,35.60731667,139.7341639,東京都品川区東大井5-4-10
"0,1,0,1,0,0,0,0,1","0.0,3.0,0.0,3.0,0.0,0.0,0.0,0.0,3.0",0.5607262648960394,307.49161457277245,1.0,1.146478933144549,19438,ヴィクトリー,https://tabelog.com/tokyo/A1315/A131501/13045346/,焼肉、ホルモン,焼肉・ホルモン・鍋,35.60497167,139.7321811,東京都品川区大井1-50-15
"0,1,0,1,0,0,0,0,1","0.0,3.0,0.0,3.0,3.0,0.0,0.0,0.0,3.0",0.8957426486621112,72.98014593652216,0.707106781187,1.1412076465885665,20198,ビストロ マケロニ,https://tabelog.com/tokyo/A1315/A131501/13130656/,ビストロ、ワインバー、イタリアン,洋食・西洋料理,35.60752472,139.7346664,東京都品川区東大井5-5-11サンライスビル1F
"0,1,0,1,0,0,0,0,1","0.0,3.0,0.0,3.0,3.0,0.0,0.0,0.0,3.0",0.8882345948413974,78.2357836110218,0.707106781187,1.1353240486632272,19549,庄や 大井町店,https://tabelog.com/tokyo/A1315/A131501/13085831/,居酒屋,居酒屋,35.60705556,139.733825,東京都品川区東大井5-15-16
"0,1,0,1,0,0,0,0,1","0.0,3.0,0.0,3.0,3.0,0.0,0.0,0.0,3.0",0.8866019786296588,79.37861495923875,0.707106781187,1.134047207355155,19794,銀寿司,https://tabelog.com/tokyo/A1315/A131501/13071005/,寿司,高級和食,35.60616278,139.7345025,東京都品川区東大井5-14-14
"0,1,0,1,0,0,0,0,1","0.0,3.0,0.0,3.0,0.0,0.0,0.0,0.0,3.0",0.5234488668466045,333.58579320737687,1.0,1.1287155160637221,19833,Cafe bar μ(ミュー),https://tabelog.com/tokyo/A1315/A131501/13052996/,居酒屋、ダイニングバー,バー・お酒,35.607214,139.731,東京都品川区大井1-9-6高中ビル1F
"0,1,0,1,0,0,0,0,1","0.0,3.0,0.0,3.0,3.0,0.0,0.0,0.0,3.0",0.8789997612317941,84.70016713774413,0.707106781187,1.128113726645302,19946,土間土間 大井町店,https://tabelog.com/tokyo/A1315/A131501/13052055/,居酒屋、焼鳥、ダイニングバー,バー・お酒,35.60718735,139.7338085,東京都品川区東大井5-15-1２Ｆ・３Ｆ
"0,1,0,1,0,0,0,0,1","0.0,3.0,0.0,3.0,0.0,0.0,0.0,3.0,0.0",0.8788764413961655,84.78649102268415,0.707106781187,1.1280176413696674,20044,肉寿司 大井町店,https://tabelog.com/tokyo/A1315/A131501/13117263/,牛料理、寿司、創作料理,高級和食,35.607478,139.734095,東京都品川区東大井5-4-13
"0,1,0,1,0,0,0,0,1","0.0,3.0,0.0,3.0,3.0,0.0,0.0,0.0,3.0",0.8755005368788733,87.14962418478869,0.707106781187,1.1253893504361925,19529,かき殻荘,https://tabelog.com/tokyo/A1315/A131501/13158091/,魚介料理・海鮮料理、オイスターバー、バーベキュー,創作料理・無国籍料理,35.6076486,139.7345616,東京都品川区東大井5-4-61F～2F
"0,1,0,1,0,0,0,0,1","0.0,3.0,0.0,3.0,3.0,0.0,0.0,0.0,3.0",0.8730056707329586,88.89603048692888,0.707106781187,1.1234495543333947,19478,炭火焼肉酒家 牛角 大井町店,https://tabelog.com/tokyo/A1315/A131501/13028256/,焼肉、ホルモン、韓国料理,焼肉・ホルモン・鍋,35.60755833,139.7341611,東京都品川区東大井5-4-14
"0,1,0,1,0,0,0,0,1","0.0,3.0,0.0,3.0,3.0,0.0,0.0,0.0,3.0",0.8690025031343228,91.69824780597405,0.707106781187,1.120341622208922,17594,大井町のひもの屋,https://tabelog.com/tokyo/A1315/A131501/13019410/,居酒屋、魚介料理・海鮮料理、ろばた焼き,高級和食,35.6074327,139.7339192,東京都品川区東大井5-4-12鈴木ビル
"0,1,0,1,0,0,0,0,1","0.0,3.0,0.0,3.0,3.0,0.0,0.0,0.0,3.0",0.8679533424954383,92.43266025319313,0.707106781187,1.1195280276746107,17878,豚のいろ葉,https://tabelog.com/tokyo/A1315/A131501/13201908/,居酒屋、豚料理、焼肉,焼肉・ホルモン・鍋,35.60756361,139.7340975,東京都品川区東大井5-4-14
"0,1,0,1,0,0,0,0,1","0.0,3.0,0.0,3.0,3.0,0.0,0.0,0.0,3.0",0.8672289201185595,92.93975591700836,0.707106781187,1.1189664873846772,17758,HO-bar,https://tabelog.com/tokyo/A1315/A131501/13169003/,バル・バール、西洋各国料理（その他）、ダイニングバー,洋食・西洋料理,35.60696132,139.7356762,東京都品川区東大井5-11-1DMビル1F
"0,1,0,1,0,0,0,0,1","0.0,3.0,0.0,3.0,3.0,0.0,0.0,0.0,3.0",0.8644043256394548,94.91697205238164,0.707106781187,1.1167787776387053,17612,ホルモン酒場 福ちゃん,https://tabelog.com/tokyo/A1315/A131501/13029763/,ホルモン、居酒屋,焼肉・ホルモン・鍋,35.60683944,139.73361,東京都品川区東大井5-17-2
"0,1,0,1,0,0,0,0,1","0.0,3.0,0.0,3.0,0.0,0.0,0.0,3.0,0.0",0.8617151174254929,96.79941780215489,0.707106781187,1.1146985886775094,17599,洋風居酒屋 春菜亭,https://tabelog.com/tokyo/A1315/A131501/13028524/,居酒屋、洋食,居酒屋,35.60715833,139.73365,東京都品川区東大井5-15-16まめそうビル　Ｂ１Ｆ
"0,1,0,1,0,0,0,0,1","0.0,3.0,0.0,3.0,3.0,0.0,0.0,0.0,3.0",0.8577211154871559,99.59521915899087,0.707106781187,1.111613922165664,19102,フレッシュホルモン かびら,https://tabelog.com/tokyo/A1315/A131501/13098583/,ホルモン、牛タン、もつ焼き,焼肉・ホルモン・鍋,35.60751558,139.7338971,東京都品川区東大井5-3-5
"0,1,0,1,0,0,0,0,1","0.0,3.0,0.0,3.0,3.0,0.0,0.0,0.0,3.0",0.8566262868672808,100.36159919290343,0.707106781187,1.1107693709101025,18987,TAKA,https://tabelog.com/tokyo/A1315/A131501/13101039/,ダイニングバー、バー、居酒屋・ダイニングバー（その他）,バー・お酒,35.60716028,139.7336092,東京都品川区東大井5-15-16まめそうビル2F
"0,1,0,1,0,0,0,0,1","0.0,3.0,0.0,3.0,0.0,0.0,0.0,0.0,3.0",0.48263270982903966,362.15710311967223,1.0,1.110375761891857,18182,山田寿司,https://tabelog.com/tokyo/A1315/A131501/13023094/,寿司,高級和食,35.60461583,139.7317628,東京都品川区大井1-53-6
"0,1,0,1,0,0,0,0,1","0.0,3.0,0.0,3.0,0.0,0.0,0.0,0.0,3.0",0.4766425403324432,366.3502217672898,1.0,1.107785227945636,17662,バルザル 大井町店,https://tabelog.com/tokyo/A1315/A131501/13200152/,イタリアン、バル・バール、居酒屋,洋食・西洋料理,35.6044,139.7319697,東京都品川区大井4-3-1ヴィアイン大井町1F
"0,1,0,1,0,0,0,0,1","0.0,3.0,0.0,3.0,3.0,0.0,0.0,0.0,3.0",0.8515694640545107,103.90137516184244,0.707106781187,1.1068742259670188,19599,博多かわ屋 大井町店,https://tabelog.com/tokyo/A1315/A131501/13191067/,居酒屋、鳥料理、焼鳥,Ｂ級和食,35.60694417,139.7335142,東京都品川区東大井5-17-1北橋ビル2F
"0,1,0,1,0,0,0,0,1","0.0,3.0,0.0,3.0,3.0,0.0,0.0,0.0,3.0",0.8515416724986326,103.9208292509572,0.707106781187,1.1068528447818926,19919,電雷 大井町店,https://tabelog.com/tokyo/A1315/A131501/13056414/,もつ鍋、串焼き,焼肉・ホルモン・鍋,35.60694333,139.7335139,東京都品川区東大井5-17-1北橋ビル1F
"0,1,0,1,0,0,0,0,1","0.0,3.0,0.0,3.0,0.0,0.0,0.0,0.0,3.0",0.4686796594039469,371.9242384172372,1.0,1.1043824623467178,17926,グリルハウス バンフ,https://tabelog.com/tokyo/A1315/A131501/13003383/,ステーキ、ハンバーグ、鉄板焼き,洋食・西洋料理,35.60598333,139.7306975,東京都品川区大井1-24-4大井町センタービル1F
"0,1,0,1,0,0,0,0,1","0.0,3.0,0.0,3.0,0.0,0.0,0.0,3.0,0.0",0.8477162581801829,106.59861927387195,0.707106781187,1.1039125211641594,17519,みさき,https://tabelog.com/tokyo/A1315/A131501/13074891/,居酒屋,居酒屋,35.60754167,139.7338194,東京都品川区東大井5-3-4
"0,1,0,1,0,0,0,0,1","0.0,3.0,0.0,3.0,0.0,0.0,0.0,0.0,3.0",0.4669200408920276,373.1559713755807,1.0,1.1036368626439643,18102,小料理 東,https://tabelog.com/tokyo/A1315/A131501/13128590/,割烹・小料理,高級和食,35.60597768,139.7306853,東京都品川区大井1-24-5大井町センタービル１０６
"0,1,0,1,0,0,0,0,1","0.0,3.0,0.0,3.0,3.0,0.0,0.0,0.0,3.0",0.8459368645700313,107.84419480097814,0.707106781187,1.1025466787572196,19583,牛タン ふかざわ 大井町店,https://tabelog.com/tokyo/A1315/A131501/13190507/,居酒屋、ダイニングバー、もつ鍋,バー・お酒,35.60782167,139.7344333,東京都品川区東大井5-4-17河本ビル3F
"0,1,0,1,0,0,0,0,1","0.0,3.0,0.0,3.0,3.0,0.0,0.0,0.0,3.0",0.843622285356181,109.46440025067331,0.707106781187,1.100771802123213,19873,イタリアンバル バル道,https://tabelog.com/tokyo/A1315/A131501/13130425/,イタリアン、ピザ、バル・バール,洋食・西洋料理,35.606825,139.73345,東京都品川区東大井5-17-3
"0,1,0,1,0,0,0,0,1","0.0,3.0,0.0,3.0,0.0,0.0,0.0,0.0,3.0",0.4497748399110656,385.1576120622541,1.0,1.0964932314506208,18067,三々五々,https://tabelog.com/tokyo/A1315/A131501/13096335/,もつ鍋、居酒屋、魚介料理・海鮮料理,高級和食,35.60753806,139.7304864,東京都品川区大井1-11-4小川ビル1F
"0,1,0,1,0,0,0,0,1","0.0,3.0,0.0,3.0,3.0,0.0,0.0,0.0,3.0",0.837266274014217,113.91360819004805,0.707106781187,1.0959082140405967,18525,玄品ふぐ 大井町の関,https://tabelog.com/tokyo/A1315/A131501/13027813/,ふぐ、鍋（その他）、懐石・会席料理,高級和食,35.60710278,139.7358806,東京都品川区東大井5-7-10クレストワン　Ｂ１Ｆ
"0,1,0,1,0,0,0,0,1","0.0,3.0,0.0,3.0,0.0,0.0,0.0,3.0,0.0",0.8359579173208664,114.82945787539352,0.707106781187,1.0949089640383078,18040,餃子屋EX,https://tabelog.com/tokyo/A1315/A131501/13203810/,バー・お酒（その他）,バー・お酒,35.60754472,139.7336992,東京都品川区東大井5-3-3
"0,1,0,1,0,0,0,0,1","0.0,3.0,0.0,3.0,0.0,0.0,0.0,0.0,3.0",0.44293436563312955,389.9459440568093,1.0,1.093705102968265,19346,ポワソンルージュ,https://tabelog.com/tokyo/A1315/A131501/13034087/,ビストロ、フレンチ,洋食・西洋料理,35.60449028,139.7314867,東京都品川区大井1-53-8
"0,1,0,1,0,0,0,0,1","0.0,3.0,0.0,3.0,3.0,0.0,0.0,0.0,3.0",0.8335618678228581,116.50669252399928,0.707106781187,1.0930806866322047,20085,よし臓,https://tabelog.com/tokyo/A1315/A131501/13038711/,焼肉、もつ鍋、居酒屋,焼肉・ホルモン・鍋,35.607745,139.7339517,東京都品川区東大井5-2-5
"0,1,0,1,0,0,0,0,1","0.0,3.0,0.0,3.0,0.0,0.0,0.0,3.0,0.0",0.83191167927956,117.66182450430797,0.707106781187,1.0918228071082494,20311,宮川 大井町,https://tabelog.com/tokyo/A1315/A131501/13045689/,うなぎ,高級和食,35.60719972,139.73589,東京都品川区東大井5-7-10
"0,1,0,1,0,0,0,0,1","0.0,3.0,0.0,3.0,0.0,0.0,0.0,0.0,3.0",0.434696000069018,395.71279995168743,1.0,1.090394704900938,19038,南風 どなん,https://tabelog.com/tokyo/A1315/A131501/13050598/,沖縄料理、居酒屋,居酒屋,35.60758722,139.7303797,東京都品川区大井1-11-4小川家ビル2F
"0,1,0,1,0,0,0,0,1","0.0,3.0,0.0,3.0,3.0,0.0,0.0,0.0,3.0",0.8299525973829447,119.03318183193868,0.707106781187,1.0903308277319763,17543,旨唐揚げと居酒メシ ミライザカ 大井町東口駅前店,https://tabelog.com/tokyo/A1315/A131501/13052997/,居酒屋,居酒屋,35.60686806,139.7333433,東京都品川区東大井5-17-2林ビル1・2F
"0,1,0,1,0,0,0,0,1","0.0,3.0,0.0,3.0,3.0,0.0,0.0,0.0,3.0",0.8275586735255694,120.7089285321014,0.707106781187,1.0885096959271425,17699,鹿児島県霧島市 塚田農場 大井町店,https://tabelog.com/tokyo/A1315/A131501/13188829/,居酒屋、鳥料理、もつ鍋,Ｂ級和食,35.60748167,139.7335578,東京都品川区東大井5-3-7プラザヤワタヤB1F
"0,1,0,1,0,0,0,0,1","0.0,3.0,0.0,3.0,0.0,0.0,0.0,0.0,3.0",0.42587309445173505,401.8888338837855,1.0,1.086907490349522,17671,沖縄の味 ぶがりの～し,https://tabelog.com/tokyo/A1315/A131501/13027389/,沖縄料理,高級和食,35.60754389,139.7302997,東京都品川区大井1-11-3ニュー森田ビル２Ｆ
"0,1,0,1,0,0,0,0,1","0.0,3.0,0.0,3.0,0.0,0.0,0.0,0.0,3.0",0.41947859502796486,406.3649834804246,1.0,1.0844179506475515,20006,水炊き・焼き鳥 とりいちず 大井町西口店,https://tabelog.com/tokyo/A1315/A131501/13177683/,居酒屋、水炊き、焼鳥,Ｂ級和食,35.60754639,139.73025,東京都品川区大井1-11-3
"0,1,0,1,0,0,0,0,1","0.0,3.0,0.0,3.0,0.0,0.0,0.0,0.0,3.0",0.41665334568323287,408.342658021737,1.0,1.0833282099479509,19880,Gecky,https://tabelog.com/tokyo/A1315/A131501/13143418/,イタリアン、パスタ,洋食・西洋料理,35.60599167,139.7302797,東京都品川区大井1-24-1
"0,1,0,1,0,0,0,0,1","0.0,3.0,0.0,3.0,3.0,0.0,0.0,0.0,3.0",0.8161552238520694,128.6913433035514,0.707106781187,1.0798654311630786,20149,うまい鮨勘 大井町支店,https://tabelog.com/tokyo/A1315/A131501/13038410/,寿司、天ぷら、魚介料理・海鮮料理,高級和食,35.60795389,139.7341611,東京都品川区東大井5-1-12
"0,1,0,1,0,0,0,0,1","0.0,3.0,0.0,3.0,0.0,0.0,0.0,0.0,3.0",0.40701923554497405,415.08653511851816,1.0,1.0796595102640532,19209,中国酒家　多聞天,https://tabelog.com/tokyo/A1315/A131501/13111326/,中華料理,アジア・エスニック、中華料理,35.60433839,139.7312808,東京都品川区大井1-55-3
"0,1,0,1,0,0,0,0,1","0.0,3.0,0.0,3.0,0.0,0.0,0.0,3.0,0.0",0.8122863323036283,131.39956738746008,0.707106781187,1.0769443280166717,17954,ユイット,https://tabelog.com/tokyo/A1315/A131501/13117441/,ビストロ、ワインバー,バー・お酒,35.60756917,139.7334892,東京都品川区東大井5-3-2
"0,1,0,1,0,0,0,0,1","0.0,3.0,0.0,3.0,0.0,0.0,0.0,0.0,3.0",0.39787942844937807,421.48440008543537,1.0,1.0762472018933213,17503,居酒屋 かもめ,https://tabelog.com/tokyo/A1315/A131501/13177555/,居酒屋,居酒屋,35.6077871,139.7301438,東京都品川区大井町1-1-16
"0,1,0,1,0,0,0,0,1","0.0,3.0,0.0,3.0,0.0,0.0,0.0,0.0,3.0",0.37294122344801356,438.9411435863905,1.0,1.067279324332155,19268,大井一丁目酒場,https://tabelog.com/tokyo/A1315/A131501/13178747/,居酒屋,居酒屋,35.60706944,139.729819,東京都品川区大井1-21-6
"0,1,0,1,0,0,0,0,1","0.0,3.0,0.0,3.0,0.0,0.0,0.0,3.0,0.0",0.7982815009168513,141.20294935820397,0.707106781187,1.0664208150191279,18767,牛タン いろ葉,https://tabelog.com/tokyo/A1315/A131501/13181078/,牛タン、居酒屋、焼肉,焼肉・ホルモン・鍋,35.60755972,139.7333497,東京都品川区東大井5-3-13
"0,1,0,1,0,0,0,0,1","0.0,3.0,0.0,3.0,3.0,0.0,0.0,0.0,3.0",0.7982301517534748,141.23889377256765,0.707106781187,1.0663823775589951,18239,がんばり亭,https://tabelog.com/tokyo/A1315/A131501/13136070/,居酒屋、おでん、焼きとん,Ｂ級和食,35.60756132,139.7333505,東京都品川区東大井5-3-13
"0,1,0,1,0,0,0,0,1","0.0,3.0,0.0,3.0,0.0,0.0,0.0,3.0,0.0",0.7982301517534748,141.23889377256765,0.707106781187,1.0663823775589951,19432,美寿々,https://tabelog.com/tokyo/A1315/A131501/13167874/,居酒屋,居酒屋,35.60756132,139.7333505,東京都品川区東大井5-3-13
"0,1,0,1,0,0,0,0,1","0.0,3.0,0.0,3.0,0.0,0.0,0.0,0.0,3.0",0.370009649840548,440.9932451116164,1.0,1.0662584775630743,18000,ワインバー ハイジ,https://tabelog.com/tokyo/A1315/A131501/13209218/,ワインバー,バー・お酒,35.60698352,139.7297921,東京都品川区大井1-21-6
"0,1,0,1,0,0,0,0,1","0.0,3.0,0.0,3.0,3.0,0.0,0.0,0.0,3.0",0.7975786880498633,141.69491836509562,0.707106781187,1.0658948182777424,17521,炭火焼肉 唐がらし,https://tabelog.com/tokyo/A1315/A131501/13009403/,焼肉、居酒屋、韓国料理,焼肉・ホルモン・鍋,35.60813972,139.7345278,東京都品川区東大井5-1-9
"0,1,0,1,0,0,0,0,1","0.0,3.0,0.0,3.0,3.0,0.0,0.0,0.0,3.0",0.7905315931779441,146.62788477543918,0.707106781187,1.0606319813264442,18260,田,https://tabelog.com/tokyo/A1315/A131501/13060061/,居酒屋、割烹・小料理,高級和食,35.60570852,139.7338783,東京都品川区東大井5丁目19-6
"0,1,0,1,0,0,0,0,1","0.0,3.0,0.0,3.0,3.0,0.0,0.0,0.0,3.0",0.7899083299491167,147.06416903561828,0.707106781187,1.0601675196510232,19626,らんまん,https://tabelog.com/tokyo/A1315/A131501/13182651/,串揚げ・串かつ、寿司,高級和食,35.60760417,139.7333081,東京都品川区東大井5-3-11F・2F
"0,1,0,1,0,0,0,0,1","0.0,3.0,0.0,3.0,3.0,0.0,0.0,0.0,3.0",0.7849200482584596,150.55596621907833,0.707106781187,1.05645609570775,18171,酔庵たくみ,https://tabelog.com/tokyo/A1315/A131501/13033488/,居酒屋,居酒屋,35.60820147,139.7343558,東京都品川区東大井5-1-8大井ハイツ　１Ｆ
"0,1,0,1,0,0,0,0,1","0.0,3.0,0.0,3.0,3.0,0.0,0.0,0.0,3.0",0.7802578459975572,153.81950780170996,0.707106781187,1.0529968215720062,17664,鉄板料理　八天,https://tabelog.com/tokyo/A1315/A131501/13109910/,鉄板焼き、魚介料理・海鮮料理、ステーキ,洋食・西洋料理,35.60821064,139.7350752,東京都品川区南品川6-19-21F
"0,1,0,1,0,0,0,0,1","0.0,3.0,0.0,3.0,0.0,0.0,0.0,0.0,3.0",0.30858540032567494,483.99021977202756,1.0,1.0465299562335313,18154,炭乃家 大井町店,https://tabelog.com/tokyo/A1315/A131501/13030666/,焼肉,焼肉・ホルモン・鍋,35.60541667,139.7296194,東京都品川区大井1-34-5
"0,1,0,1,0,0,0,0,1","0.0,3.0,0.0,3.0,3.0,0.0,0.0,0.0,3.0",0.7710534300542715,160.26259896201,0.707106781187,1.046194719924765,17590,三来風,https://tabelog.com/tokyo/A1315/A131501/13044550/,焼肉,焼肉・ホルモン・鍋,35.60783345,139.7333425,東京都品川区東大井5-2-13大井ビル３階
"0,1,0,1,0,0,0,0,1","0.0,3.0,0.0,3.0,0.0,0.0,0.0,3.0,0.0",0.7708683417960447,160.3921607427687,0.707106781187,1.0460583159572816,20094,たら福,https://tabelog.com/tokyo/A1315/A131501/13083838/,居酒屋,居酒屋,35.60784444,139.7333528,東京都品川区東大井5-2-14
"0,1,0,1,0,0,0,0,1","0.0,3.0,0.0,3.0,3.0,0.0,0.0,3.0,0.0",0.8627339361123636,96.0862447213455,0.57735026919,1.0380959386556068,20121,旬鮮料理 じょう 大井町店,https://tabelog.com/tokyo/A1315/A131501/13033234/,魚介料理・海鮮料理、居酒屋,高級和食,35.60679722,139.7336,東京都品川区東大井5-17-2野村ビル　２Ｆ
"0,1,0,1,0,0,0,0,1","0.0,3.0,0.0,3.0,0.0,0.0,0.0,0.0,3.0",0.2640050007899077,515.1964994470646,1.0,1.0342623653803125,17604,プティタプティ,https://tabelog.com/tokyo/A1315/A131501/13122539/,フレンチ,洋食・西洋料理,35.60381778,139.7303689,東京都品川区大井1-43-5ソレイユ大井1F
"0,1,0,1,0,0,0,0,1","0.0,2.0,0.0,3.0,3.0,0.0,0.0,0.0,3.0",0.7507262256138137,174.4916420703304,0.707106781187,1.0313049334820243,19327,アジアンダイニング&バー シャングリラ,https://tabelog.com/tokyo/A1315/A131501/13206646/,インドカレー、タイ料理、居酒屋・ダイニングバー（その他）,バー・お酒,35.60843806,139.7347444,東京都品川区南品川6-18-19
"0,1,0,1,0,0,0,0,1","0.0,3.0,0.0,3.0,3.0,0.0,0.0,0.0,3.0",0.7506834740229419,174.52156818394064,0.707106781187,1.0312738133837942,18938,かわち屋,https://tabelog.com/tokyo/A1315/A131501/13091953/,焼鳥、居酒屋,居酒屋,35.60843833,139.7347444,東京都品川区南品川6-18-192Fこのお店は「品川区大井4-2-6」から移転しています。※移転前の情報は最新のものとは異なります。移転前の店舗情報を見る
"0,1,0,1,0,0,0,0,1","0.0,3.0,0.0,3.0,0.0,0.0,0.0,0.0,3.0",0.2517229166727124,523.7939583291013,1.0,1.0311956297319231,17497,俺のやきとり 大井町,https://tabelog.com/tokyo/A1315/A131501/13109557/,焼鳥、割烹・小料理,Ｂ級和食,35.60792361,139.7290228,東京都品川区大井1-1-16
"0,1,0,1,0,0,0,0,1","0.0,3.0,0.0,3.0,3.0,0.0,0.0,0.0,3.0",0.7383475770427981,183.1566960700414,0.707106781187,1.0223292740232819,19057,八幸 すずらん通り店,https://tabelog.com/tokyo/A1315/A131501/13108429/,おでん、鳥料理、居酒屋,Ｂ級和食,35.60844694,139.7352428,東京都品川区南品川6-18-16
"0,1,0,1,0,0,0,0,1","0.0,3.0,0.0,3.0,3.0,0.0,0.0,3.0,0.0",0.8380326788797154,113.37712478419922,0.57735026919,1.0176601123182758,19975,Speak Easy,https://tabelog.com/tokyo/A1315/A131501/13060294/,バー,バー・お酒,35.60778861,139.7351975,東京都品川区東大井5-6-14
"0,1,0,1,0,0,0,0,1","0.0,3.0,0.0,3.0,0.0,0.0,0.0,0.0,3.0",0.18859045364008725,567.9866824519389,1.0,1.017627809763557,17924,魚菜 由良 2号店,https://tabelog.com/tokyo/A1315/A131501/13176008/,割烹・小料理、魚介料理・海鮮料理,高級和食,35.60780083,139.7284936,東京都品川区大井1-15-1
"0,1,0,1,0,0,0,0,1","0.0,3.0,0.0,3.0,3.0,0.0,0.0,0.0,3.0",0.7223004223815946,194.38970433288372,0.707106781187,1.0108006233538986,18183,黒ぶたや アトレ大井町店,https://tabelog.com/tokyo/A1315/A131501/13070212/,居酒屋、豚しゃぶ、バイキング,焼肉・ホルモン・鍋,35.60623139,139.7326578,東京都品川区大井1-2-1アトレ大井町6F
"0,1,0,1,0,0,0,0,1","0.0,3.0,0.0,3.0,0.0,0.0,0.0,0.0,3.0",0.09573915971685389,632.9825881982023,1.0,1.0045725392938476,20146,PIZZERIA Bakka M'unica,https://tabelog.com/tokyo/A1315/A131501/13182694/,ピザ、居酒屋、イタリアン,洋食・西洋料理,35.60495139,139.7412372,東京都品川区東大井1-3-17コーポマルイノ1F
"0,1,0,1,0,0,0,0,1","0.0,3.0,0.0,3.0,0.0,0.0,0.0,0.0,3.0",0.09443553380079217,633.8951263394455,1.0,1.0044491376093867,18086,ＢＡＲイーヴレース,https://tabelog.com/tokyo/A1315/A131501/13143783/,バー,バー・お酒,35.60291409,139.729606,東京都品川区大井3-5-9氏原ビル1F
"0,1,0,1,0,0,0,0,1","0.0,3.0,0.0,3.0,0.0,0.0,0.0,0.0,3.0",0.07680922256323519,646.2335442057354,1.0,1.002945490378599,18708,炭焼きイタリアン酒場 炭リッチ 青物横丁店,https://tabelog.com/tokyo/A1315/A131501/13167800/,イタリアン、ピザ、ワインバー,洋食・西洋料理,35.60965778,139.7409172,東京都品川区南品川3-5-353F
"0,1,0,1,0,0,0,0,1","0.0,3.0,0.0,3.0,0.0,0.0,0.0,0.0,3.0",0.06833454576193308,652.1658179666468,1.0,1.0023320857602482,18307,もっこく屋,https://tabelog.com/tokyo/A1315/A131501/13038826/,居酒屋、郷土料理（その他）,高級和食,35.60391159,139.7284355,東京都品川区大井2-27-19
"0,1,0,1,0,0,0,0,1","0.0,3.0,0.0,3.0,0.0,0.0,0.0,0.0,3.0",0.05798768754131255,659.4086187210812,1.0,1.0016798749632485,20275,庄や 青物横丁店,https://tabelog.com/tokyo/A1315/A131501/13085829/,居酒屋,居酒屋,35.60984556,139.7409547,東京都品川区南品川3-5-35OTビル１Ｆ
"0,1,0,1,0,0,0,0,1","0.0,3.0,0.0,3.0,0.0,0.0,0.0,0.0,3.0",0.03783280316341055,673.5170377856126,1.0,1.000715404595733,20193,いさりび 青物横丁店,https://tabelog.com/tokyo/A1315/A131501/13022608/,居酒屋、魚介料理・海鮮料理,高級和食,35.60821389,139.741905,東京都品川区南品川3-4-11
"0,1,0,1,0,0,0,0,1","0.0,3.0,0.0,3.0,0.0,0.0,0.0,0.0,3.0",0.007899638280290446,694.4702532037967,1.0,1.000031201655708,19990,ステーキハウスB&M 大井本店,https://tabelog.com/tokyo/A1317/A131712/13008380/,ステーキ、ハンバーグ、シチュー,洋食・西洋料理,35.60905222,139.7274747,東京都品川区二葉1-7-10
"0,1,0,1,0,0,0,0,1","0.0,3.0,0.0,3.0,3.0,0.0,0.0,0.0,3.0",0.6632153360295892,235.7492647792876,0.707106781187,0.9694609749468212,17457,炭火焼居酒屋櫻井,https://tabelog.com/tokyo/A1315/A131501/13184513/,居酒屋、焼酎バー、炭火焼き,居酒屋,35.60487988,139.7337357,東京都品川区東大井6-5-5
"0,1,0,1,0,0,0,0,1","0.0,3.0,0.0,3.0,3.0,0.0,0.0,3.0,0.0",0.7572887155807647,169.89789909346476,0.57735026919,0.9522707241532199,19900,呑み処食べ処　真琴,https://tabelog.com/tokyo/A1315/A131501/13135652/,居酒屋、和食（その他）,Ｂ級和食,35.60826409,139.7338894,東京都品川区東大井5-1-8
"0,1,0,1,0,0,0,0,1","0.0,3.0,0.0,3.0,0.0,3.0,0.0,0.0,3.0",0.6117023624663374,271.8083462735638,0.707106781187,0.9349758180011387,18524,PIZZERIA&BAR CERTO! 阪急大井町ガーデン店,https://tabelog.com/tokyo/A1315/A131501/13165771/,イタリアン、居酒屋、バル・バール,洋食・西洋料理,35.60589472,139.7319036,東京都品川区大井1-50-5阪急大井町ガーデン2F
"0,1,0,1,0,0,0,0,1","0.0,3.0,0.0,3.0,3.0,0.0,0.0,0.0,3.0",0.6086341358223724,273.95610492433934,0.707106781187,0.9329713346551683,19895,グリシーヌ,https://tabelog.com/tokyo/A1315/A131501/13183084/,バー、ビストロ,洋食・西洋料理,35.60732472,139.7376281,東京都品川区南品川5-11-24
"0,1,0,1,0,0,0,0,1","0.0,3.0,0.0,3.0,3.0,0.0,0.0,0.0,3.0",0.5897583795742626,287.1691342980162,0.707106781187,0.9207686714251632,19875,ビストロ ドライチ,https://tabelog.com/tokyo/A1315/A131501/13147251/,イタリアン、居酒屋、ワインバー,洋食・西洋料理,35.60931806,139.7336389,東京都品川区南品川6-11-27ガーデンプラザ1F
"0,1,0,1,0,0,0,0,1","0.0,3.0,0.0,3.0,0.0,0.0,0.0,3.0,0.0",0.5825957244724934,292.1829928692546,0.707106781187,0.9161974558869008,18194,はなの舞 阪急大井町ガーデン店,https://tabelog.com/tokyo/A1315/A131501/13125286/,居酒屋,居酒屋,35.60569028,139.7317722,東京都品川区大井1-50-5阪急大井町ガーデン2F
"0,1,0,1,0,0,0,0,1","0.0,3.0,0.0,3.0,0.0,0.0,0.0,3.0,0.0",0.5797981950819504,294.1412634426347,0.707106781187,0.914421099395835,19092,宝田水産 阪急大井町ガーデン店,https://tabelog.com/tokyo/A1315/A131501/13165752/,寿司,高級和食,35.6053275,139.7320142,東京都品川区大井1-50-5阪急大井町ガーデン1F
"0,1,0,1,0,0,0,0,1","0.0,3.0,0.0,3.0,3.0,0.0,0.0,0.0,3.0",0.5649308535304138,304.5484025287103,0.707106781187,0.9050673285842341,19791,八幸,https://tabelog.com/tokyo/A1315/A131501/13077153/,割烹・小料理、おでん,高級和食,35.60457944,139.7327994,東京都品川区東大井6-1-5
"0,1,0,1,0,0,0,0,1","0.0,3.0,0.0,3.0,3.0,0.0,0.0,0.0,3.0",0.5643121223510477,304.9815143542666,0.707106781187,0.9046812540515825,17771,食彩　市,https://tabelog.com/tokyo/A1315/A131501/13098889/,魚介料理・海鮮料理、鍋（その他）、懐石・会席料理,高級和食,35.60457611,139.7327969,東京都品川区東大井6-1-5桐木ハイツ1F
"0,1,0,1,0,0,0,0,1","0.0,3.0,0.0,3.0,0.0,0.0,0.0,3.0,0.0",0.534484564357439,325.86080494979274,0.707106781187,0.8863823946448629,20104,ひな鳥そのだ,https://tabelog.com/tokyo/A1315/A131501/13137722/,鳥料理、焼酎バー、居酒屋,バー・お酒,35.60716806,139.7382344,東京都品川区南品川5-14-11
"0,1,0,1,0,0,0,0,1","0.0,3.0,0.0,3.0,3.0,0.0,0.0,0.0,3.0",0.5278891065280721,330.4776254303496,0.707106781187,0.8824210496078424,18730,屋台屋　博多劇場　大井町店,https://tabelog.com/tokyo/A1315/A131501/13209241/,居酒屋、餃子、もつ鍋,居酒屋,35.60729472,139.7310475,東京都品川区大井1-9-4
"0,1,0,1,0,0,0,0,1","0.0,3.0,0.0,3.0,3.0,0.0,0.0,0.0,3.0",0.5224195537975297,334.3063123417292,0.707106781187,0.8791599343634866,18459,まかないや 大井町店,https://tabelog.com/tokyo/A1315/A131501/13095745/,居酒屋、創作料理、和食（その他）,Ｂ級和食,35.60495222,139.7318083,東京都品川区大井1-52-6コスモ大井町　１Ｆ
"0,1,0,1,0,0,0,0,1","0.0,3.0,0.0,3.0,3.0,0.0,0.0,0.0,3.0",0.48923483683840946,357.5356142131134,0.707106781187,0.8598550607958909,19287,ひなの家　Ｂ’２ｎｄ,https://tabelog.com/tokyo/A1315/A131501/13164069/,居酒屋、ダイニングバー,バー・お酒,35.6040625,139.7327136,東京都品川区東大井6-1-7NICハイム1F
"0,1,0,1,0,0,0,0,1","0.0,3.0,0.0,3.0,3.0,0.0,0.0,0.0,3.0",0.4746447867860302,367.74864924977885,0.707106781187,0.851638229310519,18341,山内農場 大井町西口駅前店,https://tabelog.com/tokyo/A1315/A131501/13147078/,居酒屋、魚介料理・海鮮料理、創作料理,高級和食,35.60749639,139.7306722,東京都品川区大井1-10-2YK-5ビル4F
"0,1,0,1,0,0,0,0,1","0.0,3.0,0.0,3.0,3.0,0.0,0.0,0.0,3.0",0.46352218461836797,375.5344707671424,0.707106781187,0.8454896898445211,18201,串揚げ&泡 東京大井町 串あん,https://tabelog.com/tokyo/A1315/A131501/13163507/,串揚げ・串かつ、居酒屋、ダイニングバー,Ｂ級和食,35.60455972,139.7316247,東京都品川区大井1-53-7
"0,1,0,1,0,0,0,0,1","0.0,3.0,0.0,3.0,3.0,0.0,0.0,0.0,3.0",0.46161652627661576,376.868431606369,0.707106781187,0.8444464561662212,19013,Cocktail&Wine KIYOMI,https://tabelog.com/tokyo/A1315/A131501/13044259/,バー,バー・お酒,35.60754056,139.7305803,東京都品川区大井1-10-1梅原ビル2階
"0,1,0,1,0,0,0,0,1","0.0,3.0,0.0,3.0,3.0,0.0,0.0,0.0,3.0",0.46059185417970877,377.5857020742039,0.707106781187,0.8438867555168182,19444,魚箱 大井町店,https://tabelog.com/tokyo/A1315/A131501/13044837/,居酒屋、日本酒バー、魚介料理・海鮮料理,高級和食,35.60775213,139.7306332,東京都品川区大井1-1-13
"0,1,0,1,0,0,0,0,1","0.0,3.0,0.0,3.0,3.0,0.0,0.0,0.0,3.0",0.45790050359881546,379.46964748082917,0.707106781187,0.8424208397208897,19481,炭火焼肉 にくなべ屋 神戸びいどろ 大井町店,https://tabelog.com/tokyo/A1315/A131501/13194580/,焼肉、居酒屋、鍋（その他）,焼肉・ホルモン・鍋,35.6061075,139.7305736,東京都品川区大井1-23-9
"0,1,0,1,0,0,0,0,1","0.0,3.0,0.0,3.0,3.0,0.0,0.0,0.0,3.0",0.453804953574269,382.3365324980117,0.707106781187,0.8402017233310966,18432,わたる商店,https://tabelog.com/tokyo/A1315/A131501/13183045/,居酒屋、焼鳥、鳥料理,Ｂ級和食,35.60451896,139.7315686,東京都品川区大井1-53-8堀江ビル　1F
"0,1,0,1,0,0,0,0,1","0.0,3.0,0.0,3.0,3.0,0.0,0.0,0.0,3.0",0.43036675814474634,398.74326929867755,0.707106781187,0.827777474032737,19053,しゃぶしゃぶ 温野菜 大井町店,https://tabelog.com/tokyo/A1315/A131501/13026873/,しゃぶしゃぶ、バイキング、居酒屋,焼肉・ホルモン・鍋,35.60753556,139.7303331,東京都品川区大井1-11-3大井ビル　３Ｆ
"0,1,0,1,0,0,0,0,1","0.0,3.0,0.0,3.0,3.0,0.0,0.0,0.0,3.0",0.4258983440138515,401.87115919030396,0.707106781187,0.8254631423835598,19354,ワインカフェ 大井町,https://tabelog.com/tokyo/A1315/A131501/13149124/,ダイニングバー、ワインバー、イタリアン,バー・お酒,35.60756958,139.730306,東京都品川区大井1-11-3ニュー森田ビル5F
"0,1,0,1,0,0,0,0,1","0.0,3.0,0.0,3.0,3.0,0.0,0.0,0.0,3.0",0.4258561278262029,401.90071052165797,0.707106781187,0.8254413617011976,20025,晴天の月 大井町,https://tabelog.com/tokyo/A1315/A131501/13119643/,居酒屋、魚介料理・海鮮料理、日本酒バー,高級和食,35.60756806,139.7303053,東京都品川区大井1-11-3YK-6ビル5F
"0,1,0,1,0,0,0,0,1","0.0,3.0,0.0,3.0,3.0,0.0,0.0,0.0,3.0",0.425835198914916,401.9153607595588,0.707106781187,0.8254305643934602,19999,手作り料理 大井町の名物家,https://tabelog.com/tokyo/A1315/A131501/13097646/,居酒屋、ビアバー、居酒屋・ダイニングバー（その他）,居酒屋,35.6075675,139.730305,東京都品川区大井1-11-3銀泉大井町ビル　3F
"0,1,0,1,0,0,0,0,1","0.0,3.0,0.0,3.0,0.0,0.0,0.0,3.0,0.0",0.424663312871102,402.7356809902286,0.707106781187,0.8248266055957819,19974,活魚・串焼き ほんま,https://tabelog.com/tokyo/A1315/A131501/13025627/,ホルモン,焼肉・ホルモン・鍋,35.61040667,139.7336725,東京都品川区南品川6-8-26
"0,1,0,1,0,0,0,0,1","0.0,3.0,0.0,3.0,3.0,0.0,0.0,0.0,3.0",0.411342676706878,412.0601263051854,0.707106781187,0.8180481634233887,18520,唐揚げと手作り家庭料理 あおば 大井町酒場,https://tabelog.com/tokyo/A1315/A131501/13030949/,定食・食堂、居酒屋,居酒屋,35.60588444,139.7302714,東京都品川区大井1-24-10ＫｏＡビル　Ｂ１Ｆ
"0,1,0,1,0,0,0,0,1","0.0,3.0,0.0,3.0,0.0,0.0,0.0,3.0,0.0",0.3908560179001073,426.40078746992486,0.707106781187,0.8079408559595987,19771,わらじ,https://tabelog.com/tokyo/A1315/A131501/13081256/,定食・食堂、居酒屋,居酒屋,35.60695167,139.7299522,東京都品川区大井1-22-18
"0,1,0,1,0,0,0,0,1","0.0,3.0,0.0,3.0,3.0,0.0,0.0,0.0,3.0",0.37257493179723783,439.19754774193353,0.707106781187,0.7992572050370997,19704,軍鶏チュー,https://tabelog.com/tokyo/A1315/A131501/13139916/,居酒屋、焼鳥、串焼き,居酒屋,35.60567798,139.7300337,東京都品川区大井1-25-3シティーハイツ大井町105このお店は「品川区南品川6-11-27」から移転しています。※移転前の情報は最新のものとは異なります。移転前の店舗情報を見る
"0,1,0,1,0,0,0,0,1","0.0,3.0,0.0,3.0,3.0,0.0,0.0,0.0,3.0",0.3685192171441648,442.03654799908463,0.707106781187,0.7973747007552648,20159,おぎ,https://tabelog.com/tokyo/A1315/A131501/13168514/,割烹・小料理、韓国料理,高級和食,35.6069518,139.7297796,東京都品川区大井1-21-6
"0,1,0,1,0,0,0,0,1","0.0,3.0,0.0,3.0,3.0,0.0,0.0,0.0,3.0",0.3664833535435129,443.46165251954096,0.707106781187,0.796435840745819,18514,まんぷく,https://tabelog.com/tokyo/A1315/A131501/13179895/,焼肉、韓国料理、居酒屋,焼肉・ホルモン・鍋,35.60758917,139.7298433,東京都品川区大井1-11-10
"0,1,0,1,0,0,0,0,1","0.0,3.0,0.0,3.0,3.0,0.0,0.0,0.0,3.0",0.3664494975504059,443.4853517147159,0.707106781187,0.7964202623332388,18605,魚菜　由良,https://tabelog.com/tokyo/A1315/A131501/13120584/,割烹・小料理、魚介料理・海鮮料理,高級和食,35.6070325,139.7297667,東京都品川区大井1丁目21-5
"0,1,0,1,0,0,0,0,1","0.0,3.0,0.0,3.0,3.0,0.0,0.0,3.0,0.0",0.5358028220929691,324.93802453492157,0.57735026919,0.7876661713544154,19303,治郎丸 大井町店,https://tabelog.com/tokyo/A1315/A131501/13181040/,焼肉、ホルモン、居酒屋,焼肉・ホルモン・鍋,35.60774583,139.7312361,東京都品川区大井1-1-9
"0,1,0,1,0,0,0,0,1","0.0,3.0,0.0,3.0,3.0,0.0,0.0,3.0,0.0",0.5308471562318251,328.4069906377224,0.57735026919,0.784303536019537,17747,CFT北一倶楽部 大井町店,https://tabelog.com/tokyo/A1315/A131501/13085851/,ジンギスカン,焼肉・ホルモン・鍋,35.60766222,139.7311658,東京都品川区大井1-1-10
"0,1,0,1,0,0,0,0,1","0.0,3.0,0.0,3.0,3.0,0.0,0.0,0.0,3.0",0.32525352032853994,472.32253577002206,0.707106781187,0.7783250301038173,17515,地酒屋のぼる,https://tabelog.com/tokyo/A1315/A131501/13151396/,居酒屋、日本酒バー,バー・お酒,35.6054975,139.7297214,東京都品川区大井1-25-91F
"0,1,0,1,0,0,0,0,1","0.0,3.0,0.0,3.0,0.0,0.0,0.0,3.0,0.0",0.2989816634152793,490.7128356093045,0.707106781187,0.7677174187541712,20073,まぐろダイニング美蔵 ホテルルートイン品川大井町店,https://tabelog.com/tokyo/A1315/A131501/13173340/,居酒屋、バイキング,創作料理・無国籍料理,35.60518633,139.7296476,東京都品川区大井1-35-2
"0,1,0,1,0,0,0,0,1","0.0,3.0,0.0,3.0,3.0,0.0,0.0,0.0,3.0",0.2973988685013337,491.8207920490664,0.707106781187,0.7671023966758764,18726,ふわり,https://tabelog.com/tokyo/A1315/A131501/13150902/,お好み焼き、鉄板焼き、居酒屋,洋食・西洋料理,35.60378028,139.7307614,東京都品川区大井4-1-2ひろせビルB1F
"0,1,0,1,0,0,0,0,1","0.0,3.0,0.0,3.0,0.0,0.0,0.0,3.0,0.0",0.2774853192501704,505.76027652488074,0.707106781187,0.7596039115218991,18872,よろい,https://tabelog.com/tokyo/A1315/A131501/13138041/,焼肉,焼肉・ホルモン・鍋,35.60532917,139.7294025,東京都品川区大井1-34-7
"0,1,0,1,0,0,0,0,1","0.0,3.0,0.0,3.0,0.0,0.0,0.0,3.0,0.0",0.2325163487731475,537.2385558587968,0.707106781187,0.744354655017886,17471,オステリア　トスカーナ,https://tabelog.com/tokyo/A1315/A131501/13149995/,イタリアン,洋食・西洋料理,35.60315889,139.7308442,東京都品川区大井4-6-9
"0,1,0,1,0,0,0,0,1","0.0,3.0,0.0,3.0,3.0,0.0,0.0,0.0,3.0",0.20485140623490597,556.6040156355658,0.707106781187,0.7361821096959764,17652,たもん,https://tabelog.com/tokyo/A1315/A131501/13105022/,居酒屋,居酒屋,35.60382694,139.7297706,東京都品川区大井1-42-8
"0,1,0,1,0,0,0,0,1","0.0,3.0,0.0,3.0,3.0,0.0,0.0,0.0,3.0",0.1882604224480167,568.2177042863883,0.707106781187,0.731739015401192,17859,燻製キッチン,https://tabelog.com/tokyo/A1315/A131501/13060616/,ダイニングバー、ビストロ、イタリアン,洋食・西洋料理,35.60334139,139.7301086,東京都品川区大井3-4-8
"0,1,0,1,0,0,0,0,1","0.0,3.0,0.0,3.0,0.0,0.0,0.0,3.0,0.0",0.16822024718380393,582.2458269713372,0.707106781187,0.726841146030259,19282,なるほど,https://tabelog.com/tokyo/A1315/A131501/13069378/,懐石・会席料理、割烹・小料理,高級和食,35.60520167,139.7285633,東京都品川区大井1-32-15
"0,1,0,1,0,0,0,0,1","0.0,3.0,0.0,3.0,0.0,0.0,0.0,3.0,0.0",0.14555055298704425,598.114612909069,0.707106781187,0.7219314118909319,19202,まなpiece23,https://tabelog.com/tokyo/A1315/A131501/13167947/,居酒屋,居酒屋,35.60266306,139.730525,東京都品川区大井4-12-24
"0,1,0,1,0,0,0,0,1","0.0,3.0,0.0,3.0,0.0,0.0,0.0,3.0,0.0",0.13535986877501094,605.2480918574923,0.707106781187,0.7199460355296001,18482,駅前酒蔵 鮫州南店,https://tabelog.com/tokyo/A1315/A131501/13085751/,居酒屋,居酒屋,35.605,139.7409333,東京都品川区東大井1-2-15
"0,1,0,1,0,0,0,0,1","0.0,3.0,0.0,3.0,0.0,0.0,0.0,3.0,0.0",0.12419573617147729,613.0629846799659,0.707106781187,0.7179307632934915,19744,弦六,https://tabelog.com/tokyo/A1315/A131501/13093568/,焼鳥,Ｂ級和食,35.60410023,139.7288004,東京都品川区大井1-41-15月曜日
"0,1,0,1,0,0,0,0,1","0.0,3.0,0.0,3.0,3.0,0.0,0.0,0.0,3.0",0.12132120412271905,615.0751571140967,0.707106781187,0.7174390807377213,17729,大井町 日本酒 宵月,https://tabelog.com/tokyo/A1315/A131501/13192489/,割烹・小料理,高級和食,35.60409833,139.7287761,東京都品川区大井1-41-1薩田ビル1F
"0,1,0,1,0,0,0,0,1","0.0,3.0,0.0,3.0,3.0,0.0,0.0,0.0,3.0",0.10601323663666823,625.7907343543322,0.707106781187,0.7150096547195586,19391,van-vino 青物横丁,https://tabelog.com/tokyo/A1315/A131501/13128427/,ダイニングバー、ワインバー,バー・お酒,35.61009611,139.7403197,東京都品川区南品川2-4-4
"0,1,0,1,0,0,0,0,1","0.0,3.0,0.0,3.0,3.0,0.0,0.0,0.0,3.0",0.10488843695598624,626.5780941308096,0.707106781187,0.7148437481065845,18653,Bar たしろ,https://tabelog.com/tokyo/A1315/A131501/13149922/,バー,バー・お酒,35.61011361,139.7403153,東京都品川区南品川2-4-4グリーングラスビル2F
"0,1,0,1,0,0,0,0,1","0.0,3.0,0.0,3.0,0.0,0.0,0.0,3.0,0.0",0.10124663349718227,629.1273565519724,0.707106781187,0.7143184729478251,20380,居酒屋 まつり,https://tabelog.com/tokyo/A1315/A131501/13159619/,居酒屋、魚介料理・海鮮料理、定食・食堂,居酒屋,35.60428644,139.7408395,東京都品川区東大井1-17-17
"0,1,0,1,0,0,0,0,1","0.0,3.0,0.0,3.0,0.0,0.0,0.0,3.0,0.0",0.0796987214280458,644.2108950003679,0.707106781187,0.711584068257058,19122,宮美,https://tabelog.com/tokyo/A1315/A131501/13065429/,焼鳥,Ｂ級和食,35.60393558,139.72852,東京都品川区大井2-27-18
"0,1,0,1,0,0,0,0,1","0.0,3.0,0.0,3.0,3.0,0.0,0.0,0.0,3.0",0.04793466938940729,666.4457314274149,0.707106781187,0.7087296611046217,18134,品川　漢城軒,https://tabelog.com/tokyo/A1314/A131405/13189307/,焼肉、ホルモン、韓国料理,焼肉・ホルモン・鍋,35.61065583,139.7403645,東京都品川区南品川2-4-7アサミビル3F
"0,1,0,1,0,0,0,0,1","0.0,3.0,0.0,3.0,3.0,0.0,0.0,0.0,3.0",0.017490544339265657,687.756618962514,0.707106781187,0.7073230656081307,18394,ふうこうめいび,https://tabelog.com/tokyo/A1315/A131501/13155813/,居酒屋、魚介料理・海鮮料理、鍋（その他）,高級和食,35.61068083,139.7406408,東京都品川区南品川2-5-1
"0,1,0,1,0,0,0,0,1","0.0,3.0,0.0,3.0,3.0,0.0,0.0,0.0,3.0",0.009619111522929902,693.2666219339491,0.707106781187,0.7071722048458146,17704,藍の家 大井町店,https://tabelog.com/tokyo/A1317/A131712/13059181/,うなぎ,高級和食,35.60756083,139.7270531,東京都品川区二葉1-17-2
"0,1,0,1,0,0,0,0,1","0.0,3.0,0.0,3.0,3.0,0.0,0.0,0.0,3.0",0.009295974915824314,693.492817558923,0.707106781187,0.7071678832848928,17469,焼肉 乙ちゃん,https://tabelog.com/tokyo/A1315/A131501/13154344/,焼肉、ホルモン、居酒屋,焼肉・ホルモン・鍋,35.6021713,139.7397083,東京都品川区東大井2-5-13乙川ビル1F
"0,1,0,1,0,0,0,0,1","0.0,3.0,0.0,3.0,3.0,0.0,0.0,0.0,3.0",0.003918520904453382,697.2570353668826,0.707106781187,0.7071176385906935,19402,魚ちょ,https://tabelog.com/tokyo/A1317/A131712/13052615/,魚介料理・海鮮料理、創作料理、懐石・会席料理,高級和食,35.6089825,139.7274108,東京都品川区二葉1-7-11
"0,1,0,1,0,0,0,0,1","0.0,3.0,0.0,3.0,3.0,0.0,0.0,3.0,0.0",0.3584603086507752,449.07778394445734,0.57735026919,0.6795786387250135,18126,焼鳥 晋ちゃん,https://tabelog.com/tokyo/A1315/A131501/13183186/,焼鳥,Ｂ級和食,35.604,139.7311586,東京都品川区大井4-1-5ケイビル21F
"0,1,0,1,0,0,0,0,1","0.0,3.0,0.0,3.0,3.0,0.0,0.0,3.0,0.0",0.3541012225525923,452.1291442131854,0.57735026919,0.6772894574305537,18823,むろと,https://tabelog.com/tokyo/A1315/A131501/13079179/,割烹・小料理、すっぽん、ふぐ,高級和食,35.60554722,139.7299361,東京都品川区大井1-25-3シティハイツ大井町1F
"0,1,0,1,0,0,0,0,1","0.0,3.0,0.0,3.0,3.0,0.0,0.0,3.0,0.0",0.33806569612495235,463.35401271253335,0.57735026919,0.6690454007238836,19367,鳥はし,https://tabelog.com/tokyo/A1315/A131501/13124330/,焼鳥,Ｂ級和食,35.60406093,139.7308697,東京都品川区大井1-55-6Ｍビル１
"0,1,0,1,0,0,0,0,1","0.0,2.0,0.0,3.0,3.0,0.0,0.0,3.0,0.0",0.010843139554059949,692.409802312158,0.57735026919,0.5774520820022404,19669,あをよこ ひなの家 青物横丁店,https://tabelog.com/tokyo/A1315/A131501/13193368/,居酒屋、創作料理、和食（その他）,Ｂ級和食,35.61013222,139.7411694,東京都品川区南品川3-5-3青横ビル3F
"0,1,0,1,0,0,0,0,1","0.0,3.0,0.0,3.0,3.0,0.0,0.0,3.0,0.0",0.010819919253677231,692.4260565224259,0.57735026919,0.5774516464484186,17707,やきとり家すみれ 青物横丁店,https://tabelog.com/tokyo/A1315/A131501/13147855/,焼鳥、鳥料理、居酒屋,Ｂ級和食,35.6101325,139.7411694,東京都品川区南品川3-5-3山崎ビル2F
"0,1,0,1,0.5,0,0,1,0","0.0,3.0,0.0,3.0,3.0,0.0,0.0,3.0,0.0",0.8627339361123636,96.0862447213455,0.962250448649,1.2923760174368208,20121,旬鮮料理 じょう 大井町店,https://tabelog.com/tokyo/A1315/A131501/13033234/,魚介料理・海鮮料理、居酒屋,高級和食,35.60679722,139.7336,東京都品川区東大井5-17-2野村ビル　２Ｆ
"0,1,0,1,0.5,0,0,1,0","0.0,3.0,0.0,3.0,0.0,0.0,0.0,3.0,0.0",0.8788764413961655,84.78649102268415,0.942809041582,1.2889191937938067,20044,肉寿司 大井町店,https://tabelog.com/tokyo/A1315/A131501/13117263/,牛料理、寿司、創作料理,高級和食,35.607478,139.734095,東京都品川区東大井5-4-13
"0,1,0,1,0.5,0,0,1,0","0.0,3.0,0.0,3.0,0.0,0.0,0.0,3.0,0.0",0.8617151174254929,96.79941780215489,0.942809041582,1.2772790738474187,17599,洋風居酒屋 春菜亭,https://tabelog.com/tokyo/A1315/A131501/13028524/,居酒屋、洋食,居酒屋,35.60715833,139.73365,東京都品川区東大井5-15-16まめそうビル　Ｂ１Ｆ
"0,1,0,1,0.5,0,0,1,0","0.0,3.0,0.0,3.0,3.0,0.0,0.0,3.0,0.0",0.8380326788797154,113.37712478419922,0.962250448649,1.2760190816740313,19975,Speak Easy,https://tabelog.com/tokyo/A1315/A131501/13060294/,バー,バー・お酒,35.60778861,139.7351975,東京都品川区東大井5-6-14
"0,1,0,1,0.5,0,0,1,0","0.0,3.0,0.0,3.0,0.0,0.0,0.0,3.0,0.0",0.8477162581801829,106.59861927387195,0.942809041582,1.2678768643964993,17519,みさき,https://tabelog.com/tokyo/A1315/A131501/13074891/,居酒屋,居酒屋,35.60754167,139.7338194,東京都品川区東大井5-3-4
"0,1,0,1,0.5,0,0,1,0","0.0,3.0,0.0,3.0,0.0,0.0,0.0,3.0,0.0",0.8359579173208664,114.82945787539352,0.942809041582,1.2600454469662312,18040,餃子屋EX,https://tabelog.com/tokyo/A1315/A131501/13203810/,バー・お酒（その他）,バー・お酒,35.60754472,139.7336992,東京都品川区東大井5-3-3
"0,1,0,1,0.5,0,0,1,0","0.0,3.0,0.0,3.0,0.0,0.0,0.0,3.0,0.0",0.83191167927956,117.66182450430797,0.942809041582,1.2573646770172233,20311,宮川 大井町,https://tabelog.com/tokyo/A1315/A131501/13045689/,うなぎ,高級和食,35.60719972,139.73589,東京都品川区東大井5-7-10
"0,1,0,1,0.5,0,0,1,0","0.0,3.0,0.0,3.0,0.0,0.0,0.0,3.0,0.0",0.8122863323036283,131.39956738746008,0.942809041582,1.2444669439306812,17954,ユイット,https://tabelog.com/tokyo/A1315/A131501/13117441/,ビストロ、ワインバー,バー・お酒,35.60756917,139.7334892,東京都品川区東大井5-3-2
"0,1,0,1,0.5,0,0,1,0","0.0,3.0,0.0,3.0,0.0,0.0,0.0,3.0,0.0",0.7982815009168513,141.20294935820397,0.942809041582,1.235371297867548,18767,牛タン いろ葉,https://tabelog.com/tokyo/A1315/A131501/13181078/,牛タン、居酒屋、焼肉,焼肉・ホルモン・鍋,35.60755972,139.7333497,東京都品川区東大井5-3-13
"0,1,0,1,0.5,0,0,1,0","0.0,3.0,0.0,3.0,0.0,0.0,0.0,3.0,0.0",0.7982301517534748,141.23889377256765,0.942809041582,1.2353381173011964,19432,美寿々,https://tabelog.com/tokyo/A1315/A131501/13167874/,居酒屋,居酒屋,35.60756132,139.7333505,東京都品川区東大井5-3-13
"0,1,0,1,0.5,0,0,1,0","0.0,3.0,0.0,3.0,3.0,0.0,0.0,3.0,0.0",0.7572887155807647,169.89789909346476,0.962250448649,1.2245048487743486,19900,呑み処食べ処　真琴,https://tabelog.com/tokyo/A1315/A131501/13135652/,居酒屋、和食（その他）,Ｂ級和食,35.60826409,139.7338894,東京都品川区東大井5-1-8
"0,1,0,1,0.5,0,0,1,0","0.0,3.0,0.0,3.0,0.0,0.0,0.0,3.0,0.0",0.7708683417960447,160.3921607427687,0.942809041582,1.2178369715492596,20094,たら福,https://tabelog.com/tokyo/A1315/A131501/13083838/,居酒屋,居酒屋,35.60784444,139.7333528,東京都品川区東大井5-2-14
"0,1,0,1,0.5,0,0,1,0","0.0,3.0,0.0,3.0,3.0,0.0,0.0,0.0,3.0",0.9312020283624045,48.158580146316844,0.707106781187,1.1692464315217117,19107,大井町 よし臓2号館 焼肉居酒屋,https://tabelog.com/tokyo/A1315/A131501/13055824/,居酒屋、ホルモン、焼肉,居酒屋,35.60661222,139.7342267,東京都品川区東大井5-14-19高田ビル　3F
"0,1,0,1,0.5,0,0,1,0","0.0,3.0,0.0,3.0,3.0,0.0,0.0,0.0,3.0",0.922497603695936,54.25167741284474,0.707106781187,1.1623260423929012,18898,お魚sun,https://tabelog.com/tokyo/A1315/A131501/13109164/,魚介料理・海鮮料理、居酒屋、和食（その他）,Ｂ級和食,35.60734914,139.7345573,東京都品川区東大井5-5-7
"0,1,0,1,0.5,0,0,1,0","0.0,3.0,0.0,3.0,0.0,0.0,0.0,0.0,3.0",0.9449094198799847,38.56340608401075,0.666666666667,1.1564161258917023,20294,藤半,https://tabelog.com/tokyo/A1315/A131501/13029458/,魚介料理・海鮮料理、郷土料理（その他）,高級和食,35.60673261,139.7342645,東京都品川区東大井5-14-19中川ビル
"0,1,0,1,0.5,0,0,1,0","0.0,3.0,0.0,3.0,3.0,0.0,0.0,0.0,3.0",0.909480908794236,63.36336384403478,0.707106781187,1.1520223623963164,19980,瓢箪,https://tabelog.com/tokyo/A1315/A131501/13022613/,居酒屋、創作料理、炭火焼き,創作料理・無国籍料理,35.6074325,139.7345594,東京都品川区東大井5-5-11サンライズビル　３Ｆ
"0,1,0,1,0.5,0,0,1,0","0.0,3.0,0.0,3.0,3.0,0.0,0.0,0.0,3.0",0.9091522942608521,63.593394017403554,0.707106781187,1.1517629505066445,19521,H,https://tabelog.com/tokyo/A1315/A131501/13031730/,ダイニングバー、和食（その他）、居酒屋,Ｂ級和食,35.60694389,139.7353525,東京都品川区東大井5-12-2シティ大井町　１Ｆ・Ｂ１Ｆ
"0,1,0,1,0.5,0,0,1,0","0.0,3.0,0.0,3.0,3.0,0.0,0.0,0.0,3.0",0.9059321727602885,65.8474790677981,0.707106781187,1.1492228250614314,20375,マリアナ,https://tabelog.com/tokyo/A1315/A131501/13156484/,居酒屋、ダイニングバー、ハワイ料理,バー・お酒,35.60660806,139.7340031,東京都品川区東大井5-15-10カンナビル2F
"0,1,0,1,0.5,0,0,1,0","0.0,3.0,0.0,3.0,3.0,0.0,0.0,0.0,3.0",0.9043239994237662,66.97320040336368,0.707106781187,1.147955528726525,19937,唐屋利久,https://tabelog.com/tokyo/A1315/A131501/13028356/,居酒屋、魚介料理・海鮮料理、焼鳥,高級和食,35.60731667,139.7341639,東京都品川区東大井5-4-10
"0,1,0,1,0.5,0,0,1,0","0.0,3.0,0.0,3.0,3.0,0.0,0.0,0.0,3.0",0.8957426486621112,72.98014593652216,0.707106781187,1.1412076465885665,20198,ビストロ マケロニ,https://tabelog.com/tokyo/A1315/A131501/13130656/,ビストロ、ワインバー、イタリアン,洋食・西洋料理,35.60752472,139.7346664,東京都品川区東大井5-5-11サンライスビル1F
"0,1,0,1,0.5,0,0,1,0","0.0,3.0,0.0,3.0,3.0,0.0,0.0,0.0,3.0",0.8882345948413974,78.2357836110218,0.707106781187,1.1353240486632272,19549,庄や 大井町店,https://tabelog.com/tokyo/A1315/A131501/13085831/,居酒屋,居酒屋,35.60705556,139.733825,東京都品川区東大井5-15-16
"0,1,0,1,0.5,0,0,1,0","0.0,3.0,0.0,3.0,3.0,0.0,0.0,0.0,3.0",0.8866019786296588,79.37861495923875,0.707106781187,1.134047207355155,19794,銀寿司,https://tabelog.com/tokyo/A1315/A131501/13071005/,寿司,高級和食,35.60616278,139.7345025,東京都品川区東大井5-14-14
"0,1,0,1,0.5,0,0,1,0","0.0,3.0,0.0,3.0,3.0,0.0,0.0,0.0,3.0",0.8789997612317941,84.70016713774413,0.707106781187,1.128113726645302,19946,土間土間 大井町店,https://tabelog.com/tokyo/A1315/A131501/13052055/,居酒屋、焼鳥、ダイニングバー,バー・お酒,35.60718735,139.7338085,東京都品川区東大井5-15-1２Ｆ・３Ｆ
"0,1,0,1,0.5,0,0,1,0","0.0,3.0,0.0,3.0,0.0,0.0,0.0,0.0,3.0",0.9094742173908981,63.36804782637134,0.666666666667,1.1276470177068847,20226,つるや,https://tabelog.com/tokyo/A1315/A131501/13052312/,居酒屋、割烹・小料理,高級和食,35.607367,139.734319,東京都品川区東大井5-4-9
"0,1,0,1,0.5,0,0,1,0","0.0,3.0,0.0,3.0,3.0,0.0,0.0,0.0,3.0",0.8755005368788733,87.14962418478869,0.707106781187,1.1253893504361925,19529,かき殻荘,https://tabelog.com/tokyo/A1315/A131501/13158091/,魚介料理・海鮮料理、オイスターバー、バーベキュー,創作料理・無国籍料理,35.6076486,139.7345616,東京都品川区東大井5-4-61F～2F
"0,1,0,1,0.5,0,0,1,0","0.0,3.0,0.0,3.0,0.0,0.0,0.0,0.0,3.0",0.904450705197064,66.88450636205522,0.666666666667,1.123599360348657,20349,らくらくや,https://tabelog.com/tokyo/A1315/A131501/13054503/,居酒屋、ビストロ,洋食・西洋料理,35.60638833,139.7342083,東京都品川区東大井5-14-16
"0,1,0,1,0.5,0,0,1,0","0.0,3.0,0.0,3.0,3.0,0.0,0.0,0.0,3.0",0.8730056707329586,88.89603048692888,0.707106781187,1.1234495543333947,19478,炭火焼肉酒家 牛角 大井町店,https://tabelog.com/tokyo/A1315/A131501/13028256/,焼肉、ホルモン、韓国料理,焼肉・ホルモン・鍋,35.60755833,139.7341611,東京都品川区東大井5-4-14
"0,1,0,1,0.5,0,0,1,0","0.0,3.0,0.0,3.0,3.0,0.0,0.0,0.0,3.0",0.8690025031343228,91.69824780597405,0.707106781187,1.120341622208922,17594,大井町のひもの屋,https://tabelog.com/tokyo/A1315/A131501/13019410/,居酒屋、魚介料理・海鮮料理、ろばた焼き,高級和食,35.6074327,139.7339192,東京都品川区東大井5-4-12鈴木ビル
"0,1,0,1,0.5,0,0,1,0","0.0,3.0,0.0,3.0,3.0,0.0,0.0,0.0,3.0",0.8679533424954383,92.43266025319313,0.707106781187,1.1195280276746107,17878,豚のいろ葉,https://tabelog.com/tokyo/A1315/A131501/13201908/,居酒屋、豚料理、焼肉,焼肉・ホルモン・鍋,35.60756361,139.7340975,東京都品川区東大井5-4-14
"0,1,0,1,0.5,0,0,1,0","0.0,3.0,0.0,3.0,3.0,0.0,0.0,0.0,3.0",0.8672289201185595,92.93975591700836,0.707106781187,1.1189664873846772,17758,HO-bar,https://tabelog.com/tokyo/A1315/A131501/13169003/,バル・バール、西洋各国料理（その他）、ダイニングバー,洋食・西洋料理,35.60696132,139.7356762,東京都品川区東大井5-11-1DMビル1F
"0,1,0,1,0.5,0,0,1,0","0.0,3.0,0.0,3.0,3.0,0.0,0.0,0.0,3.0",0.8644043256394548,94.91697205238164,0.707106781187,1.1167787776387053,17612,ホルモン酒場 福ちゃん,https://tabelog.com/tokyo/A1315/A131501/13029763/,ホルモン、居酒屋,焼肉・ホルモン・鍋,35.60683944,139.73361,東京都品川区東大井5-17-2
"0,1,0,1,0.5,0,0,1,0","0.0,3.0,0.0,3.0,0.0,0.0,0.0,0.0,3.0",0.8957425656870056,72.98020401909608,0.666666666667,1.1166016247650654,17821,昭和浪漫,https://tabelog.com/tokyo/A1315/A131501/13033344/,居酒屋、焼鳥、和食（その他）,Ｂ級和食,35.60748583,139.73493,東京都品川区東大井5-6-11
"0,1,0,1,0.5,0,0,1,0","0.0,3.0,0.0,3.0,3.0,0.0,0.0,0.0,3.0",0.8577211154871559,99.59521915899087,0.707106781187,1.111613922165664,19102,フレッシュホルモン かびら,https://tabelog.com/tokyo/A1315/A131501/13098583/,ホルモン、牛タン、もつ焼き,焼肉・ホルモン・鍋,35.60751558,139.7338971,東京都品川区東大井5-3-5
"0,1,0,1,0.5,0,0,1,0","0.0,3.0,0.0,3.0,3.0,0.0,0.0,0.0,3.0",0.8566262868672808,100.36159919290343,0.707106781187,1.1107693709101025,18987,TAKA,https://tabelog.com/tokyo/A1315/A131501/13101039/,ダイニングバー、バー、居酒屋・ダイニングバー（その他）,バー・お酒,35.60716028,139.7336092,東京都品川区東大井5-15-16まめそうビル2F
"0,1,0,1,0.5,0,0,1,0","0.0,3.0,0.0,3.0,0.0,0.0,0.0,0.0,3.0",0.8857981741714093,79.94127808001353,0.666666666667,1.108640090295244,18308,くっちゃいな 大井町店,https://tabelog.com/tokyo/A1315/A131501/13020982/,中華料理、居酒屋,アジア・エスニック、中華料理,35.60717028,139.7338567,東京都品川区東大井5-15-1
"0,1,0,1,0.5,0,0,1,0","0.0,3.0,0.0,3.0,0.0,0.0,0.0,3.0,0.0",0.5825957244724934,292.1829928692546,0.942809041582,1.1082899742677987,18194,はなの舞 阪急大井町ガーデン店,https://tabelog.com/tokyo/A1315/A131501/13125286/,居酒屋,居酒屋,35.60569028,139.7317722,東京都品川区大井1-50-5阪急大井町ガーデン2F
"0,1,0,1,0.5,0,0,1,0","0.0,3.0,0.0,3.0,3.0,0.0,0.0,0.0,3.0",0.8515694640545107,103.90137516184244,0.707106781187,1.1068742259670188,19599,博多かわ屋 大井町店,https://tabelog.com/tokyo/A1315/A131501/13191067/,居酒屋、鳥料理、焼鳥,Ｂ級和食,35.60694417,139.7335142,東京都品川区東大井5-17-1北橋ビル2F
"0,1,0,1,0.5,0,0,1,0","0.0,3.0,0.0,3.0,3.0,0.0,0.0,0.0,3.0",0.8515416724986326,103.9208292509572,0.707106781187,1.1068528447818926,19919,電雷 大井町店,https://tabelog.com/tokyo/A1315/A131501/13056414/,もつ鍋、串焼き,焼肉・ホルモン・鍋,35.60694333,139.7335139,東京都品川区東大井5-17-1北橋ビル1F
"0,1,0,1,0.5,0,0,1,0","0.0,3.0,0.0,3.0,0.0,0.0,0.0,3.0,0.0",0.5797981950819504,294.1412634426347,0.942809041582,1.1068219531203636,19092,宝田水産 阪急大井町ガーデン店,https://tabelog.com/tokyo/A1315/A131501/13165752/,寿司,高級和食,35.6053275,139.7320142,東京都品川区大井1-50-5阪急大井町ガーデン1F
"0,1,0,1,0.5,0,0,1,0","0.0,3.0,0.0,3.0,0.0,0.0,0.0,0.0,3.0",0.8827189158052896,82.0967589362973,0.666666666667,1.1061813272537693,18118,くいものや陣 大井町店,https://tabelog.com/tokyo/A1315/A131501/13147758/,居酒屋,居酒屋,35.60709467,139.7337949,東京都品川区東大井5-15-16まめそうビルB1F
"0,1,0,1,0.5,0,0,1,0","0.0,3.0,0.0,3.0,3.0,0.0,0.0,0.0,3.0",0.8459368645700313,107.84419480097814,0.707106781187,1.1025466787572196,19583,牛タン ふかざわ 大井町店,https://tabelog.com/tokyo/A1315/A131501/13190507/,居酒屋、ダイニングバー、もつ鍋,バー・お酒,35.60782167,139.7344333,東京都品川区東大井5-4-17河本ビル3F
"0,1,0,1,0.5,0,0,1,0","0.0,3.0,0.0,3.0,3.0,0.0,0.0,3.0,0.0",0.5358028220929691,324.93802453492157,0.962250448649,1.1013675998905705,19303,治郎丸 大井町店,https://tabelog.com/tokyo/A1315/A131501/13181040/,焼肉、ホルモン、居酒屋,焼肉・ホルモン・鍋,35.60774583,139.7312361,東京都品川区大井1-1-9
"0,1,0,1,0.5,0,0,1,0","0.0,3.0,0.0,3.0,3.0,0.0,0.0,0.0,3.0",0.843622285356181,109.46440025067331,0.707106781187,1.100771802123213,19873,イタリアンバル バル道,https://tabelog.com/tokyo/A1315/A131501/13130425/,イタリアン、ピザ、バル・バール,洋食・西洋料理,35.606825,139.73345,東京都品川区東大井5-17-3
"0,1,0,1,0.5,0,0,1,0","0.0,3.0,0.0,3.0,3.0,0.0,0.0,3.0,0.0",0.5308471562318251,328.4069906377224,0.962250448649,1.0989652538662638,17747,CFT北一倶楽部 大井町店,https://tabelog.com/tokyo/A1315/A131501/13085851/,ジンギスカン,焼肉・ホルモン・鍋,35.60766222,139.7311658,東京都品川区大井1-1-10
"0,1,0,1,0.5,0,0,1,0","0.0,3.0,0.0,3.0,3.0,0.0,0.0,0.0,3.0",0.837266274014217,113.91360819004805,0.707106781187,1.0959082140405967,18525,玄品ふぐ 大井町の関,https://tabelog.com/tokyo/A1315/A131501/13027813/,ふぐ、鍋（その他）、懐石・会席料理,高級和食,35.60710278,139.7358806,東京都品川区東大井5-7-10クレストワン　Ｂ１Ｆ
"0,1,0,1,0.5,0,0,1,0","0.0,3.0,0.0,3.0,0.0,0.0,0.0,0.0,3.0",0.8669056770735319,93.16602604852763,0.666666666667,1.0936040862152827,20213,千年の宴 大井町東口駅前店,https://tabelog.com/tokyo/A1315/A131501/13052003/,居酒屋、魚介料理・海鮮料理、創作料理,高級和食,35.60671222,139.7336464,東京都品川区東大井5-17-4高山ビルＢ１Ｆ
"0,1,0,1,0.5,0,0,1,0","0.0,3.0,0.0,3.0,3.0,0.0,0.0,0.0,3.0",0.8335618678228581,116.50669252399928,0.707106781187,1.0930806866322047,20085,よし臓,https://tabelog.com/tokyo/A1315/A131501/13038711/,焼肉、もつ鍋、居酒屋,焼肉・ホルモン・鍋,35.607745,139.7339517,東京都品川区東大井5-2-5
"0,1,0,1,0.5,0,0,1,0","0.0,3.0,0.0,3.0,3.0,0.0,0.0,0.0,3.0",0.8299525973829447,119.03318183193868,0.707106781187,1.0903308277319763,17543,旨唐揚げと居酒メシ ミライザカ 大井町東口駅前店,https://tabelog.com/tokyo/A1315/A131501/13052997/,居酒屋,居酒屋,35.60686806,139.7333433,東京都品川区東大井5-17-2林ビル1・2F
"0,1,0,1,0.5,0,0,1,0","0.0,3.0,0.0,3.0,3.0,0.0,0.0,0.0,3.0",0.8275586735255694,120.7089285321014,0.707106781187,1.0885096959271425,17699,鹿児島県霧島市 塚田農場 大井町店,https://tabelog.com/tokyo/A1315/A131501/13188829/,居酒屋、鳥料理、もつ鍋,Ｂ級和食,35.60748167,139.7335578,東京都品川区東大井5-3-7プラザヤワタヤB1F
"0,1,0,1,0.5,0,0,1,0","0.0,3.0,0.0,3.0,0.0,0.0,0.0,0.0,3.0",0.8566474711615633,100.34677018690567,0.666666666667,1.0854903658218003,19118,金井寿司,https://tabelog.com/tokyo/A1315/A131501/13070977/,寿司,高級和食,35.607525,139.7338972,東京都品川区東大井5-3-5
"0,1,0,1,0.5,0,0,1,0","0.0,3.0,0.0,3.0,0.0,0.0,0.0,3.0,0.0",0.534484564357439,325.86080494979274,0.942809041582,1.0837724108064617,20104,ひな鳥そのだ,https://tabelog.com/tokyo/A1315/A131501/13137722/,鳥料理、焼酎バー、居酒屋,バー・お酒,35.60716806,139.7382344,東京都品川区南品川5-14-11
"0,1,0,1,0.5,0,0,1,0","0.0,3.0,0.0,3.0,3.0,0.0,0.0,0.0,3.0",0.8161552238520694,128.6913433035514,0.707106781187,1.0798654311630786,20149,うまい鮨勘 大井町支店,https://tabelog.com/tokyo/A1315/A131501/13038410/,寿司、天ぷら、魚介料理・海鮮料理,高級和食,35.60795389,139.7341611,東京都品川区東大井5-1-12
"0,1,0,1,0.5,0,0,1,0","0.0,3.0,0.0,3.0,0.0,0.0,0.0,0.0,3.0",0.848598500810257,105.9810494328201,0.666666666667,1.079149600389983,20175,御婆灯,https://tabelog.com/tokyo/A1315/A131501/13074402/,おでん、居酒屋,Ｂ級和食,35.60769005,139.7340634,東京都品川区東大井5-2-8
"0,1,0,1,0.5,0,0,1,0","0.0,3.0,0.0,3.0,0.0,0.0,0.0,0.0,3.0",0.841073327350377,111.24867085473613,0.666666666667,1.073242184422826,20027,青葉,https://tabelog.com/tokyo/A1315/A131501/13040818/,焼肉,焼肉・ホルモン・鍋,35.60711417,139.7358469,東京都品川区東大井5-7-10クレストワン２階
"0,1,0,1,0.5,0,0,1,0","0.0,3.0,0.0,3.0,0.0,0.0,0.0,0.0,3.0",0.8375635516092113,113.70551387355219,0.666666666667,1.0704938801453656,18220,七甲山,https://tabelog.com/tokyo/A1315/A131501/13040613/,焼肉,焼肉・ホルモン・鍋,35.60771028,139.7339439,東京都品川区東大井5-2-8
"0,1,0,1,0.5,0,0,1,0","0.0,3.0,0.0,3.0,3.0,0.0,0.0,0.0,3.0",0.7982301517534748,141.23889377256765,0.707106781187,1.0663823775589951,18239,がんばり亭,https://tabelog.com/tokyo/A1315/A131501/13136070/,居酒屋、おでん、焼きとん,Ｂ級和食,35.60756132,139.7333505,東京都品川区東大井5-3-13
"0,1,0,1,0.5,0,0,1,0","0.0,3.0,0.0,3.0,3.0,0.0,0.0,0.0,3.0",0.7975786880498633,141.69491836509562,0.707106781187,1.0658948182777424,17521,炭火焼肉 唐がらし,https://tabelog.com/tokyo/A1315/A131501/13009403/,焼肉、居酒屋、韓国料理,焼肉・ホルモン・鍋,35.60813972,139.7345278,東京都品川区東大井5-1-9
"0,1,0,1,0.5,0,0,1,0","0.0,3.0,0.0,3.0,0.0,0.0,0.0,0.0,3.0",0.8276618650621125,120.63669445652121,0.666666666667,1.0627646057912068,17801,YOU,https://tabelog.com/tokyo/A1315/A131501/13202566/,バー・お酒（その他）,バー・お酒,35.60762778,139.7337058,東京都品川区東大井5-2-10
"0,1,0,1,0.5,0,0,1,0","0.0,3.0,0.0,3.0,3.0,0.0,0.0,0.0,3.0",0.7905315931779441,146.62788477543918,0.707106781187,1.0606319813264442,18260,田,https://tabelog.com/tokyo/A1315/A131501/13060061/,居酒屋、割烹・小料理,高級和食,35.60570852,139.7338783,東京都品川区東大井5丁目19-6
"0,1,0,1,0.5,0,0,1,0","0.0,3.0,0.0,3.0,3.0,0.0,0.0,0.0,3.0",0.7899083299491167,147.06416903561828,0.707106781187,1.0601675196510232,19626,らんまん,https://tabelog.com/tokyo/A1315/A131501/13182651/,串揚げ・串かつ、寿司,高級和食,35.60760417,139.7333081,東京都品川区東大井5-3-11F・2F
"0,1,0,1,0.5,0,0,1,0","0.0,3.0,0.0,3.0,3.0,0.0,0.0,0.0,3.0",0.7849200482584596,150.55596621907833,0.707106781187,1.05645609570775,18171,酔庵たくみ,https://tabelog.com/tokyo/A1315/A131501/13033488/,居酒屋,居酒屋,35.60820147,139.7343558,東京都品川区東大井5-1-8大井ハイツ　１Ｆ
"0,1,0,1,0.5,0,0,1,0","0.0,3.0,0.0,3.0,3.0,0.0,0.0,0.0,3.0",0.7802578459975572,153.81950780170996,0.707106781187,1.0529968215720062,17664,鉄板料理　八天,https://tabelog.com/tokyo/A1315/A131501/13109910/,鉄板焼き、魚介料理・海鮮料理、ステーキ,洋食・西洋料理,35.60821064,139.7350752,東京都品川区南品川6-19-21F
"0,1,0,1,0.5,0,0,1,0","0.0,3.0,0.0,3.0,0.0,0.0,0.0,0.0,3.0",0.8091291076745875,133.6096246277888,0.666666666667,1.0483960879985763,20357,安味家,https://tabelog.com/tokyo/A1315/A131501/13101950/,中華料理、ダイニングバー,バー・お酒,35.60763517,139.7335214,東京都品川区東大井5-2-11
"0,1,0,1,0.5,0,0,1,0","0.0,3.0,0.0,3.0,3.0,0.0,0.0,0.0,3.0",0.7710534300542715,160.26259896201,0.707106781187,1.046194719924765,17590,三来風,https://tabelog.com/tokyo/A1315/A131501/13044550/,焼肉,焼肉・ホルモン・鍋,35.60783345,139.7333425,東京都品川区東大井5-2-13大井ビル３階
"0,1,0,1,0.5,0,0,1,0","0.0,3.0,0.0,3.0,0.0,0.0,0.0,3.0,0.0",0.424663312871102,402.7356809902286,0.942809041582,1.0340347277473558,19974,活魚・串焼き ほんま,https://tabelog.com/tokyo/A1315/A131501/13025627/,ホルモン,焼肉・ホルモン・鍋,35.61040667,139.7336725,東京都品川区南品川6-8-26
"0,1,0,1,0.5,0,0,1,0","0.0,2.0,0.0,3.0,3.0,0.0,0.0,0.0,3.0",0.7507262256138137,174.4916420703304,0.707106781187,1.0313049334820243,19327,アジアンダイニング&バー シャングリラ,https://tabelog.com/tokyo/A1315/A131501/13206646/,インドカレー、タイ料理、居酒屋・ダイニングバー（その他）,バー・お酒,35.60843806,139.7347444,東京都品川区南品川6-18-19
"0,1,0,1,0.5,0,0,1,0","0.0,3.0,0.0,3.0,3.0,0.0,0.0,0.0,3.0",0.7506834740229419,174.52156818394064,0.707106781187,1.0312738133837942,18938,かわち屋,https://tabelog.com/tokyo/A1315/A131501/13091953/,焼鳥、居酒屋,居酒屋,35.60843833,139.7347444,東京都品川区南品川6-18-192Fこのお店は「品川区大井4-2-6」から移転しています。※移転前の情報は最新のものとは異なります。移転前の店舗情報を見る
"0,1,0,1,0.5,0,0,1,0","0.0,3.0,0.0,3.0,0.0,0.0,0.0,0.0,3.0",0.7846184030695605,150.76711785130755,0.666666666667,1.0295972430420897,19958,めいくわん,https://tabelog.com/tokyo/A1315/A131501/13022616/,鉄板焼き、居酒屋,洋食・西洋料理,35.60822583,139.7346667,東京都品川区南品川6-18-18
"0,1,0,1,0.5,0,0,1,0","0.0,3.0,0.0,3.0,3.0,0.0,0.0,3.0,0.0",0.3584603086507752,449.07778394445734,0.962250448649,1.0268494138888793,18126,焼鳥 晋ちゃん,https://tabelog.com/tokyo/A1315/A131501/13183186/,焼鳥,Ｂ級和食,35.604,139.7311586,東京都品川区大井4-1-5ケイビル21F
"0,1,0,1,0.5,0,0,1,0","0.0,3.0,0.0,3.0,0.0,0.0,0.0,0.0,3.0",0.7799941937368952,154.00406438417335,0.666666666667,1.0260776708942232,19232,創作イタリアンちゃぶっとりあ,https://tabelog.com/tokyo/A1315/A131501/13096567/,イタリアン、パスタ、ダイニングバー,洋食・西洋料理,35.60709436,139.7363337,東京都品川区東大井5-10-10アーバンステージ大井町Ⅱ1F
"0,1,0,1,0.5,0,0,1,0","0.0,3.0,0.0,3.0,3.0,0.0,0.0,3.0,0.0",0.3541012225525923,452.1291442131854,0.962250448649,1.0253358482659067,18823,むろと,https://tabelog.com/tokyo/A1315/A131501/13079179/,割烹・小料理、すっぽん、ふぐ,高級和食,35.60554722,139.7299361,東京都品川区大井1-25-3シティハイツ大井町1F
"0,1,0,1,0.5,0,0,1,0","0.0,3.0,0.0,3.0,0.0,0.0,0.0,0.0,3.0",0.7777910372899259,155.5462738970518,0.666666666667,1.0244038959965855,17928,釣り仲間,https://tabelog.com/tokyo/A1315/A131501/13007361/,魚介料理・海鮮料理、割烹・小料理,高級和食,35.60815778,139.7353269,東京都品川区南品川5-11-42
"0,1,0,1,0.5,0,0,1,0","0.0,3.0,0.0,3.0,3.0,0.0,0.0,0.0,3.0",0.7383475770427981,183.1566960700414,0.707106781187,1.0223292740232819,19057,八幸 すずらん通り店,https://tabelog.com/tokyo/A1315/A131501/13108429/,おでん、鳥料理、居酒屋,Ｂ級和食,35.60844694,139.7352428,東京都品川区南品川6-18-16
"0,1,0,1,0.5,0,0,1,0","0.0,3.0,0.0,3.0,0.0,0.0,0.0,3.0,0.0",0.3908560179001073,426.40078746992486,0.942809041582,1.0206161450896305,19771,わらじ,https://tabelog.com/tokyo/A1315/A131501/13081256/,定食・食堂、居酒屋,居酒屋,35.60695167,139.7299522,東京都品川区大井1-22-18
"0,1,0,1,0.5,0,0,1,0","0.0,3.0,0.0,3.0,3.0,0.0,0.0,3.0,0.0",0.33806569612495235,463.35401271253335,0.962250448649,1.0199089865386883,19367,鳥はし,https://tabelog.com/tokyo/A1315/A131501/13124330/,焼鳥,Ｂ級和食,35.60406093,139.7308697,東京都品川区大井1-55-6Ｍビル１
"0,1,0,1,0.5,0,0,1,0","0.0,3.0,0.0,3.0,0.0,0.0,0.0,0.0,3.0",0.7710043444181546,160.29695890729175,0.666666666667,1.0192605866784572,18758,相席屋 大井町店,https://tabelog.com/tokyo/A1315/A131501/13180722/,居酒屋,居酒屋,35.60783355,139.7333421,東京都品川区東大井5-2-13大井町大井ビル4F
