user_vec,shop_vec,dist_score,distance [m],cosθ,oaiso_score,id,shop_name,URL,genre,oaiso_genre,lat,lng,address
"0,1,0,1,0,0,0,1,0","0.0,3.0,0.0,3.0,0.0,0.0,0.0,3.0,0.0",0.9057927877525732,84.78649102268415,1.0,1.349244445734196,20044,肉寿司 大井町店,https://tabelog.com/tokyo/A1315/A131501/13117263/,牛料理、寿司、創作料理,高級和食,35.607478,139.734095,東京都品川区東大井5-4-13
"0,1,0,1,0,0,0,1,0","0.0,3.0,0.0,3.0,0.0,0.0,0.0,3.0,0.0",0.892445091330939,96.79941780215489,1.0,1.3403202009373312,17599,洋風居酒屋 春菜亭,https://tabelog.com/tokyo/A1315/A131501/13028524/,居酒屋、洋食,居酒屋,35.60715833,139.73365,東京都品川区東大井5-15-16まめそうビル　Ｂ１Ｆ
"0,1,0,1,0,0,0,1,0","0.0,3.0,0.0,3.0,0.0,0.0,0.0,3.0,0.0",0.8815570896956979,106.59861927387195,1.0,1.3330952338046778,17519,みさき,https://tabelog.com/tokyo/A1315/A131501/13074891/,居酒屋,居酒屋,35.60754167,139.7338194,東京都品川区東大井5-3-4
"0,1,0,1,0,0,0,1,0","0.0,3.0,0.0,3.0,0.0,0.0,0.0,3.0,0.0",0.872411713471785,114.82945787539352,1.0,1.3270652575524597,18040,餃子屋EX,https://tabelog.com/tokyo/A1315/A131501/13203810/,バー・お酒（その他）,バー・お酒,35.60754472,139.7336992,東京都品川区東大井5-3-3
"0,1,0,1,0,0,0,1,0","0.0,3.0,0.0,3.0,0.0,0.0,0.0,3.0,0.0",0.8692646394396578,117.66182450430797,1.0,1.3249984956143002,20311,宮川 大井町,https://tabelog.com/tokyo/A1315/A131501/13045689/,うなぎ,高級和食,35.60719972,139.73589,東京都品川区東大井5-7-10
"0,1,0,1,0,0,0,1,0","0.0,3.0,0.0,3.0,0.0,0.0,0.0,3.0,0.0",0.8540004806805999,131.39956738746008,1.0,1.3150349124653289,17954,ユイット,https://tabelog.com/tokyo/A1315/A131501/13117441/,ビストロ、ワインバー,バー・お酒,35.60756917,139.7334892,東京都品川区東大井5-3-2
"0,1,0,1,0,0,0,1,0","0.0,3.0,0.0,3.0,0.0,0.0,0.0,3.0,0.0",0.84310783404644,141.20294935820397,1.0,1.3079873163874638,18767,牛タン いろ葉,https://tabelog.com/tokyo/A1315/A131501/13181078/,牛タン、居酒屋、焼肉,焼肉・ホルモン・鍋,35.60755972,139.7333497,東京都品川区東大井5-3-13
"0,1,0,1,0,0,0,1,0","0.0,3.0,0.0,3.0,0.0,0.0,0.0,3.0,0.0",0.8430678958082582,141.23889377256765,1.0,1.3079615731903458,19432,美寿々,https://tabelog.com/tokyo/A1315/A131501/13167874/,居酒屋,居酒屋,35.60756132,139.7333505,東京都品川区東大井5-3-13
"0,1,0,1,0,0,0,1,0","0.0,3.0,0.0,3.0,0.0,0.0,0.0,3.0,0.0",0.8217864880635903,160.3921607427687,1.0,1.294346565632207,20094,たら福,https://tabelog.com/tokyo/A1315/A131501/13083838/,居酒屋,居酒屋,35.60784444,139.7333528,東京都品川区東大井5-2-14
"0,1,0,1,0,0,0,1,0","0.0,3.0,0.0,3.0,3.0,0.0,0.0,3.0,0.0",0.8932375058651717,96.0862447213455,0.816496580928,1.2101817667403931,20121,旬鮮料理 じょう 大井町店,https://tabelog.com/tokyo/A1315/A131501/13033234/,魚介料理・海鮮料理、居酒屋,高級和食,35.60679722,139.7336,東京都品川区東大井5-17-2野村ビル　２Ｆ
"0,1,0,1,0,0,0,1,0","0.0,3.0,0.0,3.0,0.0,0.0,0.0,3.0,0.0",0.6753522301452727,292.1829928692546,1.0,1.2066899497228745,18194,はなの舞 阪急大井町ガーデン店,https://tabelog.com/tokyo/A1315/A131501/13125286/,居酒屋,居酒屋,35.60569028,139.7317722,東京都品川区大井1-50-5阪急大井町ガーデン2F
"0,1,0,1,0,0,0,1,0","0.0,3.0,0.0,3.0,0.0,0.0,0.0,3.0,0.0",0.6731763739526281,294.1412634426347,1.0,1.2054735295509431,19092,宝田水産 阪急大井町ガーデン店,https://tabelog.com/tokyo/A1315/A131501/13165752/,寿司,高級和食,35.6053275,139.7320142,東京都品川区大井1-50-5阪急大井町ガーデン1F
"0,1,0,1,0,0,0,1,0","0.0,3.0,0.0,3.0,3.0,0.0,0.0,3.0,0.0",0.8740254169064454,113.37712478419922,0.816496580928,1.1960715263165294,19975,Speak Easy,https://tabelog.com/tokyo/A1315/A131501/13060294/,バー,バー・お酒,35.60778861,139.7351975,東京都品川区東大井5-6-14
"0,1,0,1,0,0,0,1,0","0.0,3.0,0.0,3.0,0.0,0.0,0.0,0.0,3.0",0.9571517710177659,38.56340608401075,0.707106781187,1.1900166018852198,20294,藤半,https://tabelog.com/tokyo/A1315/A131501/13029458/,魚介料理・海鮮料理、郷土料理（その他）,高級和食,35.60673261,139.7342645,東京都品川区東大井5-14-19中川ビル
"0,1,0,1,0,0,0,1,0","0.0,3.0,0.0,3.0,0.0,0.0,0.0,3.0,0.0",0.6379324389446748,325.86080494979274,1.0,1.1861525182951396,20104,ひな鳥そのだ,https://tabelog.com/tokyo/A1315/A131501/13137722/,鳥料理、焼酎バー、居酒屋,バー・お酒,35.60716806,139.7382344,東京都品川区南品川5-14-11
"0,1,0,1,0,0,0,1,0","0.0,3.0,0.0,3.0,0.0,0.0,0.0,0.0,3.0",0.9295910579706985,63.36804782637134,0.707106781187,1.167963841503273,20226,つるや,https://tabelog.com/tokyo/A1315/A131501/13052312/,居酒屋、割烹・小料理,高級和食,35.607367,139.734319,東京都品川区東大井5-4-9
"0,1,0,1,0,0,0,1,0","0.0,3.0,0.0,3.0,0.0,0.0,0.0,0.0,3.0",0.9256838818199387,66.88450636205522,0.707106781187,1.1648564929042675,20349,らくらくや,https://tabelog.com/tokyo/A1315/A131501/13054503/,居酒屋、ビストロ,洋食・西洋料理,35.60638833,139.7342083,東京都品川区東大井5-14-16
"0,1,0,1,0,0,0,1,0","0.0,3.0,0.0,3.0,0.0,0.0,0.0,0.0,3.0",0.9189108844232267,72.98020401909608,0.707106781187,1.1594814416416834,17821,昭和浪漫,https://tabelog.com/tokyo/A1315/A131501/13033344/,居酒屋、焼鳥、和食（その他）,Ｂ級和食,35.60748583,139.73493,東京都品川区東大井5-6-11
"0,1,0,1,0,0,0,1,0","0.0,3.0,0.0,3.0,0.0,0.0,0.0,0.0,3.0",0.911176357688874,79.94127808001353,0.707106781187,1.1533613288172804,18308,くっちゃいな 大井町店,https://tabelog.com/tokyo/A1315/A131501/13020982/,中華料理、居酒屋,アジア・エスニック、中華料理,35.60717028,139.7338567,東京都品川区東大井5-15-1
"0,1,0,1,0,0,0,1,0","0.0,3.0,0.0,3.0,0.0,0.0,0.0,0.0,3.0",0.9087813789596697,82.0967589362973,0.707106781187,1.151470188386933,18118,くいものや陣 大井町店,https://tabelog.com/tokyo/A1315/A131501/13147758/,居酒屋,居酒屋,35.60709467,139.7337949,東京都品川区東大井5-15-16まめそうビルB1F
"0,1,0,1,0,0,0,1,0","0.0,3.0,0.0,3.0,3.0,0.0,0.0,3.0,0.0",0.811224556562817,169.89789909346476,0.816496580928,1.1509786913045807,19900,呑み処食べ処　真琴,https://tabelog.com/tokyo/A1315/A131501/13135652/,居酒屋、和食（その他）,Ｂ級和食,35.60826409,139.7338894,東京都品川区東大井5-1-8
"0,1,0,1,0,0,0,1,0","0.0,3.0,0.0,3.0,0.0,0.0,0.0,3.0,0.0",0.5525159100108571,402.7356809902286,1.0,1.1424858120848265,19974,活魚・串焼き ほんま,https://tabelog.com/tokyo/A1315/A131501/13025627/,ホルモン,焼肉・ホルモン・鍋,35.61040667,139.7336725,東京都品川区南品川6-8-26
"0,1,0,1,0,0,0,1,0","0.0,3.0,0.0,3.0,0.0,0.0,0.0,0.0,3.0",0.8964821932794137,93.16602604852763,0.707106781187,1.1417882127903878,20213,千年の宴 大井町東口駅前店,https://tabelog.com/tokyo/A1315/A131501/13052003/,居酒屋、魚介料理・海鮮料理、創作料理,高級和食,35.60671222,139.7336464,東京都品川区東大井5-17-4高山ビルＢ１Ｆ
"0,1,0,1,0,0,0,1,0","0.0,3.0,0.0,3.0,0.0,0.0,0.0,0.0,3.0",0.8885035886812159,100.34677018690567,0.707106781187,1.1355345116285103,19118,金井寿司,https://tabelog.com/tokyo/A1315/A131501/13070977/,寿司,高級和食,35.607525,139.7338972,東京都品川区東大井5-3-5
"0,1,0,1,0,0,0,1,0","0.0,3.0,0.0,3.0,0.0,0.0,0.0,0.0,3.0",0.8822432784079777,105.9810494328201,0.707106781187,1.1306428270218922,20175,御婆灯,https://tabelog.com/tokyo/A1315/A131501/13074402/,おでん、居酒屋,Ｂ級和食,35.60769005,139.7340634,東京都品川区東大井5-2-8
"0,1,0,1,0,0,0,1,0","0.0,3.0,0.0,3.0,0.0,0.0,0.0,3.0,0.0",0.5262213472556391,426.40078746992486,1.0,1.1300039408371725,19771,わらじ,https://tabelog.com/tokyo/A1315/A131501/13081256/,定食・食堂、居酒屋,居酒屋,35.60695167,139.7299522,東京都品川区大井1-22-18
"0,1,0,1,0,0,0,1,0","0.0,3.0,0.0,3.0,0.0,0.0,0.0,0.0,3.0",0.8763903657169598,111.24867085473613,0.707106781187,1.1260817346540644,20027,青葉,https://tabelog.com/tokyo/A1315/A131501/13040818/,焼肉,焼肉・ホルモン・鍋,35.60711417,139.7358469,東京都品川区東大井5-7-10クレストワン２階
"0,1,0,1,0,0,0,1,0","0.0,3.0,0.0,3.0,0.0,0.0,0.0,0.0,3.0",0.8736605401404977,113.70551387355219,0.707106781187,1.1239585132017045,18220,七甲山,https://tabelog.com/tokyo/A1315/A131501/13040613/,焼肉,焼肉・ホルモン・鍋,35.60771028,139.7339439,東京都品川区東大井5-2-8
"0,1,0,1,0,0,0,1,0","0.0,3.0,0.0,3.0,0.0,0.0,0.0,0.0,3.0",0.8659592283816431,120.63669445652121,0.707106781187,1.1179827302867118,17801,YOU,https://tabelog.com/tokyo/A1315/A131501/13202566/,バー・お酒（その他）,バー・お酒,35.60762778,139.7337058,東京都品川区東大井5-2-10
"0,1,0,1,0,0,0,1,0","0.0,3.0,0.0,3.0,0.0,0.0,0.0,0.0,3.0",0.8515448615246791,133.6096246277888,0.707106781187,1.106855298216115,20357,安味家,https://tabelog.com/tokyo/A1315/A131501/13101950/,中華料理、ダイニングバー,バー・お酒,35.60763517,139.7335214,東京都品川区東大井5-2-11
"0,1,0,1,0,0,0,1,0","0.0,3.0,0.0,3.0,0.0,0.0,0.0,3.0,0.0",0.4547635159896617,490.7128356093045,1.0,1.098548977276516,20073,まぐろダイニング美蔵 ホテルルートイン品川大井町店,https://tabelog.com/tokyo/A1315/A131501/13173340/,居酒屋、バイキング,創作料理・無国籍料理,35.60518633,139.7296476,東京都品川区大井1-35-2
"0,1,0,1,0,0,0,1,0","0.0,3.0,0.0,3.0,0.0,0.0,0.0,0.0,3.0",0.8324809801652138,150.76711785130755,0.707106781187,1.092256646735022,19958,めいくわん,https://tabelog.com/tokyo/A1315/A131501/13022616/,鉄板焼き、居酒屋,洋食・西洋料理,35.60822583,139.7346667,東京都品川区南品川6-18-18
"0,1,0,1,0,0,0,1,0","0.0,3.0,0.0,3.0,0.0,0.0,0.0,3.0,0.0",0.43804413719457697,505.76027652488074,1.0,1.091733789039499,18872,よろい,https://tabelog.com/tokyo/A1315/A131501/13138041/,焼肉,焼肉・ホルモン・鍋,35.60532917,139.7294025,東京都品川区大井1-34-7
"0,1,0,1,0,0,0,1,0","0.0,3.0,0.0,3.0,0.0,0.0,0.0,0.0,3.0",0.828884372906474,154.00406438417335,0.707106781187,1.0895179225917115,19232,創作イタリアンちゃぶっとりあ,https://tabelog.com/tokyo/A1315/A131501/13096567/,イタリアン、パスタ、ダイニングバー,洋食・西洋料理,35.60709436,139.7363337,東京都品川区東大井5-10-10アーバンステージ大井町Ⅱ1F
"0,1,0,1,0,0,0,1,0","0.0,3.0,0.0,3.0,0.0,0.0,0.0,0.0,3.0",0.8271708067810535,155.5462738970518,0.707106781187,1.0882148425705371,17928,釣り仲間,https://tabelog.com/tokyo/A1315/A131501/13007361/,魚介料理・海鮮料理、割烹・小料理,高級和食,35.60815778,139.7353269,東京都品川区南品川5-11-42
"0,1,0,1,0,0,0,1,0","0.0,3.0,0.0,3.0,0.0,0.0,0.0,0.0,3.0",0.8218922678807868,160.29695890729175,0.707106781187,1.0842079597578238,18758,相席屋 大井町店,https://tabelog.com/tokyo/A1315/A131501/13180722/,居酒屋,居酒屋,35.60783355,139.7333421,東京都品川区東大井5-2-13大井町大井ビル4F
"0,1,0,1,0,0,0,1,0","0.0,3.0,0.0,3.0,0.0,0.0,0.0,3.0,0.0",0.4030682712680036,537.2385558587968,1.0,1.078176252429526,17471,オステリア　トスカーナ,https://tabelog.com/tokyo/A1315/A131501/13149995/,イタリアン,洋食・西洋料理,35.60315889,139.7308442,東京都品川区大井4-6-9
"0,1,0,1,0,0,0,1,0","0.0,3.0,0.0,3.0,0.0,0.0,0.0,0.0,3.0",0.811224556562817,169.89789909346476,0.707106781187,1.0761437084193444,18885,広,https://tabelog.com/tokyo/A1315/A131501/13061509/,居酒屋、もつ焼き,居酒屋,35.60826409,139.7338894,東京都品川区東大井5丁目1-8
"0,1,0,1,0,0,0,1,0","0.0,3.0,0.0,3.0,3.0,0.0,0.0,0.0,3.0",0.9464904665040924,48.158580146316844,0.5,1.0704411255100088,19107,大井町 よし臓2号館 焼肉居酒屋,https://tabelog.com/tokyo/A1315/A131501/13055824/,居酒屋、ホルモン、焼肉,居酒屋,35.60661222,139.7342267,東京都品川区東大井5-14-19高田ビル　3F
"0,1,0,1,0,0,0,1,0","0.0,3.0,0.0,3.0,3.0,0.0,0.0,0.0,3.0",0.9397203584301725,54.25167741284474,0.5,1.0644596526163554,18898,お魚sun,https://tabelog.com/tokyo/A1315/A131501/13109164/,魚介料理・海鮮料理、居酒屋、和食（その他）,Ｂ級和食,35.60734914,139.7345573,東京都品川区東大井5-5-7
"0,1,0,1,0,0,0,1,0","0.0,3.0,0.0,3.0,0.0,0.0,0.0,0.0,3.0",0.7904632975549104,188.58303220058065,0.707106781187,1.060581078834326,17479,和食 瑞花 アトレ店,https://tabelog.com/tokyo/A1315/A131501/13030724/,居酒屋、魚介料理・海鮮料理、割烹・小料理,高級和食,35.60621,139.7327375,東京都品川区大井1-2-1アトレ大井町6F
"0,1,0,1,0,0,0,1,0","0.0,3.0,0.0,3.0,0.0,0.0,0.0,0.0,3.0",0.7904087494160073,188.6321255255935,0.707106781187,1.060540424101494,19718,タントチッタ アトレ大井町店,https://tabelog.com/tokyo/A1315/A131501/13021826/,パスタ、イタリアン、ダイニングバー,洋食・西洋料理,35.60620944,139.7327372,東京都品川区大井1-2-1アトレ大井町6F
"0,1,0,1,0,0,0,1,0","0.0,3.0,0.0,3.0,0.0,0.0,0.0,3.0,0.0",0.35306019225406976,582.2458269713372,1.0,1.0604958742750867,19282,なるほど,https://tabelog.com/tokyo/A1315/A131501/13069378/,懐石・会席料理、割烹・小料理,高級和食,35.60520167,139.7285633,東京都品川区大井1-32-15
"0,1,0,1,0,0,0,1,0","0.0,3.0,0.0,3.0,0.0,0.0,0.0,0.0,3.0",0.7876377986933326,191.12598117600066,0.707106781187,1.0584768783164225,19968,すし京辰,https://tabelog.com/tokyo/A1315/A131501/13041924/,寿司、魚介料理・海鮮料理、海鮮丼,高級和食,35.60623222,139.7326961,東京都品川区大井1-2-1アトレ大井町6F
"0,1,0,1,0,0,0,1,0","0.0,3.0,0.0,3.0,3.0,0.0,0.0,0.0,3.0",0.929596262395517,63.36336384403478,0.5,1.0555326669789595,19980,瓢箪,https://tabelog.com/tokyo/A1315/A131501/13022613/,居酒屋、創作料理、炭火焼き,創作料理・無国籍料理,35.6074325,139.7345594,東京都品川区東大井5-5-11サンライズビル　３Ｆ
"0,1,0,1,0,0,0,1,0","0.0,3.0,0.0,3.0,3.0,0.0,0.0,0.0,3.0",0.9293406733139961,63.593394017403554,0.5,1.0553075793699729,19521,H,https://tabelog.com/tokyo/A1315/A131501/13031730/,ダイニングバー、和食（その他）、居酒屋,Ｂ級和食,35.60694389,139.7353525,東京都品川区東大井5-12-2シティ大井町　１Ｆ・Ｂ１Ｆ
"0,1,0,1,0,0,0,1,0","0.0,3.0,0.0,3.0,0.0,0.0,0.0,3.0,0.0",0.3354282078788122,598.114612909069,1.0,1.0547568831919476,19202,まなpiece23,https://tabelog.com/tokyo/A1315/A131501/13167947/,居酒屋,居酒屋,35.60266306,139.730525,東京都品川区大井4-12-24
"0,1,0,1,0,0,0,1,0","0.0,3.0,0.0,3.0,3.0,0.0,0.0,0.0,3.0",0.9268361343691133,65.8474790677981,0.5,1.0531026635481846,20375,マリアナ,https://tabelog.com/tokyo/A1315/A131501/13156484/,居酒屋、ダイニングバー、ハワイ料理,バー・お酒,35.60660806,139.7340031,東京都品川区東大井5-15-10カンナビル2F
"0,1,0,1,0,0,0,1,0","0.0,3.0,0.0,3.0,0.0,0.0,0.0,3.0,0.0",0.32750212015834185,605.2480918574923,1.0,1.0522631033673133,18482,駅前酒蔵 鮫州南店,https://tabelog.com/tokyo/A1315/A131501/13085751/,居酒屋,居酒屋,35.605,139.7409333,東京都品川区東大井1-2-15
"0,1,0,1,0,0,0,1,0","0.0,3.0,0.0,3.0,3.0,0.0,0.0,0.0,3.0",0.9255853328851515,66.97320040336368,0.5,1.0520020002129828,19937,唐屋利久,https://tabelog.com/tokyo/A1315/A131501/13028356/,居酒屋、魚介料理・海鮮料理、焼鳥,高級和食,35.60731667,139.7341639,東京都品川区東大井5-4-10
"0,1,0,1,0,0,0,1,0","0.0,3.0,0.0,3.0,0.0,0.0,0.0,3.0,0.0",0.31881890591114903,613.0629846799659,1.0,1.0495930138707965,19744,弦六,https://tabelog.com/tokyo/A1315/A131501/13093568/,焼鳥,Ｂ級和食,35.60410023,139.7288004,東京都品川区大井1-41-15月曜日
"0,1,0,1,0,0,0,1,0","0.0,3.0,0.0,3.0,3.0,0.0,0.0,0.0,3.0",0.9189109489594198,72.98014593652216,0.5,1.0461344713360234,20198,ビストロ マケロニ,https://tabelog.com/tokyo/A1315/A131501/13130656/,ビストロ、ワインバー、イタリアン,洋食・西洋料理,35.60752472,139.7346664,東京都品川区東大井5-5-11サンライスビル1F
"0,1,0,1,0,0,0,1,0","0.0,3.0,0.0,3.0,0.0,0.0,0.0,3.0,0.0",0.30096960383114174,629.1273565519724,1.0,1.044309677456967,20380,居酒屋 まつり,https://tabelog.com/tokyo/A1315/A131501/13159619/,居酒屋、魚介料理・海鮮料理、定食・食堂,居酒屋,35.60428644,139.7408395,東京都品川区東大井1-17-17
"0,1,0,1,0,0,0,1,0","0.0,3.0,0.0,3.0,3.0,0.0,0.0,0.0,3.0",0.9130713515433091,78.2357836110218,0.5,1.0410087862305126,19549,庄や 大井町店,https://tabelog.com/tokyo/A1315/A131501/13085831/,居酒屋,居酒屋,35.60705556,139.733825,東京都品川区東大井5-15-16
"0,1,0,1,0,0,0,1,0","0.0,3.0,0.0,3.0,3.0,0.0,0.0,0.0,3.0",0.9118015389341791,79.37861495923875,0.5,1.0398952093373337,19794,銀寿司,https://tabelog.com/tokyo/A1315/A131501/13071005/,寿司,高級和食,35.60616278,139.7345025,東京都品川区東大井5-14-14
"0,1,0,1,0,0,0,1,0","0.0,3.0,0.0,3.0,0.0,0.0,0.0,3.0,0.0",0.28421011666625784,644.2108950003679,1.0,1.0396034774929563,19122,宮美,https://tabelog.com/tokyo/A1315/A131501/13065429/,焼鳥,Ｂ級和食,35.60393558,139.72852,東京都品川区大井2-27-18
"0,1,0,1,0,0,0,1,0","0.0,3.0,0.0,3.0,3.0,0.0,0.0,3.0,0.0",0.6389577505167537,324.93802453492157,0.816496580928,1.0367900817485172,19303,治郎丸 大井町店,https://tabelog.com/tokyo/A1315/A131501/13181040/,焼肉、ホルモン、居酒屋,焼肉・ホルモン・鍋,35.60774583,139.7312361,東京都品川区大井1-1-9
"0,1,0,1,0,0,0,1,0","0.0,3.0,0.0,3.0,3.0,0.0,0.0,0.0,3.0",0.9058887031802844,84.70016713774413,0.5,1.0347146188924061,19946,土間土間 大井町店,https://tabelog.com/tokyo/A1315/A131501/13052055/,居酒屋、焼鳥、ダイニングバー,バー・お酒,35.60718735,139.7338085,東京都品川区東大井5-15-1２Ｆ・３Ｆ
"0,1,0,1,0,0,0,1,0","0.0,3.0,0.0,3.0,3.0,0.0,0.0,3.0,0.0",0.635103343735864,328.4069906377224,0.816496580928,1.0344191239005307,17747,CFT北一倶楽部 大井町店,https://tabelog.com/tokyo/A1315/A131501/13085851/,ジンギスカン,焼肉・ホルモン・鍋,35.60766222,139.7311658,東京都品川区大井1-1-10
"0,1,0,1,0,0,0,1,0","0.0,3.0,0.0,3.0,3.0,0.0,0.0,0.0,3.0",0.9031670842391237,87.14962418478869,0.5,1.0323326896175478,19529,かき殻荘,https://tabelog.com/tokyo/A1315/A131501/13158091/,魚介料理・海鮮料理、オイスターバー、バーベキュー,創作料理・無国籍料理,35.6076486,139.7345616,東京都品川区東大井5-4-61F～2F
"0,1,0,1,0,0,0,1,0","0.0,3.0,0.0,3.0,3.0,0.0,0.0,0.0,3.0",0.9012266327923012,88.89603048692888,0.5,1.0306354562376308,19478,炭火焼肉酒家 牛角 大井町店,https://tabelog.com/tokyo/A1315/A131501/13028256/,焼肉、ホルモン、韓国料理,焼肉・ホルモン・鍋,35.60755833,139.7341611,東京都品川区東大井5-4-14
"0,1,0,1,0,0,0,1,0","0.0,3.0,0.0,3.0,3.0,0.0,0.0,0.0,3.0",0.8981130579933622,91.69824780597405,0.5,1.0279139384881344,17594,大井町のひもの屋,https://tabelog.com/tokyo/A1315/A131501/13019410/,居酒屋、魚介料理・海鮮料理、ろばた焼き,高級和食,35.6074327,139.7339192,東京都品川区東大井5-4-12鈴木ビル
"0,1,0,1,0,0,0,1,0","0.0,3.0,0.0,3.0,3.0,0.0,0.0,0.0,3.0",0.8972970441631187,92.43266025319313,0.5,1.0272010443257298,17878,豚のいろ葉,https://tabelog.com/tokyo/A1315/A131501/13201908/,居酒屋、豚料理、焼肉,焼肉・ホルモン・鍋,35.60756361,139.7340975,東京都品川区東大井5-4-14
"0,1,0,1,0,0,0,1,0","0.0,3.0,0.0,3.0,3.0,0.0,0.0,0.0,3.0",0.8967336045366574,92.93975591700836,0.5,1.026708896184944,17758,HO-bar,https://tabelog.com/tokyo/A1315/A131501/13169003/,バル・バール、西洋各国料理（その他）、ダイニングバー,洋食・西洋料理,35.60696132,139.7356762,東京都品川区東大井5-11-1DMビル1F
"0,1,0,1,0,0,0,1,0","0.0,3.0,0.0,3.0,3.0,0.0,0.0,0.0,3.0",0.8945366977195759,94.91697205238164,0.5,1.0247906632903345,17612,ホルモン酒場 福ちゃん,https://tabelog.com/tokyo/A1315/A131501/13029763/,ホルモン、居酒屋,焼肉・ホルモン・鍋,35.60683944,139.73361,東京都品川区東大井5-17-2
"0,1,0,1,0,0,0,1,0","0.0,3.0,0.0,3.0,3.0,0.0,0.0,0.0,3.0",0.8893386453788991,99.59521915899087,0.5,1.0202564511750833,19102,フレッシュホルモン かびら,https://tabelog.com/tokyo/A1315/A131501/13098583/,ホルモン、牛タン、もつ焼き,焼肉・ホルモン・鍋,35.60751558,139.7338971,東京都品川区東大井5-3-5
"0,1,0,1,0,0,0,1,0","0.0,3.0,0.0,3.0,3.0,0.0,0.0,0.0,3.0",0.8884871120078851,100.36159919290343,0.5,1.0195142707211666,18987,TAKA,https://tabelog.com/tokyo/A1315/A131501/13101039/,ダイニングバー、バー、居酒屋・ダイニングバー（その他）,バー・お酒,35.60716028,139.7336092,東京都品川区東大井5-15-16まめそうビル2F
"0,1,0,1,0,0,0,1,0","0.0,3.0,0.0,3.0,0.0,0.0,0.0,3.0,0.0",0.19256611953709013,726.6904924166189,1.0,1.018372088381046,20252,華華,https://tabelog.com/tokyo/A1315/A131501/13102210/,居酒屋,居酒屋,35.61029711,139.7414894,東京都品川区南品川3-5-5コーポローザ２０１号室
"0,1,0,1,0,0,0,1,0","0.0,3.0,0.0,3.0,3.0,0.0,0.0,0.0,3.0",0.8845540275979529,103.90137516184244,0.5,1.0160884940494896,19599,博多かわ屋 大井町店,https://tabelog.com/tokyo/A1315/A131501/13191067/,居酒屋、鳥料理、焼鳥,Ｂ級和食,35.60694417,139.7335142,東京都品川区東大井5-17-1北橋ビル2F
"0,1,0,1,0,0,0,1,0","0.0,3.0,0.0,3.0,3.0,0.0,0.0,0.0,3.0",0.8845324119433808,103.9208292509572,0.5,1.016069676635601,19919,電雷 大井町店,https://tabelog.com/tokyo/A1315/A131501/13056414/,もつ鍋、串焼き,焼肉・ホルモン・鍋,35.60694333,139.7335139,東京都品川区東大井5-17-1北橋ビル1F
"0,1,0,1,0,0,0,1,0","0.0,3.0,0.0,3.0,3.0,0.0,0.0,0.0,3.0",0.8801731168878021,107.84419480097814,0.5,1.0122769955362951,19583,牛タン ふかざわ 大井町店,https://tabelog.com/tokyo/A1315/A131501/13190507/,居酒屋、ダイニングバー、もつ鍋,バー・お酒,35.60782167,139.7344333,東京都品川区東大井5-4-17河本ビル3F
"0,1,0,1,0,0,0,1,0","0.0,3.0,0.0,3.0,3.0,0.0,0.0,0.0,3.0",0.878372888610363,109.46440025067331,0.5,1.0107120912731344,19873,イタリアンバル バル道,https://tabelog.com/tokyo/A1315/A131501/13130425/,イタリアン、ピザ、バル・バール,洋食・西洋料理,35.606825,139.73345,東京都品川区東大井5-17-3
"0,1,0,1,0,0,0,1,0","0.0,3.0,0.0,3.0,3.0,0.0,0.0,0.0,3.0",0.8734293242332799,113.91360819004805,0.5,1.0064187917713996,18525,玄品ふぐ 大井町の関,https://tabelog.com/tokyo/A1315/A131501/13027813/,ふぐ、鍋（その他）、懐石・会席料理,高級和食,35.60710278,139.7358806,東京都品川区東大井5-7-10クレストワン　Ｂ１Ｆ
"0,1,0,1,0,0,0,1,0","0.0,3.0,0.0,3.0,3.0,0.0,0.0,0.0,3.0",0.8705481194177785,116.50669252399928,0.5,1.0039193335232819,20085,よし臓,https://tabelog.com/tokyo/A1315/A131501/13038711/,焼肉、もつ鍋、居酒屋,焼肉・ホルモン・鍋,35.607745,139.7339517,東京都品川区東大井5-2-5
"0,1,0,1,0,0,0,1,0","0.0,3.0,0.0,3.0,0.0,0.0,0.0,3.0,0.0",0.07787357366153604,829.9137837046176,1.0,1.003027563666532,17465,天ぷら 穴子蒲焼 助六酒場,https://tabelog.com/tokyo/A1315/A131501/13203144/,和食（その他）、居酒屋、天ぷら,高級和食,35.61117806,139.7421422,東京都品川区南品川2-17-25菱倉ビル1F
"0,1,0,1,0,0,0,1,0","0.0,3.0,0.0,3.0,0.0,0.0,0.0,3.0,0.0",0.0692511465491782,837.6739681057396,1.0,1.0023949926542808,17970,居酒屋 えいちゃん,https://tabelog.com/tokyo/A1315/A131501/13098324/,居酒屋,居酒屋,35.61152135,139.7419364,東京都品川区南品川2-7-5
"0,1,0,1,0,0,0,1,0","0.0,3.0,0.0,3.0,3.0,0.0,0.0,0.0,3.0",0.8677409090756236,119.03318183193868,0.5,1.0014860384865032,17543,旨唐揚げと居酒メシ ミライザカ 大井町東口駅前店,https://tabelog.com/tokyo/A1315/A131501/13052997/,居酒屋,居酒屋,35.60686806,139.7333433,東京都品川区東大井5-17-2林ビル1・2F
"0,1,0,1,0,0,0,1,0","0.0,3.0,0.0,3.0,0.0,0.0,0.0,0.0,3.0",0.7091509552163983,261.76414030524154,0.707106781187,1.0014464924719293,18756,青森料理割烹 なか村,https://tabelog.com/tokyo/A1315/A131501/13033505/,割烹・小料理、郷土料理（その他）,高級和食,35.60457778,139.7339583,東京都品川区東大井6-5-6
"0,1,0,1,0,0,0,1,0","0.0,3.0,0.0,3.0,3.0,0.0,0.0,0.0,3.0",0.8658789682976652,120.7089285321014,0.5,0.9998731858291976,17699,鹿児島県霧島市 塚田農場 大井町店,https://tabelog.com/tokyo/A1315/A131501/13188829/,居酒屋、鳥料理、もつ鍋,Ｂ級和食,35.60748167,139.7335578,東京都品川区東大井5-3-7プラザヤワタヤB1F
"0,1,0,1,0,0,0,1,0","0.0,3.0,0.0,3.0,0.0,0.0,0.0,0.0,3.0",0.7034299355568225,266.9130579988597,0.707106781187,0.9974034661246548,18022,堅,https://tabelog.com/tokyo/A1315/A131501/13081786/,割烹・小料理,高級和食,35.6091,139.7335611,東京都品川区南品川6-11-26
"0,1,0,1,0,0,0,1,0","0.0,3.0,0.0,3.0,3.0,0.0,0.0,0.0,3.0",0.8570096185516095,128.6913433035514,0.5,0.9922023414052071,20149,うまい鮨勘 大井町支店,https://tabelog.com/tokyo/A1315/A131501/13038410/,寿司、天ぷら、魚介料理・海鮮料理,高級和食,35.60795389,139.7341611,東京都品川区東大井5-1-12
"0,1,0,1,0,0,0,1,0","0.0,3.0,0.0,3.0,0.0,0.0,0.0,0.0,3.0",0.687186086936883,281.5325217568053,0.707106781187,0.986014562813159,19203,B＆M 151A,https://tabelog.com/tokyo/A1315/A131501/13014235/,豚しゃぶ、しゃぶしゃぶ、ステーキ,洋食・西洋料理,35.60472222,139.7329967,東京都品川区東大井6-2-24ドラゴンハイツ　１Ｆ
"0,1,0,1,0,0,0,1,0","0.0,3.0,0.0,3.0,0.0,0.0,0.0,0.0,3.0",0.6834562765425258,284.8893511117268,0.707106781187,0.9834187724186342,19819,日本海庄や 大井町西口店,https://tabelog.com/tokyo/A1315/A131501/13055982/,居酒屋、魚介料理・海鮮料理,高級和食,35.60769647,139.7316814,東京都品川区大井1-1-16大井デパート西館地下1階
"0,1,0,1,0,0,0,1,0","0.0,3.0,0.0,3.0,3.0,0.0,0.0,0.0,3.0",0.8430678958082582,141.23889377256765,0.5,0.9801854298766964,18239,がんばり亭,https://tabelog.com/tokyo/A1315/A131501/13136070/,居酒屋、おでん、焼きとん,Ｂ級和食,35.60756132,139.7333505,東京都品川区東大井5-3-13
"0,1,0,1,0,0,0,1,0","0.0,3.0,0.0,3.0,3.0,0.0,0.0,0.0,3.0",0.8425612018165604,141.69491836509562,0.5,0.9797496510877494,17521,炭火焼肉 唐がらし,https://tabelog.com/tokyo/A1315/A131501/13009403/,焼肉、居酒屋、韓国料理,焼肉・ホルモン・鍋,35.60813972,139.7345278,東京都品川区東大井5-1-9
"0,1,0,1,0,0,0,1,0","0.0,3.0,0.0,3.0,0.0,0.0,0.0,0.0,3.0",0.6732210784198515,294.10102942213365,0.707106781187,0.9763332527517373,18831,くいもの屋 わん 阪急大井町ガーデン店,https://tabelog.com/tokyo/A1315/A131501/13165842/,居酒屋,居酒屋,35.60532801,139.7320143,東京都品川区大井1-50-5阪急大井町ガーデン2F
"0,1,0,1,0,0,0,1,0","0.0,3.0,0.0,3.0,3.0,0.0,0.0,0.0,3.0",0.8370801280272898,146.62788477543918,0.5,0.975040071349985,18260,田,https://tabelog.com/tokyo/A1315/A131501/13060061/,居酒屋、割烹・小料理,高級和食,35.60570852,139.7338783,東京都品川区東大井5丁目19-6
"0,1,0,1,0,0,0,1,0","0.0,3.0,0.0,3.0,3.0,0.0,0.0,0.0,3.0",0.8365953677382019,147.06416903561828,0.5,0.9746239322533677,19626,らんまん,https://tabelog.com/tokyo/A1315/A131501/13182651/,串揚げ・串かつ、寿司,高級和食,35.60760417,139.7333081,東京都品川区東大井5-3-11F・2F
"0,1,0,1,0,0,0,1,0","0.0,3.0,0.0,3.0,3.0,0.0,0.0,0.0,3.0",0.832715593089913,150.55596621907833,0.5,0.9712956599177645,18171,酔庵たくみ,https://tabelog.com/tokyo/A1315/A131501/13033488/,居酒屋,居酒屋,35.60820147,139.7343558,東京都品川区東大井5-1-8大井ハイツ　１Ｆ
"0,1,0,1,0,0,0,1,0","0.0,3.0,0.0,3.0,3.0,0.0,0.0,0.0,3.0",0.8290894357758778,153.81950780170996,0.5,0.9681886657646656,17664,鉄板料理　八天,https://tabelog.com/tokyo/A1315/A131501/13109910/,鉄板焼き、魚介料理・海鮮料理、ステーキ,洋食・西洋料理,35.60821064,139.7350752,東京都品川区南品川6-19-21F
"0,1,0,1,0,0,0,1,0","0.0,3.0,0.0,3.0,0.0,0.0,0.0,0.0,3.0",0.6583426504746972,307.49161457277245,0.707106781187,0.9661340721835916,19438,ヴィクトリー,https://tabelog.com/tokyo/A1315/A131501/13045346/,焼肉、ホルモン,焼肉・ホルモン・鍋,35.60497167,139.7321811,東京都品川区大井1-50-15
"0,1,0,1,0,0,0,1,0","0.0,3.0,0.0,3.0,3.0,0.0,0.0,0.0,3.0",0.8219304455977667,160.26259896201,0.5,0.9620653082824177,17590,三来風,https://tabelog.com/tokyo/A1315/A131501/13044550/,焼肉,焼肉・ホルモン・鍋,35.60783345,139.7333425,東京都品川区東大井5-2-13大井ビル３階
"0,1,0,1,0,0,0,1,0","0.0,3.0,0.0,3.0,3.0,0.0,0.0,3.0,0.0",0.5010246845061586,449.07778394445734,0.816496580928,0.957962630352125,18126,焼鳥 晋ちゃん,https://tabelog.com/tokyo/A1315/A131501/13183186/,焼鳥,Ｂ級和食,35.604,139.7311586,東京都品川区大井4-1-5ケイビル21F
"0,1,0,1,0,0,0,1,0","0.0,3.0,0.0,3.0,3.0,0.0,0.0,3.0,0.0",0.4976342842075718,452.1291442131854,0.816496580928,0.9561937813463591,18823,むろと,https://tabelog.com/tokyo/A1315/A131501/13079179/,割烹・小料理、すっぽん、ふぐ,高級和食,35.60554722,139.7299361,東京都品川区大井1-25-3シティハイツ大井町1F
"0,1,0,1,0,0,0,1,0","0.0,3.0,0.0,3.0,3.0,0.0,0.0,3.0,0.0",0.4851622080971852,463.35401271253335,0.816496580928,0.949762620254347,19367,鳥はし,https://tabelog.com/tokyo/A1315/A131501/13124330/,焼鳥,Ｂ級和食,35.60406093,139.7308697,東京都品川区大井1-55-6Ｍビル１
"0,1,0,1,0,0,0,1,0","0.0,2.0,0.0,3.0,3.0,0.0,0.0,0.0,3.0",0.806120397699633,174.4916420703304,0.5,0.948593746335814,19327,アジアンダイニング&バー シャングリラ,https://tabelog.com/tokyo/A1315/A131501/13206646/,インドカレー、タイ料理、居酒屋・ダイニングバー（その他）,バー・お酒,35.60843806,139.7347444,東京都品川区南品川6-18-19
"0,1,0,1,0,0,0,1,0","0.0,3.0,0.0,3.0,3.0,0.0,0.0,0.0,3.0",0.8060871464622882,174.52156818394064,0.5,0.9485654894058262,18938,かわち屋,https://tabelog.com/tokyo/A1315/A131501/13091953/,焼鳥、居酒屋,居酒屋,35.60843833,139.7347444,東京都品川区南品川6-18-192Fこのお店は「品川区大井4-2-6」から移転しています。※移転前の情報は最新のものとは異なります。移転前の店舗情報を見る
"0,1,0,1,0,0,0,1,0","0.0,3.0,0.0,3.0,0.0,0.0,0.0,0.0,3.0",0.6293491186584702,333.58579320737687,0.707106781187,0.9466151874738716,19833,Cafe bar μ(ミュー),https://tabelog.com/tokyo/A1315/A131501/13052996/,居酒屋、ダイニングバー,バー・お酒,35.607214,139.731,東京都品川区大井1-9-6高中ビル1F
"0,1,0,1,0,0,0,1,0","0.0,3.0,0.0,3.0,3.0,0.0,0.0,0.0,3.0",0.7964925599221763,183.1566960700414,0.5,0.9404256472530838,19057,八幸 すずらん通り店,https://tabelog.com/tokyo/A1315/A131501/13108429/,おでん、鳥料理、居酒屋,Ｂ級和食,35.60844694,139.7352428,東京都品川区南品川6-18-16
"0,1,0,1,0,0,0,1,0","0.0,3.0,0.0,3.0,3.0,0.0,0.0,0.0,3.0",0.7840114396301292,194.38970433288372,0.5,0.9298784530630375,18183,黒ぶたや アトレ大井町店,https://tabelog.com/tokyo/A1315/A131501/13070212/,居酒屋、豚しゃぶ、バイキング,焼肉・ホルモン・鍋,35.60623139,139.7326578,東京都品川区大井1-2-1アトレ大井町6F
"0,1,0,1,0,0,0,1,0","0.0,3.0,0.0,3.0,0.0,0.0,0.0,0.0,3.0",0.5976032187559197,362.15710311967223,0.707106781187,0.9258129438863099,18182,山田寿司,https://tabelog.com/tokyo/A1315/A131501/13023094/,寿司,高級和食,35.60461583,139.7317628,東京都品川区大井1-53-6
"0,1,0,1,0,0,0,1,0","0.0,3.0,0.0,3.0,0.0,0.0,0.0,0.0,3.0",0.5929441980363447,366.3502217672898,0.707106781187,0.922812452226867,17662,バルザル 大井町店,https://tabelog.com/tokyo/A1315/A131501/13200152/,イタリアン、バル・バール、居酒屋,洋食・西洋料理,35.6044,139.7319697,東京都品川区大井4-3-1ヴィアイン大井町1F
"0,1,0,1,0,0,0,1,0","0.0,3.0,0.0,3.0,0.0,0.0,0.0,0.0,3.0",0.5867508462030698,371.9242384172372,0.707106781187,0.9188452293612992,17926,グリルハウス バンフ,https://tabelog.com/tokyo/A1315/A131501/13003383/,ステーキ、ハンバーグ、鉄板焼き,洋食・西洋料理,35.60598333,139.7306975,東京都品川区大井1-24-4大井町センタービル1F
"0,1,0,1,0,0,0,1,0","0.0,3.0,0.0,3.0,0.0,0.0,0.0,0.0,3.0",0.5853822540271325,373.1559713755807,0.707106781187,0.9179718859147519,18102,小料理 東,https://tabelog.com/tokyo/A1315/A131501/13128590/,割烹・小料理,高級和食,35.60597768,139.7306853,東京都品川区大井1-24-5大井町センタービル１０６
"0,1,0,1,0,0,0,1,0","0.0,3.0,0.0,3.0,0.0,0.0,0.0,0.0,3.0",0.5720470977086066,385.1576120622541,0.707106781187,0.9095261854376926,18067,三々五々,https://tabelog.com/tokyo/A1315/A131501/13096335/,もつ鍋、居酒屋、魚介料理・海鮮料理,高級和食,35.60753806,139.7304864,東京都品川区大井1-11-4小川ビル1F
"0,1,0,1,0,0,0,1,0","0.0,3.0,0.0,3.0,0.0,0.0,0.0,0.0,3.0",0.5667267288257675,389.9459440568093,0.707106781187,0.9061893759946399,19346,ポワソンルージュ,https://tabelog.com/tokyo/A1315/A131501/13034087/,ビストロ、フレンチ,洋食・西洋料理,35.60449028,139.7314867,東京都品川区大井1-53-8
"0,1,0,1,0,0,0,1,0","0.0,3.0,0.0,3.0,0.0,0.0,0.0,0.0,3.0",0.5603191111647917,395.71279995168743,0.707106781187,0.902195935668357,19038,南風 どなん,https://tabelog.com/tokyo/A1315/A131501/13050598/,沖縄料理、居酒屋,居酒屋,35.60758722,139.7303797,東京都品川区大井1-11-4小川家ビル2F
"0,1,0,1,0,0,0,1,0","0.0,3.0,0.0,3.0,0.0,0.0,0.0,0.0,3.0",0.5534568512402384,401.8888338837855,0.707106781187,0.8979501579624335,17671,沖縄の味 ぶがりの～し,https://tabelog.com/tokyo/A1315/A131501/13027389/,沖縄料理,高級和食,35.60754389,139.7302997,東京都品川区大井1-11-3ニュー森田ビル２Ｆ
"0,1,0,1,0,0,0,1,0","0.0,3.0,0.0,3.0,0.0,0.0,0.0,0.0,3.0",0.5484833516884171,406.3649834804246,0.707106781187,0.8948932825087915,20006,水炊き・焼き鳥 とりいちず 大井町西口店,https://tabelog.com/tokyo/A1315/A131501/13177683/,居酒屋、水炊き、焼鳥,Ｂ級和食,35.60754639,139.73025,東京都品川区大井1-11-3
"0,1,0,1,0,0,0,1,0","0.0,3.0,0.0,3.0,0.0,0.0,0.0,0.0,3.0",0.5462859355314034,408.342658021737,0.707106781187,0.89354816510327,19880,Gecky,https://tabelog.com/tokyo/A1315/A131501/13143418/,イタリアン、パスタ,洋食・西洋料理,35.60599167,139.7302797,東京都品川区大井1-24-1
"0,1,0,1,0,0,0,1,0","0.0,3.0,0.0,3.0,3.0,0.0,0.0,0.0,3.0",0.7380563724674583,235.7492647792876,0.5,0.8914747382510755,17457,炭火焼居酒屋櫻井,https://tabelog.com/tokyo/A1315/A131501/13184513/,居酒屋、焼酎バー、炭火焼き,居酒屋,35.60487988,139.7337357,東京都品川区東大井6-5-5
"0,1,0,1,0,0,0,1,0","0.0,3.0,0.0,3.0,0.0,0.0,0.0,0.0,3.0",0.538792738757202,415.08653511851816,0.707106781187,0.8889868476740735,19209,中国酒家　多聞天,https://tabelog.com/tokyo/A1315/A131501/13111326/,中華料理,アジア・エスニック、中華料理,35.60433839,139.7312808,東京都品川区大井1-55-3
"0,1,0,1,0,0,0,1,0","0.0,3.0,0.0,3.0,0.0,0.0,0.0,0.0,3.0",0.5316839999050718,421.48440008543537,0.707106781187,0.8846964879296493,17503,居酒屋 かもめ,https://tabelog.com/tokyo/A1315/A131501/13177555/,居酒屋,居酒屋,35.6077871,139.7301438,東京都品川区大井町1-1-16
"0,1,0,1,0,0,0,1,0","0.0,3.0,0.0,3.0,0.0,0.0,0.0,0.0,3.0",0.5122876182373438,438.9411435863905,0.707106781187,0.8731773037586871,19268,大井一丁目酒場,https://tabelog.com/tokyo/A1315/A131501/13178747/,居酒屋,居酒屋,35.60706944,139.729819,東京都品川区大井1-21-6
"0,1,0,1,0,0,0,1,0","0.0,3.0,0.0,3.0,0.0,0.0,0.0,0.0,3.0",0.5100075054315374,440.9932451116164,0.707106781187,0.8718415312409128,18000,ワインバー ハイジ,https://tabelog.com/tokyo/A1315/A131501/13209218/,ワインバー,バー・お酒,35.60698352,139.7297921,東京都品川区大井1-21-6
"0,1,0,1,0,0,0,1,0","0.0,3.0,0.0,3.0,0.0,3.0,0.0,0.0,3.0",0.697990726362707,271.8083462735638,0.5,0.8585983077600021,18524,PIZZERIA&BAR CERTO! 阪急大井町ガーデン店,https://tabelog.com/tokyo/A1315/A131501/13165771/,イタリアン、居酒屋、バル・バール,洋食・西洋料理,35.60589472,139.7319036,東京都品川区大井1-50-5阪急大井町ガーデン2F
"0,1,0,1,0,0,0,1,0","0.0,3.0,0.0,3.0,3.0,0.0,0.0,0.0,3.0",0.6956043278618452,273.95610492433934,0.5,0.8566594311277553,19895,グリシーヌ,https://tabelog.com/tokyo/A1315/A131501/13183084/,バー、ビストロ,洋食・西洋料理,35.60732472,139.7376281,東京都品川区南品川5-11-24
"0,1,0,1,0,0,0,1,0","0.0,2.0,0.0,3.0,3.0,0.0,0.0,3.0,0.0",0.2306557752087133,692.409802312158,0.816496580928,0.8484507960417027,19669,あをよこ ひなの家 青物横丁店,https://tabelog.com/tokyo/A1315/A131501/13193368/,居酒屋、創作料理、和食（その他）,Ｂ級和食,35.61013222,139.7411694,東京都品川区南品川3-5-3青横ビル3F
"0,1,0,1,0,0,0,1,0","0.0,3.0,0.0,3.0,3.0,0.0,0.0,3.0,0.0",0.2306377149750823,692.4260565224259,0.816496580928,0.8484458864509826,17707,やきとり家すみれ 青物横丁店,https://tabelog.com/tokyo/A1315/A131501/13147855/,焼鳥、鳥料理、居酒屋,Ｂ級和食,35.6101325,139.7411694,東京都品川区南品川3-5-3山崎ビル2F
"0,1,0,1,0,0,0,1,0","0.0,3.0,0.0,3.0,0.0,0.0,0.0,0.0,3.0",0.4622330891421916,483.99021977202756,0.707106781187,0.8447836579254674,18154,炭乃家 大井町店,https://tabelog.com/tokyo/A1315/A131501/13030666/,焼肉,焼肉・ホルモン・鍋,35.60541667,139.7296194,東京都品川区大井1-34-5
"0,1,0,1,0,0,0,1,0","0.0,3.0,0.0,3.0,3.0,0.0,0.0,0.0,3.0",0.6809231841133154,287.1691342980162,0.5,0.8447818550744423,19875,ビストロ ドライチ,https://tabelog.com/tokyo/A1315/A131501/13147251/,イタリアン、居酒屋、ワインバー,洋食・西洋料理,35.60931806,139.7336389,東京都品川区南品川6-11-27ガーデンプラザ1F
"0,1,0,1,0,0,0,1,0","0.0,3.0,0.0,3.0,3.0,0.0,0.0,3.0,0.0",0.16816279507483575,748.6534844326478,0.816496580928,0.8336338478697034,19828,居酒屋じゃんけんぽん,https://tabelog.com/tokyo/A1315/A131501/13096196/,居酒屋、日本酒バー,居酒屋,35.60386344,139.7272584,東京都品川区大井2-23-8
"0,1,0,1,0,0,0,1,0","0.0,3.0,0.0,3.0,3.0,0.0,0.0,0.0,3.0",0.6616128860792108,304.5484025287103,0.5,0.8292958525315696,19791,八幸,https://tabelog.com/tokyo/A1315/A131501/13077153/,割烹・小料理、おでん,高級和食,35.60457944,139.7327994,東京都品川区東大井6-1-5
"0,1,0,1,0,0,0,1,0","0.0,3.0,0.0,3.0,3.0,0.0,0.0,0.0,3.0",0.6611316507174815,304.9815143542666,0.5,0.8289119733605143,17771,食彩　市,https://tabelog.com/tokyo/A1315/A131501/13098889/,魚介料理・海鮮料理、鍋（その他）、懐石・会席料理,高級和食,35.60457611,139.7327969,東京都品川区東大井6-1-5桐木ハイツ1F
"0,1,0,1,0,0,0,1,0","0.0,3.0,0.0,3.0,0.0,0.0,0.0,0.0,3.0",0.42755944505881704,515.1964994470646,0.707106781187,0.8263214138935306,17604,プティタプティ,https://tabelog.com/tokyo/A1315/A131501/13122539/,フレンチ,洋食・西洋料理,35.60381778,139.7303689,東京都品川区大井1-43-5ソレイユ大井1F
"0,1,0,1,0,0,0,1,0","0.0,3.0,0.0,3.0,0.0,0.0,0.0,0.0,3.0",0.41800671296766523,523.7939583291013,0.707106781187,0.8214192669313473,17497,俺のやきとり 大井町,https://tabelog.com/tokyo/A1315/A131501/13109557/,焼鳥、割烹・小料理,Ｂ級和食,35.60792361,139.7290228,東京都品川区大井1-1-16
"0,1,0,1,0,0,0,1,0","0.0,3.0,0.0,3.0,3.0,0.0,0.0,3.0,0.0",0.06744594083556094,839.2986532479952,0.816496580928,0.8192774997532036,18423,酒処 盛や,https://tabelog.com/tokyo/A1314/A131405/13136157/,居酒屋,居酒屋,35.61382972,139.7382778,東京都品川区南品川4-4-19
"0,1,0,1,0,0,0,1,0","0.0,3.0,0.0,3.0,3.0,0.0,0.0,3.0,0.0",0.010762167685081876,890.3140490834263,0.816496580928,0.8165675054274131,18543,チャッピーノ,https://tabelog.com/tokyo/A1315/A131501/13130060/,イタリアン、パスタ、ピザ,洋食・西洋料理,35.60504139,139.7250889,東京都品川区二葉1-23-18ドミール二葉1F
"0,1,0,1,0,0,0,1,0","0.0,3.0,0.0,3.0,3.0,0.0,0.0,0.0,3.0",0.6328026384107227,330.4776254303496,0.5,0.8064980962033151,18730,屋台屋　博多劇場　大井町店,https://tabelog.com/tokyo/A1315/A131501/13209241/,居酒屋、餃子、もつ鍋,居酒屋,35.60729472,139.7310475,東京都品川区大井1-9-4
"0,1,0,1,0,0,0,1,0","0.0,3.0,0.0,3.0,3.0,0.0,0.0,0.0,3.0",0.6285485418425232,334.3063123417292,0.5,0.8031645344836649,18459,まかないや 大井町店,https://tabelog.com/tokyo/A1315/A131501/13095745/,居酒屋、創作料理、和食（その他）,Ｂ級和食,35.60495222,139.7318083,東京都品川区大井1-52-6コスモ大井町　１Ｆ
"0,1,0,1,0,0,0,1,0","0.0,3.0,0.0,3.0,0.0,0.0,0.0,0.0,3.0",0.3689036861645123,567.9866824519389,0.707106781187,0.7975524620147347,17924,魚菜 由良 2号店,https://tabelog.com/tokyo/A1315/A131501/13176008/,割烹・小料理、魚介料理・海鮮料理,高級和食,35.60780083,139.7284936,東京都品川区大井1-15-1
"0,1,0,1,0,0,0,1,0","0.0,3.0,0.0,3.0,3.0,0.0,0.0,0.0,3.0",0.6027382064298741,357.5356142131134,0.5,0.7831304779475139,19287,ひなの家　Ｂ’２ｎｄ,https://tabelog.com/tokyo/A1315/A131501/13164069/,居酒屋、ダイニングバー,バー・お酒,35.6040625,139.7327136,東京都品川区東大井6-1-7NICハイム1F
"0,1,0,1,0,0,0,1,0","0.0,3.0,0.0,3.0,3.0,0.0,0.0,0.0,3.0",0.5913903897224679,367.74864924977885,0.5,0.7744304959491797,18341,山内農場 大井町西口駅前店,https://tabelog.com/tokyo/A1315/A131501/13147078/,居酒屋、魚介料理・海鮮料理、創作料理,高級和食,35.60749639,139.7306722,東京都品川区大井1-10-2YK-5ビル4F
"0,1,0,1,0,0,0,1,0","0.0,3.0,0.0,3.0,3.0,0.0,0.0,0.0,3.0",0.5827394769253973,375.5344707671424,0.5,0.7678445793044877,18201,串揚げ&泡 東京大井町 串あん,https://tabelog.com/tokyo/A1315/A131501/13163507/,串揚げ・串かつ、居酒屋、ダイニングバー,Ｂ級和食,35.60455972,139.7316247,東京都品川区大井1-53-7
"0,1,0,1,0,0,0,1,0","0.0,3.0,0.0,3.0,0.0,0.0,0.0,0.0,3.0",0.2966860131131086,632.9825881982023,0.707106781187,0.766826310436041,20146,PIZZERIA Bakka M'unica,https://tabelog.com/tokyo/A1315/A131501/13182694/,ピザ、居酒屋、イタリアン,洋食・西洋料理,35.60495139,139.7412372,東京都品川区東大井1-3-17コーポマルイノ1F
"0,1,0,1,0,0,0,1,0","0.0,3.0,0.0,3.0,3.0,0.0,0.0,0.0,3.0",0.5812572982151456,376.868431606369,0.5,0.7667203184528051,19013,Cocktail&Wine KIYOMI,https://tabelog.com/tokyo/A1315/A131501/13044259/,バー,バー・お酒,35.60754056,139.7305803,東京都品川区大井1-10-1梅原ビル2階
"0,1,0,1,0,0,0,1,0","0.0,3.0,0.0,3.0,0.0,0.0,0.0,0.0,3.0",0.29567208184506055,633.8951263394455,0.707106781187,0.7664345895003644,18086,ＢＡＲイーヴレース,https://tabelog.com/tokyo/A1315/A131501/13143783/,バー,バー・お酒,35.60291409,139.729606,東京都品川区大井3-5-9氏原ビル1F
"0,1,0,1,0,0,0,1,0","0.0,3.0,0.0,3.0,3.0,0.0,0.0,0.0,3.0",0.5804603310286623,377.5857020742039,0.5,0.766116307030404,19444,魚箱 大井町店,https://tabelog.com/tokyo/A1315/A131501/13044837/,居酒屋、日本酒バー、魚介料理・海鮮料理,高級和食,35.60775213,139.7306332,東京都品川区大井1-1-13
"0,1,0,1,0,0,0,1,0","0.0,3.0,0.0,3.0,3.0,0.0,0.0,0.0,3.0",0.5783670583546343,379.46964748082917,0.5,0.7645315259620057,19481,炭火焼肉 にくなべ屋 神戸びいどろ 大井町店,https://tabelog.com/tokyo/A1315/A131501/13194580/,焼肉、居酒屋、鍋（その他）,焼肉・ホルモン・鍋,35.6061075,139.7305736,東京都品川区大井1-23-9
"0,1,0,1,0,0,0,1,0","0.0,3.0,0.0,3.0,3.0,0.0,0.0,0.0,3.0",0.5751816305577647,382.3365324980117,0.5,0.7621246014472233,18432,わたる商店,https://tabelog.com/tokyo/A1315/A131501/13183045/,居酒屋、焼鳥、鳥料理,Ｂ級和食,35.60451896,139.7315686,東京都品川区大井1-53-8堀江ビル　1F
"0,1,0,1,0,0,0,1,0","0.0,3.0,0.0,3.0,0.0,0.0,0.0,0.0,3.0",0.28196272866029404,646.2335442057354,0.707106781187,0.7612509312661355,18708,炭焼きイタリアン酒場 炭リッチ 青物横丁店,https://tabelog.com/tokyo/A1315/A131501/13167800/,イタリアン、ピザ、ワインバー,洋食・西洋料理,35.60965778,139.7409172,東京都品川区南品川3-5-353F
"0,1,0,1,0,0,0,1,0","0.0,3.0,0.0,3.0,0.0,0.0,0.0,0.0,3.0",0.2753713133703924,652.1658179666468,0.707106781187,0.7588342112921206,18307,もっこく屋,https://tabelog.com/tokyo/A1315/A131501/13038826/,居酒屋、郷土料理（その他）,高級和食,35.60391159,139.7284355,東京都品川区大井2-27-19
"0,1,0,1,0,0,0,1,0","0.0,3.0,0.0,3.0,0.0,0.0,0.0,0.0,3.0",0.26732375697657645,659.4086187210812,0.707106781187,0.7559510506931462,20275,庄や 青物横丁店,https://tabelog.com/tokyo/A1315/A131501/13085829/,居酒屋,居酒屋,35.60984556,139.7409547,東京都品川区南品川3-5-35OTビル１Ｆ
"0,1,0,1,0,0,0,1,0","0.0,3.0,0.0,3.0,0.0,0.0,0.0,0.0,3.0",0.25164773579376376,673.5170377856126,0.707106781187,0.7505508529940712,20193,いさりび 青物横丁店,https://tabelog.com/tokyo/A1315/A131501/13022608/,居酒屋、魚介料理・海鮮料理,高級和食,35.60821389,139.741905,東京都品川区南品川3-4-11
"0,1,0,1,0,0,0,1,0","0.0,3.0,0.0,3.0,3.0,0.0,0.0,0.0,3.0",0.5569519230014693,398.74326929867755,0.5,0.7484620528357029,19053,しゃぶしゃぶ 温野菜 大井町店,https://tabelog.com/tokyo/A1315/A131501/13026873/,しゃぶしゃぶ、バイキング、居酒屋,焼肉・ホルモン・鍋,35.60753556,139.7303331,東京都品川区大井1-11-3大井ビル　３Ｆ
"0,1,0,1,0,0,0,1,0","0.0,3.0,0.0,3.0,3.0,0.0,0.0,0.0,3.0",0.5534764897885511,401.87115919030396,0.5,0.7458794974717137,19354,ワインカフェ 大井町,https://tabelog.com/tokyo/A1315/A131501/13149124/,ダイニングバー、ワインバー、イタリアン,バー・お酒,35.60756958,139.730306,東京都品川区大井1-11-3ニュー森田ビル5F
"0,1,0,1,0,0,0,1,0","0.0,3.0,0.0,3.0,3.0,0.0,0.0,0.0,3.0",0.5534436549759356,401.90071052165797,0.5,0.7458551328730817,20025,晴天の月 大井町,https://tabelog.com/tokyo/A1315/A131501/13119643/,居酒屋、魚介料理・海鮮料理、日本酒バー,高級和食,35.60756806,139.7303053,東京都品川区大井1-11-3YK-6ビル5F
"0,1,0,1,0,0,0,1,0","0.0,3.0,0.0,3.0,3.0,0.0,0.0,0.0,3.0",0.5534273769338236,401.9153607595588,0.5,0.7458430542277996,19999,手作り料理 大井町の名物家,https://tabelog.com/tokyo/A1315/A131501/13097646/,居酒屋、ビアバー、居酒屋・ダイニングバー（その他）,居酒屋,35.6075675,139.730305,東京都品川区大井1-11-3銀泉大井町ビル　3F
"0,1,0,1,0,0,0,1,0","0.0,3.0,0.0,3.0,0.0,0.0,0.0,0.0,3.0",0.2283663853291148,694.4702532037967,0.707106781187,0.7430687760552758,19990,ステーキハウスB&M 大井本店,https://tabelog.com/tokyo/A1317/A131712/13008380/,ステーキ、ハンバーグ、シチュー,洋食・西洋料理,35.60905222,139.7274747,東京都品川区二葉1-7-10
"0,1,0,1,0,0,0,1,0","0.0,3.0,0.0,3.0,0.0,0.0,0.0,0.0,3.0",0.21379099189425385,707.5881072951715,0.707106781187,0.7387195599245554,17921,まかないや 青物横丁店,https://tabelog.com/tokyo/A1315/A131501/13033839/,居酒屋、創作料理、和食（その他）,Ｂ級和食,35.61041389,139.7411472,東京都品川区南品川2-5-6古屋ビル　１Ｆ
"0,1,0,1,0,0,0,1,0","0.0,3.0,0.0,3.0,0.0,0.0,0.0,0.0,3.0",0.2122981765961904,708.9316410634286,0.707106781187,0.7382889107836221,17603,ドッピオイタリアンレストラン,https://tabelog.com/tokyo/A1315/A131501/13069130/,イタリアン,洋食・西洋料理,35.61048889,139.7411028,東京都品川区南品川2-5-4LANEヨシダ2F
"0,1,0,1,0,0,0,1,0","0.0,3.0,0.0,3.0,3.0,0.0,0.0,0.0,3.0",0.5421554152164607,412.0601263051854,0.5,0.737517792496244,18520,唐揚げと手作り家庭料理 あおば 大井町酒場,https://tabelog.com/tokyo/A1315/A131501/13030949/,定食・食堂、居酒屋,居酒屋,35.60588444,139.7302714,東京都品川区大井1-24-10ＫｏＡビル　Ｂ１Ｆ
"0,1,0,1,0,0,0,1,0","0.0,3.0,0.0,3.0,0.0,0.0,0.0,0.0,3.0",0.20038785359569034,719.6509317638787,0.707106781187,0.7349525779726797,17618,四万十,https://tabelog.com/tokyo/A1315/A131501/13028795/,居酒屋、創作料理、日本酒バー,バー・お酒,35.610625,139.7411306,東京都品川区南品川2-7-17
"0,1,0,1,0,0,0,1,0","0.0,3.0,0.0,3.0,0.0,0.0,0.0,0.0,3.0",0.15024225375929834,764.7819716166315,0.707106781187,0.7228919247125902,17750,アレッグロ ピアット,https://tabelog.com/tokyo/A1315/A131501/13009684/,パスタ、イタリアン、シチュー,洋食・西洋料理,35.60383333,139.7270781,東京都品川区大井2-22-12
"0,1,0,1,0,0,0,1,0","0.0,3.0,0.0,3.0,0.0,0.0,0.0,0.0,3.0",0.14312516878962822,771.1873480893346,0.707106781187,0.7214463347616782,19484,大盛苑,https://tabelog.com/tokyo/A1317/A131712/13167131/,焼肉,焼肉・ホルモン・鍋,35.60699111,139.7261472,東京都品川区二葉1-16-17このお店は「品川区大井1-1-28」から移転しています。※移転前の情報は最新のものとは異なります。移転前の店舗情報を見る
"0,1,0,1,0,0,0,1,0","0.0,3.0,0.0,3.0,0.0,0.0,0.0,0.0,3.0",0.14312516878962822,771.1873480893346,0.707106781187,0.7214463347616782,18870,シノア,https://tabelog.com/tokyo/A1317/A131712/13125509/,中華料理,アジア・エスニック、中華料理,35.60699111,139.7261472,東京都品川区二葉1-16-17
"0,1,0,1,0,0,0,1,0","0.0,3.0,0.0,3.0,0.0,0.0,0.0,0.0,3.0",0.11336803990955875,797.9687640813971,0.707106781187,0.7161370765942335,19628,てけてけ 青物横丁店,https://tabelog.com/tokyo/A1315/A131501/13155596/,居酒屋、焼鳥、水炊き,焼肉・ホルモン・鍋,35.61062528,139.7421658,東京都品川区南品川3-6-1J・NACビル2F～3F
"0,1,0,1,0,0,0,1,0","0.0,3.0,0.0,3.0,3.0,0.0,0.0,0.0,3.0",0.5120027247311849,439.19754774193353,0.5,0.7156443181722031,19704,軍鶏チュー,https://tabelog.com/tokyo/A1315/A131501/13139916/,居酒屋、焼鳥、串焼き,居酒屋,35.60567798,139.7300337,東京都品川区大井1-25-3シティーハイツ大井町105このお店は「品川区南品川6-11-27」から移転しています。※移転前の情報は最新のものとは異なります。移転前の店舗情報を見る
"0,1,0,1,0,0,0,1,0","0.0,3.0,0.0,3.0,3.0,0.0,0.0,0.0,3.0",0.5088482800010171,442.03654799908463,0.5,0.713390897096391,20159,おぎ,https://tabelog.com/tokyo/A1315/A131501/13168514/,割烹・小料理、韓国料理,高級和食,35.6069518,139.7297796,東京都品川区大井1-21-6
"0,1,0,1,0,0,0,1,0","0.0,3.0,0.0,3.0,0.0,0.0,0.0,0.0,3.0",0.0887521979544964,820.1230218409532,0.707106781187,0.7126548622171563,17918,TCK バーベキューガーデン by デジキュー,https://tabelog.com/tokyo/A1315/A131501/13184087/,バーベキュー,創作料理・無国籍料理,35.60309083,139.7424378,東京都品川区勝島2-1-2
"0,1,0,1,0,0,0,1,0","0.0,3.0,0.0,3.0,3.0,0.0,0.0,0.0,3.0",0.5072648305338434,443.46165251954096,0.5,0.7122623170549801,18514,まんぷく,https://tabelog.com/tokyo/A1315/A131501/13179895/,焼肉、韓国料理、居酒屋,焼肉・ホルモン・鍋,35.60758917,139.7298433,東京都品川区大井1-11-10
"0,1,0,1,0,0,0,1,0","0.0,3.0,0.0,3.0,3.0,0.0,0.0,0.0,3.0",0.5072384980947602,443.4853517147159,0.5,0.7122435636419806,18605,魚菜　由良,https://tabelog.com/tokyo/A1315/A131501/13120584/,割烹・小料理、魚介料理・海鮮料理,高級和食,35.6070325,139.7297667,東京都品川区大井1丁目21-5
"0,1,0,1,0,0,0,1,0","0.0,3.0,0.0,3.0,3.0,0.0,0.0,0.0,3.0",0.4751971824777533,472.32253577002206,0.5,0.6897915353458574,17515,地酒屋のぼる,https://tabelog.com/tokyo/A1315/A131501/13151396/,居酒屋、日本酒バー,バー・お酒,35.6054975,139.7297214,東京都品川区大井1-25-91F
"0,1,0,1,0,0,0,1,0","0.0,3.0,0.0,3.0,3.0,0.0,0.0,0.0,3.0",0.4535324532788151,491.8207920490664,0.5,0.675049395360888,18726,ふわり,https://tabelog.com/tokyo/A1315/A131501/13150902/,お好み焼き、鉄板焼き、居酒屋,洋食・西洋料理,35.60378028,139.7307614,東京都品川区大井4-1-2ひろせビルB1F
"0,1,0,1,0,0,0,1,0","0.0,3.0,0.0,3.0,3.0,0.0,0.0,0.0,3.0",0.3815510937382602,556.6040156355658,0.5,0.6289524919521845,17652,たもん,https://tabelog.com/tokyo/A1315/A131501/13105022/,居酒屋,居酒屋,35.60382694,139.7297706,東京都品川区大井1-42-8
"0,1,0,1,0,0,0,1,0","0.0,3.0,0.0,3.0,3.0,0.0,0.0,0.0,3.0",0.36864699523734634,568.2177042863883,0.5,0.6212089882620212,17859,燻製キッチン,https://tabelog.com/tokyo/A1315/A131501/13060616/,ダイニングバー、ビストロ、イタリアン,洋食・西洋料理,35.60334139,139.7301086,東京都品川区大井3-4-8
"0,1,0,1,0,0,0,1,0","0.0,3.0,0.0,3.0,3.0,0.0,0.0,0.0,3.0",0.3165831587621148,615.0751571140967,0.5,0.5917980199458244,17729,大井町 日本酒 宵月,https://tabelog.com/tokyo/A1315/A131501/13192489/,割烹・小料理,高級和食,35.60409833,139.7287761,東京都品川区大井1-41-1薩田ビル1F
"0,1,0,1,0,0,0,1,0","0.0,3.0,0.0,3.0,3.0,0.0,0.0,0.0,3.0",0.3046769618285197,625.7907343543322,0.5,0.5855152013987829,19391,van-vino 青物横丁,https://tabelog.com/tokyo/A1315/A131501/13128427/,ダイニングバー、ワインバー,バー・お酒,35.61009611,139.7403197,東京都品川区南品川2-4-4
"0,1,0,1,0,0,0,1,0","0.0,3.0,0.0,3.0,3.0,0.0,0.0,0.0,3.0",0.30380211763243375,626.5780941308096,0.5,0.5850604470291519,18653,Bar たしろ,https://tabelog.com/tokyo/A1315/A131501/13149922/,バー,バー・お酒,35.61011361,139.7403153,東京都品川区南品川2-4-4グリーングラスビル2F
"0,1,0,1,0,0,0,1,0","0.0,3.0,0.0,3.0,3.0,0.0,0.0,0.0,3.0",0.2595047428584279,666.4457314274149,0.5,0.5633317952734594,18134,品川　漢城軒,https://tabelog.com/tokyo/A1314/A131405/13189307/,焼肉、ホルモン、韓国料理,焼肉・ホルモン・鍋,35.61065583,139.7403645,東京都品川区南品川2-4-7アサミビル3F
"0,1,0,1,0,0,0,1,0","0.0,3.0,0.0,3.0,3.0,0.0,0.0,0.0,3.0",0.23582597893053994,687.756618962514,0.5,0.5528235634798389,18394,ふうこうめいび,https://tabelog.com/tokyo/A1315/A131501/13155813/,居酒屋、魚介料理・海鮮料理、鍋（その他）,高級和食,35.61068083,139.7406408,東京都品川区南品川2-5-1
"0,1,0,1,0,0,0,1,0","0.0,3.0,0.0,3.0,3.0,0.0,0.0,0.0,3.0",0.22970375340672325,693.2666219339491,0.5,0.5502397789410874,17704,藍の家 大井町店,https://tabelog.com/tokyo/A1317/A131712/13059181/,うなぎ,高級和食,35.60756083,139.7270531,東京都品川区二葉1-17-2
"0,1,0,1,0,0,0,1,0","0.0,3.0,0.0,3.0,3.0,0.0,0.0,0.0,3.0",0.22945242493453002,693.492817558923,0.5,0.5501349064623478,17469,焼肉 乙ちゃん,https://tabelog.com/tokyo/A1315/A131501/13154344/,焼肉、ホルモン、居酒屋,焼肉・ホルモン・鍋,35.6021713,139.7397083,東京都品川区東大井2-5-13乙川ビル1F
"0,1,0,1,0,0,0,1,0","0.0,3.0,0.0,3.0,3.0,0.0,0.0,0.0,3.0",0.22526996070346375,697.2570353668826,0.5,0.5484036425802988,19402,魚ちょ,https://tabelog.com/tokyo/A1317/A131712/13052615/,魚介料理・海鮮料理、創作料理、懐石・会席料理,高級和食,35.6089825,139.7274108,東京都品川区二葉1-7-11
"0,1,0,1,0,0,0,1,0","0.0,3.0,0.0,3.0,3.0,0.0,0.0,0.0,3.0",0.2143033371505482,707.1269965645066,0.5,0.5439907355037047,18372,ビストロ おきみくら,https://tabelog.com/tokyo/A1315/A131501/13030181/,居酒屋、洋食、魚介料理・海鮮料理,洋食・西洋料理,35.61021611,139.7412969,東京都品川区南品川3-5-3青横ビル　３Ｆ
"0,1,0,1,0,0,0,1,0","0.0,3.0,0.0,3.0,3.0,0.0,0.0,0.0,3.0",0.20823383695093411,712.5895467441593,0.5,0.541628406614081,19112,王様のポケット,https://tabelog.com/tokyo/A1315/A131501/13194297/,居酒屋,居酒屋,35.61075361,139.7409181,東京都品川区南品川2-7-18アスキー南品川21F
"0,1,0,1,0,0,0,1,0","0.0,3.0,0.0,3.0,3.0,0.0,0.0,0.0,3.0",0.19709139186721863,722.6177473195032,0.5,0.5374430358169668,18888,てっぺい,https://tabelog.com/tokyo/A1315/A131501/13039291/,居酒屋、魚介料理・海鮮料理,高級和食,35.61063611,139.7411611,東京都品川区南品川2-7-17１Ｆ
"0,1,0,1,0,0,0,1,0","0.0,3.0,0.0,3.0,3.0,0.0,0.0,0.0,3.0",0.18245918019428145,735.7867378251467,0.5,0.5322512117761399,17869,グストーゾの話,https://tabelog.com/tokyo/A1315/A131501/13148119/,イタリアン、ダイニングバー、パスタ,洋食・西洋料理,35.61031028,139.7415972,東京都品川区南品川3-5-6田中屋ビル2F
"0,1,0,1,0,0,0,1,0","0.0,3.0,0.0,3.0,3.0,0.0,0.0,0.0,3.0",0.17173416526576174,745.4392512608144,0.5,0.5286706191188687,17524,かる,https://tabelog.com/tokyo/A1317/A131712/13121077/,魚介料理・海鮮料理,高級和食,35.60800389,139.7265486,東京都品川区二葉1-10-7
"0,1,0,1,0,0,0,1,0","0.0,3.0,0.0,3.0,3.0,0.0,0.0,0.0,3.0",0.16136978253057768,754.7671957224801,0.5,0.5253952861550681,19977,ごっつヴィゴーレ,https://tabelog.com/tokyo/A1315/A131501/13132981/,バル・バール、居酒屋、イタリアン,洋食・西洋料理,35.61070694,139.7415331,東京都品川区南品川2-7-13君嶋ビル2F
"0,1,0,1,0,0,0,1,0","0.0,3.0,0.0,3.0,3.0,0.0,0.0,0.0,3.0",0.1581900288858075,757.6289740027732,0.5,0.5244273879565146,18807,くつろぎ居酒屋 故郷,https://tabelog.com/tokyo/A1315/A131501/13162680/,居酒屋、焼鳥、すき焼き,居酒屋,35.61035806,139.7418433,東京都品川区南品川3-5-102F左
"0,1,0,1,0,0,0,1,0","0.0,3.0,0.0,3.0,3.0,0.0,0.0,0.0,3.0",0.15800752995366313,757.7932230417032,0.5,0.5243723672373076,18769,八那里 青物横丁,https://tabelog.com/tokyo/A1315/A131501/13174152/,居酒屋、もつ鍋、和食（その他）,Ｂ級和食,35.61035972,139.7418442,東京都品川区南品川3-5-102F
"0,1,0,1,0,0,0,1,0","0.0,3.0,0.0,3.0,3.0,0.0,0.0,0.0,3.0",0.1526726787173906,762.5945891543485,0.5,0.5227895817886423,19918,青横ホルモンまるみち,https://tabelog.com/tokyo/A1315/A131501/13095809/,ホルモン、焼肉、居酒屋,焼肉・ホルモン・鍋,35.6105031,139.7417993,東京都品川区南品川3-5-8MAビル2F
"0,1,0,1,0,0,0,1,0","0.0,3.0,0.0,3.0,3.0,0.0,0.0,0.0,3.0",0.10536441313056027,805.1720281824958,0.5,0.510981075534454,18556,水炊き・焼鳥 とりいちず 青物横丁店,https://tabelog.com/tokyo/A1315/A131501/13202326/,焼鳥、水炊き、居酒屋,Ｂ級和食,35.61129167,139.7417006,東京都品川区南品川2-7-7
"0,1,0,1,0,0,0,1,0","0.0,3.0,0.0,3.0,3.0,0.0,0.0,0.0,3.0",0.07700920112200947,830.6917189901915,0.5,0.5058956582710017,19456,ラビット ピット,https://tabelog.com/tokyo/A1315/A131501/13150988/,ダイニングバー、ワインバー、バル・バール,バー・お酒,35.60683898,139.7254892,東京都品川区二葉1-11-13桑原ビル1F
"0,1,0,1,0,0,0,1,0","0.0,3.0,0.0,3.0,3.0,0.0,0.0,0.0,3.0",0.07574060003905844,831.8334599648474,0.5,0.5057041017178688,19320,気まぐれ厨房 ごっつ 青物横丁店,https://tabelog.com/tokyo/A1315/A131501/13032635/,居酒屋、居酒屋・ダイニングバー（その他）、創作料理,創作料理・無国籍料理,35.61070556,139.7425431,東京都品川区南品川3-6-3佐瀬ビル　２Ｆ
"0,1,0,1,0,0,0,1,0","0.0,3.0,0.0,3.0,3.0,0.0,0.0,0.0,3.0",0.06756860030112471,839.1882597289878,0.5,0.5045448599942854,19811,ロッキーカナイ 青物横丁,https://tabelog.com/tokyo/A1315/A131501/13165156/,居酒屋、ろばた焼き、郷土料理（その他）,Ｂ級和食,35.61092522,139.7424728,東京都品川区南品川2-17-18SGビル1F
"0,1,0,1,0,0,0,0,1","0.0,3.0,0.0,3.0,0.0,0.0,0.0,0.0,3.0",0.9571517710177659,38.56340608401075,1.0,1.3842469117763803,20294,藤半,https://tabelog.com/tokyo/A1315/A131501/13029458/,魚介料理・海鮮料理、郷土料理（その他）,高級和食,35.60673261,139.7342645,東京都品川区東大井5-14-19中川ビル
"0,1,0,1,0,0,0,0,1","0.0,3.0,0.0,3.0,0.0,0.0,0.0,0.0,3.0",0.9295910579706985,63.36804782637134,1.0,1.3653349534305061,20226,つるや,https://tabelog.com/tokyo/A1315/A131501/13052312/,居酒屋、割烹・小料理,高級和食,35.607367,139.734319,東京都品川区東大井5-4-9
"0,1,0,1,0,0,0,0,1","0.0,3.0,0.0,3.0,0.0,0.0,0.0,0.0,3.0",0.9256838818199387,66.88450636205522,1.0,1.3626777495289302,20349,らくらくや,https://tabelog.com/tokyo/A1315/A131501/13054503/,居酒屋、ビストロ,洋食・西洋料理,35.60638833,139.7342083,東京都品川区東大井5-14-16
"0,1,0,1,0,0,0,0,1","0.0,3.0,0.0,3.0,0.0,0.0,0.0,0.0,3.0",0.9189108844232267,72.98020401909608,1.0,1.3580858638213849,17821,昭和浪漫,https://tabelog.com/tokyo/A1315/A131501/13033344/,居酒屋、焼鳥、和食（その他）,Ｂ級和食,35.60748583,139.73493,東京都品川区東大井5-6-11
"0,1,0,1,0,0,0,0,1","0.0,3.0,0.0,3.0,0.0,0.0,0.0,0.0,3.0",0.911176357688874,79.94127808001353,1.0,1.352864499797065,18308,くっちゃいな 大井町店,https://tabelog.com/tokyo/A1315/A131501/13020982/,中華料理、居酒屋,アジア・エスニック、中華料理,35.60717028,139.7338567,東京都品川区東大井5-15-1
"0,1,0,1,0,0,0,0,1","0.0,3.0,0.0,3.0,0.0,0.0,0.0,0.0,3.0",0.9087813789596697,82.0967589362973,1.0,1.3512526021228743,18118,くいものや陣 大井町店,https://tabelog.com/tokyo/A1315/A131501/13147758/,居酒屋,居酒屋,35.60709467,139.7337949,東京都品川区東大井5-15-16まめそうビルB1F
"0,1,0,1,0,0,0,0,1","0.0,3.0,0.0,3.0,0.0,0.0,0.0,0.0,3.0",0.8964821932794137,93.16602604852763,1.0,1.3430116614784355,20213,千年の宴 大井町東口駅前店,https://tabelog.com/tokyo/A1315/A131501/13052003/,居酒屋、魚介料理・海鮮料理、創作料理,高級和食,35.60671222,139.7336464,東京都品川区東大井5-17-4高山ビルＢ１Ｆ
"0,1,0,1,0,0,0,0,1","0.0,3.0,0.0,3.0,0.0,0.0,0.0,0.0,3.0",0.8885035886812159,100.34677018690567,1.0,1.3376990046716037,19118,金井寿司,https://tabelog.com/tokyo/A1315/A131501/13070977/,寿司,高級和食,35.607525,139.7338972,東京都品川区東大井5-3-5
"0,1,0,1,0,0,0,0,1","0.0,3.0,0.0,3.0,0.0,0.0,0.0,0.0,3.0",0.8822432784079777,105.9810494328201,1.0,1.3335491000694562,20175,御婆灯,https://tabelog.com/tokyo/A1315/A131501/13074402/,おでん、居酒屋,Ｂ級和食,35.60769005,139.7340634,東京都品川区東大井5-2-8
"0,1,0,1,0,0,0,0,1","0.0,3.0,0.0,3.0,0.0,0.0,0.0,0.0,3.0",0.8763903657169598,111.24867085473613,1.0,1.3296842005233824,20027,青葉,https://tabelog.com/tokyo/A1315/A131501/13040818/,焼肉,焼肉・ホルモン・鍋,35.60711417,139.7358469,東京都品川区東大井5-7-10クレストワン２階
"0,1,0,1,0,0,0,0,1","0.0,3.0,0.0,3.0,0.0,0.0,0.0,0.0,3.0",0.8736605401404977,113.70551387355219,1.0,1.327886568724372,18220,七甲山,https://tabelog.com/tokyo/A1315/A131501/13040613/,焼肉,焼肉・ホルモン・鍋,35.60771028,139.7339439,東京都品川区東大井5-2-8
"0,1,0,1,0,0,0,0,1","0.0,3.0,0.0,3.0,0.0,0.0,0.0,0.0,3.0",0.8659592283816431,120.63669445652121,1.0,1.3228323345077904,17801,YOU,https://tabelog.com/tokyo/A1315/A131501/13202566/,バー・お酒（その他）,バー・お酒,35.60762778,139.7337058,東京都品川区東大井5-2-10
"0,1,0,1,0,0,0,0,1","0.0,3.0,0.0,3.0,0.0,0.0,0.0,0.0,3.0",0.8515448615246791,133.6096246277888,1.0,1.3134415294138848,20357,安味家,https://tabelog.com/tokyo/A1315/A131501/13101950/,中華料理、ダイニングバー,バー・お酒,35.60763517,139.7335214,東京都品川区東大井5-2-11
"0,1,0,1,0,0,0,0,1","0.0,3.0,0.0,3.0,0.0,0.0,0.0,0.0,3.0",0.8324809801652138,150.76711785130755,1.0,1.3011627808759498,19958,めいくわん,https://tabelog.com/tokyo/A1315/A131501/13022616/,鉄板焼き、居酒屋,洋食・西洋料理,35.60822583,139.7346667,東京都品川区南品川6-18-18
"0,1,0,1,0,0,0,0,1","0.0,3.0,0.0,3.0,0.0,0.0,0.0,0.0,3.0",0.828884372906474,154.00406438417335,1.0,1.2988646209857895,19232,創作イタリアンちゃぶっとりあ,https://tabelog.com/tokyo/A1315/A131501/13096567/,イタリアン、パスタ、ダイニングバー,洋食・西洋料理,35.60709436,139.7363337,東京都品川区東大井5-10-10アーバンステージ大井町Ⅱ1F
"0,1,0,1,0,0,0,0,1","0.0,3.0,0.0,3.0,0.0,0.0,0.0,0.0,3.0",0.8271708067810535,155.5462738970518,1.0,1.2977717609775683,17928,釣り仲間,https://tabelog.com/tokyo/A1315/A131501/13007361/,魚介料理・海鮮料理、割烹・小料理,高級和食,35.60815778,139.7353269,東京都品川区南品川5-11-42
"0,1,0,1,0,0,0,0,1","0.0,3.0,0.0,3.0,0.0,0.0,0.0,0.0,3.0",0.8218922678807868,160.29695890729175,1.0,1.294413728296414,18758,相席屋 大井町店,https://tabelog.com/tokyo/A1315/A131501/13180722/,居酒屋,居酒屋,35.60783355,139.7333421,東京都品川区東大井5-2-13大井町大井ビル4F
"0,1,0,1,0,0,0,0,1","0.0,3.0,0.0,3.0,0.0,0.0,0.0,0.0,3.0",0.811224556562817,169.89789909346476,1.0,1.2876666032675301,18885,広,https://tabelog.com/tokyo/A1315/A131501/13061509/,居酒屋、もつ焼き,居酒屋,35.60826409,139.7338894,東京都品川区東大井5丁目1-8
"0,1,0,1,0,0,0,0,1","0.0,3.0,0.0,3.0,0.0,0.0,0.0,0.0,3.0",0.7904632975549104,188.58303220058065,1.0,1.2746890698446358,17479,和食 瑞花 アトレ店,https://tabelog.com/tokyo/A1315/A131501/13030724/,居酒屋、魚介料理・海鮮料理、割烹・小料理,高級和食,35.60621,139.7327375,東京都品川区大井1-2-1アトレ大井町6F
"0,1,0,1,0,0,0,0,1","0.0,3.0,0.0,3.0,0.0,0.0,0.0,0.0,3.0",0.7904087494160073,188.6321255255935,1.0,1.2746552440379229,19718,タントチッタ アトレ大井町店,https://tabelog.com/tokyo/A1315/A131501/13021826/,パスタ、イタリアン、ダイニングバー,洋食・西洋料理,35.60620944,139.7327372,東京都品川区大井1-2-1アトレ大井町6F
"0,1,0,1,0,0,0,0,1","0.0,3.0,0.0,3.0,0.0,0.0,0.0,0.0,3.0",0.7876377986933326,191.12598117600066,1.0,1.2729388445367196,19968,すし京辰,https://tabelog.com/tokyo/A1315/A131501/13041924/,寿司、魚介料理・海鮮料理、海鮮丼,高級和食,35.60623222,139.7326961,東京都品川区大井1-2-1アトレ大井町6F
"0,1,0,1,0,0,0,0,1","0.0,3.0,0.0,3.0,0.0,0.0,0.0,0.0,3.0",0.7091509552163983,261.76414030524154,1.0,1.2259262120063874,18756,青森料理割烹 なか村,https://tabelog.com/tokyo/A1315/A131501/13033505/,割烹・小料理、郷土料理（その他）,高級和食,35.60457778,139.7339583,東京都品川区東大井6-5-6
"0,1,0,1,0,0,0,0,1","0.0,3.0,0.0,3.0,0.0,0.0,0.0,0.0,3.0",0.7034299355568225,266.9130579988597,1.0,1.2226257294190548,18022,堅,https://tabelog.com/tokyo/A1315/A131501/13081786/,割烹・小料理,高級和食,35.6091,139.7335611,東京都品川区南品川6-11-26
"0,1,0,1,0,0,0,0,1","0.0,3.0,0.0,3.0,0.0,0.0,0.0,0.0,3.0",0.687186086936883,281.5325217568053,1.0,1.213352676710125,19203,B＆M 151A,https://tabelog.com/tokyo/A1315/A131501/13014235/,豚しゃぶ、しゃぶしゃぶ、ステーキ,洋食・西洋料理,35.60472222,139.7329967,東京都品川区東大井6-2-24ドラゴンハイツ　１Ｆ
"0,1,0,1,0,0,0,0,1","0.0,3.0,0.0,3.0,0.0,0.0,0.0,0.0,3.0",0.6834562765425258,284.8893511117268,1.0,1.2112441875796034,19819,日本海庄や 大井町西口店,https://tabelog.com/tokyo/A1315/A131501/13055982/,居酒屋、魚介料理・海鮮料理,高級和食,35.60769647,139.7316814,東京都品川区大井1-1-16大井デパート西館地下1階
"0,1,0,1,0,0,0,0,1","0.0,3.0,0.0,3.0,0.0,0.0,0.0,0.0,3.0",0.6732210784198515,294.10102942213365,1.0,1.2054984945775702,18831,くいもの屋 わん 阪急大井町ガーデン店,https://tabelog.com/tokyo/A1315/A131501/13165842/,居酒屋,居酒屋,35.60532801,139.7320143,東京都品川区大井1-50-5阪急大井町ガーデン2F
"0,1,0,1,0,0,0,0,1","0.0,3.0,0.0,3.0,0.0,0.0,0.0,0.0,3.0",0.6583426504746972,307.49161457277245,1.0,1.1972531250466834,19438,ヴィクトリー,https://tabelog.com/tokyo/A1315/A131501/13045346/,焼肉、ホルモン,焼肉・ホルモン・鍋,35.60497167,139.7321811,東京都品川区大井1-50-15
"0,1,0,1,0,0,0,0,1","0.0,3.0,0.0,3.0,0.0,0.0,0.0,0.0,3.0",0.6293491186584702,333.58579320737687,1.0,1.1815584256210918,19833,Cafe bar μ(ミュー),https://tabelog.com/tokyo/A1315/A131501/13052996/,居酒屋、ダイニングバー,バー・お酒,35.607214,139.731,東京都品川区大井1-9-6高中ビル1F
"0,1,0,1,0,0,0,0,1","0.0,3.0,0.0,3.0,3.0,0.0,0.0,0.0,3.0",0.9464904665040924,48.158580146316844,0.707106781187,1.1814585067547376,19107,大井町 よし臓2号館 焼肉居酒屋,https://tabelog.com/tokyo/A1315/A131501/13055824/,居酒屋、ホルモン、焼肉,居酒屋,35.60661222,139.7342267,東京都品川区東大井5-14-19高田ビル　3F
"0,1,0,1,0,0,0,0,1","0.0,3.0,0.0,3.0,3.0,0.0,0.0,0.0,3.0",0.9397203584301725,54.25167741284474,0.707106781187,1.1760418156035661,18898,お魚sun,https://tabelog.com/tokyo/A1315/A131501/13109164/,魚介料理・海鮮料理、居酒屋、和食（その他）,Ｂ級和食,35.60734914,139.7345573,東京都品川区東大井5-5-7
"0,1,0,1,0,0,0,0,1","0.0,3.0,0.0,3.0,3.0,0.0,0.0,0.0,3.0",0.929596262395517,63.36336384403478,0.707106781187,1.1679679837477202,19980,瓢箪,https://tabelog.com/tokyo/A1315/A131501/13022613/,居酒屋、創作料理、炭火焼き,創作料理・無国籍料理,35.6074325,139.7345594,東京都品川区東大井5-5-11サンライズビル　３Ｆ
"0,1,0,1,0,0,0,0,1","0.0,3.0,0.0,3.0,3.0,0.0,0.0,0.0,3.0",0.9293406733139961,63.593394017403554,0.707106781187,1.1677645683423143,19521,H,https://tabelog.com/tokyo/A1315/A131501/13031730/,ダイニングバー、和食（その他）、居酒屋,Ｂ級和食,35.60694389,139.7353525,東京都品川区東大井5-12-2シティ大井町　１Ｆ・Ｂ１Ｆ
"0,1,0,1,0,0,0,0,1","0.0,3.0,0.0,3.0,3.0,0.0,0.0,0.0,3.0",0.9268361343691133,65.8474790677981,0.707106781187,1.1657723705648033,20375,マリアナ,https://tabelog.com/tokyo/A1315/A131501/13156484/,居酒屋、ダイニングバー、ハワイ料理,バー・お酒,35.60660806,139.7340031,東京都品川区東大井5-15-10カンナビル2F
"0,1,0,1,0,0,0,0,1","0.0,3.0,0.0,3.0,0.0,0.0,0.0,0.0,3.0",0.5976032187559197,362.15710311967223,1.0,1.16495905810781,18182,山田寿司,https://tabelog.com/tokyo/A1315/A131501/13023094/,寿司,高級和食,35.60461583,139.7317628,東京都品川区大井1-53-6
"0,1,0,1,0,0,0,0,1","0.0,3.0,0.0,3.0,3.0,0.0,0.0,0.0,3.0",0.9255853328851515,66.97320040336368,0.707106781187,1.1647781799347534,19937,唐屋利久,https://tabelog.com/tokyo/A1315/A131501/13028356/,居酒屋、魚介料理・海鮮料理、焼鳥,高級和食,35.60731667,139.7341639,東京都品川区東大井5-4-10
"0,1,0,1,0,0,0,0,1","0.0,3.0,0.0,3.0,0.0,0.0,0.0,0.0,3.0",0.5929441980363447,366.3502217672898,1.0,1.1625759424592288,17662,バルザル 大井町店,https://tabelog.com/tokyo/A1315/A131501/13200152/,イタリアン、バル・バール、居酒屋,洋食・西洋料理,35.6044,139.7319697,東京都品川区大井4-3-1ヴィアイン大井町1F
"0,1,0,1,0,0,0,0,1","0.0,3.0,0.0,3.0,3.0,0.0,0.0,0.0,3.0",0.9189109489594198,72.98014593652216,0.707106781187,1.159481492787833,20198,ビストロ マケロニ,https://tabelog.com/tokyo/A1315/A131501/13130656/,ビストロ、ワインバー、イタリアン,洋食・西洋料理,35.60752472,139.7346664,東京都品川区東大井5-5-11サンライスビル1F
"0,1,0,1,0,0,0,0,1","0.0,3.0,0.0,3.0,0.0,0.0,0.0,0.0,3.0",0.5867508462030698,371.9242384172372,1.0,1.1594294094596784,17926,グリルハウス バンフ,https://tabelog.com/tokyo/A1315/A131501/13003383/,ステーキ、ハンバーグ、鉄板焼き,洋食・西洋料理,35.60598333,139.7306975,東京都品川区大井1-24-4大井町センタービル1F
"0,1,0,1,0,0,0,0,1","0.0,3.0,0.0,3.0,0.0,0.0,0.0,0.0,3.0",0.5853822540271325,373.1559713755807,1.0,1.158737409135429,18102,小料理 東,https://tabelog.com/tokyo/A1315/A131501/13128590/,割烹・小料理,高級和食,35.60597768,139.7306853,東京都品川区大井1-24-5大井町センタービル１０６
"0,1,0,1,0,0,0,0,1","0.0,3.0,0.0,3.0,3.0,0.0,0.0,0.0,3.0",0.9130713515433091,78.2357836110218,0.707106781187,1.1548589926952664,19549,庄や 大井町店,https://tabelog.com/tokyo/A1315/A131501/13085831/,居酒屋,居酒屋,35.60705556,139.733825,東京都品川区東大井5-15-16
"0,1,0,1,0,0,0,0,1","0.0,3.0,0.0,3.0,3.0,0.0,0.0,0.0,3.0",0.9118015389341791,79.37861495923875,0.707106781187,1.1538552969947045,19794,銀寿司,https://tabelog.com/tokyo/A1315/A131501/13071005/,寿司,高級和食,35.60616278,139.7345025,東京都品川区東大井5-14-14
"0,1,0,1,0,0,0,0,1","0.0,3.0,0.0,3.0,0.0,0.0,0.0,0.0,3.0",0.5720470977086066,385.1576120622541,1.0,1.1520581070401095,18067,三々五々,https://tabelog.com/tokyo/A1315/A131501/13096335/,もつ鍋、居酒屋、魚介料理・海鮮料理,高級和食,35.60753806,139.7304864,東京都品川区大井1-11-4小川ビル1F
"0,1,0,1,0,0,0,0,1","0.0,3.0,0.0,3.0,0.0,0.0,0.0,0.0,3.0",0.5667267288257675,389.9459440568093,1.0,1.1494255892251377,19346,ポワソンルージュ,https://tabelog.com/tokyo/A1315/A131501/13034087/,ビストロ、フレンチ,洋食・西洋料理,35.60449028,139.7314867,東京都品川区大井1-53-8
"0,1,0,1,0,0,0,0,1","0.0,3.0,0.0,3.0,3.0,0.0,0.0,0.0,3.0",0.9058887031802844,84.70016713774413,0.707106781187,1.1491885583095829,19946,土間土間 大井町店,https://tabelog.com/tokyo/A1315/A131501/13052055/,居酒屋、焼鳥、ダイニングバー,バー・お酒,35.60718735,139.7338085,東京都品川区東大井5-15-1２Ｆ・３Ｆ
"0,1,0,1,0,0,0,0,1","0.0,3.0,0.0,3.0,0.0,0.0,0.0,3.0,0.0",0.9057927877525732,84.78649102268415,0.707106781187,1.149112951082085,20044,肉寿司 大井町店,https://tabelog.com/tokyo/A1315/A131501/13117263/,牛料理、寿司、創作料理,高級和食,35.607478,139.734095,東京都品川区東大井5-4-13
"0,1,0,1,0,0,0,0,1","0.0,3.0,0.0,3.0,3.0,0.0,0.0,0.0,3.0",0.9031670842391237,87.14962418478869,0.707106781187,1.1470443679531321,19529,かき殻荘,https://tabelog.com/tokyo/A1315/A131501/13158091/,魚介料理・海鮮料理、オイスターバー、バーベキュー,創作料理・無国籍料理,35.6076486,139.7345616,東京都品川区東大井5-4-61F～2F
"0,1,0,1,0,0,0,0,1","0.0,3.0,0.0,3.0,0.0,0.0,0.0,0.0,3.0",0.5603191111647917,395.71279995168743,1.0,1.1462798551560183,19038,南風 どなん,https://tabelog.com/tokyo/A1315/A131501/13050598/,沖縄料理、居酒屋,居酒屋,35.60758722,139.7303797,東京都品川区大井1-11-4小川家ビル2F
"0,1,0,1,0,0,0,0,1","0.0,3.0,0.0,3.0,3.0,0.0,0.0,0.0,3.0",0.9012266327923012,88.89603048692888,0.707106781187,1.1455171075344748,19478,炭火焼肉酒家 牛角 大井町店,https://tabelog.com/tokyo/A1315/A131501/13028256/,焼肉、ホルモン、韓国料理,焼肉・ホルモン・鍋,35.60755833,139.7341611,東京都品川区東大井5-4-14
"0,1,0,1,0,0,0,0,1","0.0,3.0,0.0,3.0,3.0,0.0,0.0,0.0,3.0",0.8981130579933622,91.69824780597405,0.707106781187,1.1430691426760624,17594,大井町のひもの屋,https://tabelog.com/tokyo/A1315/A131501/13019410/,居酒屋、魚介料理・海鮮料理、ろばた焼き,高級和食,35.6074327,139.7339192,東京都品川区東大井5-4-12鈴木ビル
"0,1,0,1,0,0,0,0,1","0.0,3.0,0.0,3.0,0.0,0.0,0.0,0.0,3.0",0.5534568512402384,401.8888338837855,1.0,1.1429411560464342,17671,沖縄の味 ぶがりの～し,https://tabelog.com/tokyo/A1315/A131501/13027389/,沖縄料理,高級和食,35.60754389,139.7302997,東京都品川区大井1-11-3ニュー森田ビル２Ｆ
"0,1,0,1,0,0,0,0,1","0.0,3.0,0.0,3.0,3.0,0.0,0.0,0.0,3.0",0.8972970441631187,92.43266025319313,0.707106781187,1.1424281095385695,17878,豚のいろ葉,https://tabelog.com/tokyo/A1315/A131501/13201908/,居酒屋、豚料理、焼肉,焼肉・ホルモン・鍋,35.60756361,139.7340975,東京都品川区東大井5-4-14
"0,1,0,1,0,0,0,0,1","0.0,3.0,0.0,3.0,3.0,0.0,0.0,0.0,3.0",0.8967336045366574,92.93975591700836,0.707106781187,1.1419856205335102,17758,HO-bar,https://tabelog.com/tokyo/A1315/A131501/13169003/,バル・バール、西洋各国料理（その他）、ダイニングバー,洋食・西洋料理,35.60696132,139.7356762,東京都品川区東大井5-11-1DMビル1F
"0,1,0,1,0,0,0,0,1","0.0,3.0,0.0,3.0,0.0,0.0,0.0,0.0,3.0",0.5484833516884171,406.3649834804246,1.0,1.1405410939897607,20006,水炊き・焼き鳥 とりいちず 大井町西口店,https://tabelog.com/tokyo/A1315/A131501/13177683/,居酒屋、水炊き、焼鳥,Ｂ級和食,35.60754639,139.73025,東京都品川区大井1-11-3
"0,1,0,1,0,0,0,0,1","0.0,3.0,0.0,3.0,3.0,0.0,0.0,0.0,3.0",0.8945366977195759,94.91697205238164,0.707106781187,1.1402613312600949,17612,ホルモン酒場 福ちゃん,https://tabelog.com/tokyo/A1315/A131501/13029763/,ホルモン、居酒屋,焼肉・ホルモン・鍋,35.60683944,139.73361,東京都品川区東大井5-17-2
"0,1,0,1,0,0,0,0,1","0.0,3.0,0.0,3.0,0.0,0.0,0.0,0.0,3.0",0.5462859355314034,408.342658021737,1.0,1.139485990857027,19880,Gecky,https://tabelog.com/tokyo/A1315/A131501/13143418/,イタリアン、パスタ,洋食・西洋料理,35.60599167,139.7302797,東京都品川区大井1-24-1
"0,1,0,1,0,0,0,0,1","0.0,3.0,0.0,3.0,0.0,0.0,0.0,3.0,0.0",0.892445091330939,96.79941780215489,0.707106781187,1.138621201735102,17599,洋風居酒屋 春菜亭,https://tabelog.com/tokyo/A1315/A131501/13028524/,居酒屋、洋食,居酒屋,35.60715833,139.73365,東京都品川区東大井5-15-16まめそうビル　Ｂ１Ｆ
"0,1,0,1,0,0,0,0,1","0.0,3.0,0.0,3.0,3.0,0.0,0.0,0.0,3.0",0.8893386453788991,99.59521915899087,0.707106781187,1.1361880241246936,19102,フレッシュホルモン かびら,https://tabelog.com/tokyo/A1315/A131501/13098583/,ホルモン、牛タン、もつ焼き,焼肉・ホルモン・鍋,35.60751558,139.7338971,東京都品川区東大井5-3-5
"0,1,0,1,0,0,0,0,1","0.0,3.0,0.0,3.0,0.0,0.0,0.0,0.0,3.0",0.538792738757202,415.08653511851816,1.0,1.135912679450972,19209,中国酒家　多聞天,https://tabelog.com/tokyo/A1315/A131501/13111326/,中華料理,アジア・エスニック、中華料理,35.60433839,139.7312808,東京都品川区大井1-55-3
"0,1,0,1,0,0,0,0,1","0.0,3.0,0.0,3.0,3.0,0.0,0.0,0.0,3.0",0.8884871120078851,100.36159919290343,0.707106781187,1.135521619434924,18987,TAKA,https://tabelog.com/tokyo/A1315/A131501/13101039/,ダイニングバー、バー、居酒屋・ダイニングバー（その他）,バー・お酒,35.60716028,139.7336092,東京都品川区東大井5-15-16まめそうビル2F
"0,1,0,1,0,0,0,0,1","0.0,3.0,0.0,3.0,0.0,0.0,0.0,0.0,3.0",0.5316839999050718,421.48440008543537,1.0,1.132558111425218,17503,居酒屋 かもめ,https://tabelog.com/tokyo/A1315/A131501/13177555/,居酒屋,居酒屋,35.6077871,139.7301438,東京都品川区大井町1-1-16
"0,1,0,1,0,0,0,0,1","0.0,3.0,0.0,3.0,3.0,0.0,0.0,0.0,3.0",0.8845540275979529,103.90137516184244,0.707106781187,1.1324468321911454,19599,博多かわ屋 大井町店,https://tabelog.com/tokyo/A1315/A131501/13191067/,居酒屋、鳥料理、焼鳥,Ｂ級和食,35.60694417,139.7335142,東京都品川区東大井5-17-1北橋ビル2F
"0,1,0,1,0,0,0,0,1","0.0,3.0,0.0,3.0,3.0,0.0,0.0,0.0,3.0",0.8845324119433808,103.9208292509572,0.707106781187,1.1324299482874758,19919,電雷 大井町店,https://tabelog.com/tokyo/A1315/A131501/13056414/,もつ鍋、串焼き,焼肉・ホルモン・鍋,35.60694333,139.7335139,東京都品川区東大井5-17-1北橋ビル1F
"0,1,0,1,0,0,0,0,1","0.0,3.0,0.0,3.0,0.0,0.0,0.0,3.0,0.0",0.8815570896956979,106.59861927387195,0.707106781187,1.1301074738239496,17519,みさき,https://tabelog.com/tokyo/A1315/A131501/13074891/,居酒屋,居酒屋,35.60754167,139.7338194,東京都品川区東大井5-3-4
"0,1,0,1,0,0,0,0,1","0.0,3.0,0.0,3.0,3.0,0.0,0.0,0.0,3.0",0.8801731168878021,107.84419480097814,0.707106781187,1.1290282174029083,19583,牛タン ふかざわ 大井町店,https://tabelog.com/tokyo/A1315/A131501/13190507/,居酒屋、ダイニングバー、もつ鍋,バー・お酒,35.60782167,139.7344333,東京都品川区東大井5-4-17河本ビル3F
"0,1,0,1,0,0,0,0,1","0.0,3.0,0.0,3.0,3.0,0.0,0.0,0.0,3.0",0.878372888610363,109.46440025067331,0.707106781187,1.1276253506576168,19873,イタリアンバル バル道,https://tabelog.com/tokyo/A1315/A131501/13130425/,イタリアン、ピザ、バル・バール,洋食・西洋料理,35.606825,139.73345,東京都品川区東大井5-17-3
"0,1,0,1,0,0,0,0,1","0.0,3.0,0.0,3.0,3.0,0.0,0.0,0.0,3.0",0.8734293242332799,113.91360819004805,0.707106781187,1.1237787969305189,18525,玄品ふぐ 大井町の関,https://tabelog.com/tokyo/A1315/A131501/13027813/,ふぐ、鍋（その他）、懐石・会席料理,高級和食,35.60710278,139.7358806,東京都品川区東大井5-7-10クレストワン　Ｂ１Ｆ
"0,1,0,1,0,0,0,0,1","0.0,3.0,0.0,3.0,0.0,0.0,0.0,0.0,3.0",0.5122876182373438,438.9411435863905,1.0,1.123582931429314,19268,大井一丁目酒場,https://tabelog.com/tokyo/A1315/A131501/13178747/,居酒屋,居酒屋,35.60706944,139.729819,東京都品川区大井1-21-6
"0,1,0,1,0,0,0,0,1","0.0,3.0,0.0,3.0,0.0,0.0,0.0,3.0,0.0",0.872411713471785,114.82945787539352,0.707106781187,1.1229880666341812,18040,餃子屋EX,https://tabelog.com/tokyo/A1315/A131501/13203810/,バー・お酒（その他）,バー・お酒,35.60754472,139.7336992,東京都品川区東大井5-3-3
"0,1,0,1,0,0,0,0,1","0.0,3.0,0.0,3.0,0.0,0.0,0.0,0.0,3.0",0.5100075054315374,440.9932451116164,1.0,1.1225451686219579,18000,ワインバー ハイジ,https://tabelog.com/tokyo/A1315/A131501/13209218/,ワインバー,バー・お酒,35.60698352,139.7297921,東京都品川区大井1-21-6
"0,1,0,1,0,0,0,0,1","0.0,3.0,0.0,3.0,3.0,0.0,0.0,0.0,3.0",0.8705481194177785,116.50669252399928,0.707106781187,1.1215409168736694,20085,よし臓,https://tabelog.com/tokyo/A1315/A131501/13038711/,焼肉、もつ鍋、居酒屋,焼肉・ホルモン・鍋,35.607745,139.7339517,東京都品川区東大井5-2-5
"0,1,0,1,0,0,0,0,1","0.0,3.0,0.0,3.0,0.0,0.0,0.0,3.0,0.0",0.8692646394396578,117.66182450430797,0.707106781187,1.120544962676714,20311,宮川 大井町,https://tabelog.com/tokyo/A1315/A131501/13045689/,うなぎ,高級和食,35.60719972,139.73589,東京都品川区東大井5-7-10
"0,1,0,1,0,0,0,0,1","0.0,3.0,0.0,3.0,3.0,0.0,0.0,0.0,3.0",0.8677409090756236,119.03318183193868,0.707106781187,1.1193633392618278,17543,旨唐揚げと居酒メシ ミライザカ 大井町東口駅前店,https://tabelog.com/tokyo/A1315/A131501/13052997/,居酒屋,居酒屋,35.60686806,139.7333433,東京都品川区東大井5-17-2林ビル1・2F
"0,1,0,1,0,0,0,0,1","0.0,3.0,0.0,3.0,3.0,0.0,0.0,0.0,3.0",0.8658789682976652,120.7089285321014,0.707106781187,1.117920564145874,17699,鹿児島県霧島市 塚田農場 大井町店,https://tabelog.com/tokyo/A1315/A131501/13188829/,居酒屋、鳥料理、もつ鍋,Ｂ級和食,35.60748167,139.7335578,東京都品川区東大井5-3-7プラザヤワタヤB1F
"0,1,0,1,0,0,0,0,1","0.0,3.0,0.0,3.0,3.0,0.0,0.0,0.0,3.0",0.8570096185516095,128.6913433035514,0.707106781187,1.111065023430211,20149,うまい鮨勘 大井町支店,https://tabelog.com/tokyo/A1315/A131501/13038410/,寿司、天ぷら、魚介料理・海鮮料理,高級和食,35.60795389,139.7341611,東京都品川区東大井5-1-12
"0,1,0,1,0,0,0,0,1","0.0,3.0,0.0,3.0,0.0,0.0,0.0,3.0,0.0",0.8540004806805999,131.39956738746008,0.707106781187,1.1087456069823662,17954,ユイット,https://tabelog.com/tokyo/A1315/A131501/13117441/,ビストロ、ワインバー,バー・お酒,35.60756917,139.7334892,東京都品川区東大井5-3-2
"0,1,0,1,0,0,0,0,1","0.0,3.0,0.0,3.0,0.0,0.0,0.0,0.0,3.0",0.4622330891421916,483.99021977202756,1.0,1.101662120932699,18154,炭乃家 大井町店,https://tabelog.com/tokyo/A1315/A131501/13030666/,焼肉,焼肉・ホルモン・鍋,35.60541667,139.7296194,東京都品川区大井1-34-5
"0,1,0,1,0,0,0,0,1","0.0,3.0,0.0,3.0,0.0,0.0,0.0,3.0,0.0",0.84310783404644,141.20294935820397,0.707106781187,1.100377580574268,18767,牛タン いろ葉,https://tabelog.com/tokyo/A1315/A131501/13181078/,牛タン、居酒屋、焼肉,焼肉・ホルモン・鍋,35.60755972,139.7333497,東京都品川区東大井5-3-13
"0,1,0,1,0,0,0,0,1","0.0,3.0,0.0,3.0,3.0,0.0,0.0,0.0,3.0",0.8430678958082582,141.23889377256765,0.707106781187,1.1003469802487595,18239,がんばり亭,https://tabelog.com/tokyo/A1315/A131501/13136070/,居酒屋、おでん、焼きとん,Ｂ級和食,35.60756132,139.7333505,東京都品川区東大井5-3-13
"0,1,0,1,0,0,0,0,1","0.0,3.0,0.0,3.0,0.0,0.0,0.0,3.0,0.0",0.8430678958082582,141.23889377256765,0.707106781187,1.1003469802487595,19432,美寿々,https://tabelog.com/tokyo/A1315/A131501/13167874/,居酒屋,居酒屋,35.60756132,139.7333505,東京都品川区東大井5-3-13
"0,1,0,1,0,0,0,0,1","0.0,3.0,0.0,3.0,3.0,0.0,0.0,0.0,3.0",0.8425612018165604,141.69491836509562,0.707106781187,1.099958807777167,17521,炭火焼肉 唐がらし,https://tabelog.com/tokyo/A1315/A131501/13009403/,焼肉、居酒屋、韓国料理,焼肉・ホルモン・鍋,35.60813972,139.7345278,東京都品川区東大井5-1-9
"0,1,0,1,0,0,0,0,1","0.0,3.0,0.0,3.0,3.0,0.0,0.0,0.0,3.0",0.8370801280272898,146.62788477543918,0.707106781187,1.0957660063800958,18260,田,https://tabelog.com/tokyo/A1315/A131501/13060061/,居酒屋、割烹・小料理,高級和食,35.60570852,139.7338783,東京都品川区東大井5丁目19-6
"0,1,0,1,0,0,0,0,1","0.0,3.0,0.0,3.0,3.0,0.0,0.0,0.0,3.0",0.8365953677382019,147.06416903561828,0.707106781187,1.0953957318343985,19626,らんまん,https://tabelog.com/tokyo/A1315/A131501/13182651/,串揚げ・串かつ、寿司,高級和食,35.60760417,139.7333081,東京都品川区東大井5-3-11F・2F
"0,1,0,1,0,0,0,0,1","0.0,3.0,0.0,3.0,3.0,0.0,0.0,0.0,3.0",0.832715593089913,150.55596621907833,0.707106781187,1.0924354713094433,18171,酔庵たくみ,https://tabelog.com/tokyo/A1315/A131501/13033488/,居酒屋,居酒屋,35.60820147,139.7343558,東京都品川区東大井5-1-8大井ハイツ　１Ｆ
"0,1,0,1,0,0,0,0,1","0.0,3.0,0.0,3.0,3.0,0.0,0.0,0.0,3.0",0.8290894357758778,153.81950780170996,0.707106781187,1.0896739386234597,17664,鉄板料理　八天,https://tabelog.com/tokyo/A1315/A131501/13109910/,鉄板焼き、魚介料理・海鮮料理、ステーキ,洋食・西洋料理,35.60821064,139.7350752,東京都品川区南品川6-19-21F
"0,1,0,1,0,0,0,0,1","0.0,3.0,0.0,3.0,0.0,0.0,0.0,0.0,3.0",0.42755944505881704,515.1964994470646,1.0,1.0875693444829178,17604,プティタプティ,https://tabelog.com/tokyo/A1315/A131501/13122539/,フレンチ,洋食・西洋料理,35.60381778,139.7303689,東京都品川区大井1-43-5ソレイユ大井1F
"0,1,0,1,0,0,0,0,1","0.0,3.0,0.0,3.0,3.0,0.0,0.0,0.0,3.0",0.8219304455977667,160.26259896201,0.707106781187,1.0842369009587083,17590,三来風,https://tabelog.com/tokyo/A1315/A131501/13044550/,焼肉,焼肉・ホルモン・鍋,35.60783345,139.7333425,東京都品川区東大井5-2-13大井ビル３階
"0,1,0,1,0,0,0,0,1","0.0,3.0,0.0,3.0,0.0,0.0,0.0,3.0,0.0",0.8217864880635903,160.3921607427687,0.707106781187,1.0841277747405467,20094,たら福,https://tabelog.com/tokyo/A1315/A131501/13083838/,居酒屋,居酒屋,35.60784444,139.7333528,東京都品川区東大井5-2-14
"0,1,0,1,0,0,0,0,1","0.0,3.0,0.0,3.0,0.0,0.0,0.0,0.0,3.0",0.41800671296766523,523.7939583291013,1.0,1.083849441613563,17497,俺のやきとり 大井町,https://tabelog.com/tokyo/A1315/A131501/13109557/,焼鳥、割烹・小料理,Ｂ級和食,35.60792361,139.7290228,東京都品川区大井1-1-16
"0,1,0,1,0,0,0,0,1","0.0,2.0,0.0,3.0,3.0,0.0,0.0,0.0,3.0",0.806120397699633,174.4916420703304,0.707106781187,1.0723013082093178,19327,アジアンダイニング&バー シャングリラ,https://tabelog.com/tokyo/A1315/A131501/13206646/,インドカレー、タイ料理、居酒屋・ダイニングバー（その他）,バー・お酒,35.60843806,139.7347444,東京都品川区南品川6-18-19
"0,1,0,1,0,0,0,0,1","0.0,3.0,0.0,3.0,3.0,0.0,0.0,0.0,3.0",0.8060871464622882,174.52156818394064,0.707106781187,1.0722763112611016,18938,かわち屋,https://tabelog.com/tokyo/A1315/A131501/13091953/,焼鳥、居酒屋,居酒屋,35.60843833,139.7347444,東京都品川区南品川6-18-192Fこのお店は「品川区大井4-2-6」から移転しています。※移転前の情報は最新のものとは異なります。移転前の店舗情報を見る
"0,1,0,1,0,0,0,0,1","0.0,3.0,0.0,3.0,0.0,0.0,0.0,0.0,3.0",0.3689036861645123,567.9866824519389,1.0,1.0658751942257427,17924,魚菜 由良 2号店,https://tabelog.com/tokyo/A1315/A131501/13176008/,割烹・小料理、魚介料理・海鮮料理,高級和食,35.60780083,139.7284936,東京都品川区大井1-15-1
"0,1,0,1,0,0,0,0,1","0.0,3.0,0.0,3.0,3.0,0.0,0.0,0.0,3.0",0.7964925599221763,183.1566960700414,0.707106781187,1.0650823433009213,19057,八幸 すずらん通り店,https://tabelog.com/tokyo/A1315/A131501/13108429/,おでん、鳥料理、居酒屋,Ｂ級和食,35.60844694,139.7352428,東京都品川区南品川6-18-16
"0,1,0,1,0,0,0,0,1","0.0,3.0,0.0,3.0,3.0,0.0,0.0,3.0,0.0",0.8932375058651717,96.0862447213455,0.57735026919,1.0635819551015173,20121,旬鮮料理 じょう 大井町店,https://tabelog.com/tokyo/A1315/A131501/13033234/,魚介料理・海鮮料理、居酒屋,高級和食,35.60679722,139.7336,東京都品川区東大井5-17-2野村ビル　２Ｆ
"0,1,0,1,0,0,0,0,1","0.0,3.0,0.0,3.0,3.0,0.0,0.0,0.0,3.0",0.7840114396301292,194.38970433288372,0.707106781187,1.0557811977256024,18183,黒ぶたや アトレ大井町店,https://tabelog.com/tokyo/A1315/A131501/13070212/,居酒屋、豚しゃぶ、バイキング,焼肉・ホルモン・鍋,35.60623139,139.7326578,東京都品川区大井1-2-1アトレ大井町6F
"0,1,0,1,0,0,0,0,1","0.0,3.0,0.0,3.0,3.0,0.0,0.0,3.0,0.0",0.8740254169064454,113.37712478419922,0.57735026919,1.0474988127591454,19975,Speak Easy,https://tabelog.com/tokyo/A1315/A131501/13060294/,バー,バー・お酒,35.60778861,139.7351975,東京都品川区東大井5-6-14
"0,1,0,1,0,0,0,0,1","0.0,3.0,0.0,3.0,0.0,0.0,0.0,0.0,3.0",0.2966860131131086,632.9825881982023,1.0,1.0430832135438435,20146,PIZZERIA Bakka M'unica,https://tabelog.com/tokyo/A1315/A131501/13182694/,ピザ、居酒屋、イタリアン,洋食・西洋料理,35.60495139,139.7412372,東京都品川区東大井1-3-17コーポマルイノ1F
"0,1,0,1,0,0,0,0,1","0.0,3.0,0.0,3.0,0.0,0.0,0.0,0.0,3.0",0.29567208184506055,633.8951263394455,1.0,1.0427952723246265,18086,ＢＡＲイーヴレース,https://tabelog.com/tokyo/A1315/A131501/13143783/,バー,バー・お酒,35.60291409,139.729606,東京都品川区大井3-5-9氏原ビル1F
"0,1,0,1,0,0,0,0,1","0.0,3.0,0.0,3.0,0.0,0.0,0.0,0.0,3.0",0.28196272866029404,646.2335442057354,1.0,1.0389913283341485,18708,炭焼きイタリアン酒場 炭リッチ 青物横丁店,https://tabelog.com/tokyo/A1315/A131501/13167800/,イタリアン、ピザ、ワインバー,洋食・西洋料理,35.60965778,139.7409172,東京都品川区南品川3-5-353F
"0,1,0,1,0,0,0,0,1","0.0,3.0,0.0,3.0,0.0,0.0,0.0,0.0,3.0",0.2753713133703924,652.1658179666468,1.0,1.0372219435720278,18307,もっこく屋,https://tabelog.com/tokyo/A1315/A131501/13038826/,居酒屋、郷土料理（その他）,高級和食,35.60391159,139.7284355,東京都品川区大井2-27-19
"0,1,0,1,0,0,0,0,1","0.0,3.0,0.0,3.0,0.0,0.0,0.0,0.0,3.0",0.26732375697657645,659.4086187210812,1.0,1.0351144820956142,20275,庄や 青物横丁店,https://tabelog.com/tokyo/A1315/A131501/13085829/,居酒屋,居酒屋,35.60984556,139.7409547,東京都品川区南品川3-5-35OTビル１Ｆ
"0,1,0,1,0,0,0,0,1","0.0,3.0,0.0,3.0,0.0,0.0,0.0,0.0,3.0",0.25164773579376376,673.5170377856126,1.0,1.0311772800688193,20193,いさりび 青物横丁店,https://tabelog.com/tokyo/A1315/A131501/13022608/,居酒屋、魚介料理・海鮮料理,高級和食,35.60821389,139.741905,東京都品川区南品川3-4-11
"0,1,0,1,0,0,0,0,1","0.0,3.0,0.0,3.0,0.0,0.0,0.0,0.0,3.0",0.2283663853291148,694.4702532037967,1.0,1.0257442205288245,19990,ステーキハウスB&M 大井本店,https://tabelog.com/tokyo/A1317/A131712/13008380/,ステーキ、ハンバーグ、シチュー,洋食・西洋料理,35.60905222,139.7274747,東京都品川区二葉1-7-10
"0,1,0,1,0,0,0,0,1","0.0,3.0,0.0,3.0,0.0,0.0,0.0,0.0,3.0",0.21379099189425385,707.5881072951715,1.0,1.0225979602048543,17921,まかないや 青物横丁店,https://tabelog.com/tokyo/A1315/A131501/13033839/,居酒屋、創作料理、和食（その他）,Ｂ級和食,35.61041389,139.7411472,東京都品川区南品川2-5-6古屋ビル　１Ｆ
"0,1,0,1,0,0,0,0,1","0.0,3.0,0.0,3.0,0.0,0.0,0.0,0.0,3.0",0.2122981765961904,708.9316410634286,1.0,1.022286904829592,17603,ドッピオイタリアンレストラン,https://tabelog.com/tokyo/A1315/A131501/13069130/,イタリアン,洋食・西洋料理,35.61048889,139.7411028,東京都品川区南品川2-5-4LANEヨシダ2F
"0,1,0,1,0,0,0,0,1","0.0,3.0,0.0,3.0,3.0,0.0,0.0,0.0,3.0",0.7380563724674583,235.7492647792876,0.707106781187,1.0221189798354318,17457,炭火焼居酒屋櫻井,https://tabelog.com/tokyo/A1315/A131501/13184513/,居酒屋、焼酎バー、炭火焼き,居酒屋,35.60487988,139.7337357,東京都品川区東大井6-5-5
"0,1,0,1,0,0,0,0,1","0.0,3.0,0.0,3.0,0.0,0.0,0.0,0.0,3.0",0.20038785359569034,719.6509317638787,1.0,1.0198800379793145,17618,四万十,https://tabelog.com/tokyo/A1315/A131501/13028795/,居酒屋、創作料理、日本酒バー,バー・お酒,35.610625,139.7411306,東京都品川区南品川2-7-17
"0,1,0,1,0,0,0,0,1","0.0,3.0,0.0,3.0,0.0,0.0,0.0,0.0,3.0",0.15024225375929834,764.7819716166315,1.0,1.0112233852194448,17750,アレッグロ ピアット,https://tabelog.com/tokyo/A1315/A131501/13009684/,パスタ、イタリアン、シチュー,洋食・西洋料理,35.60383333,139.7270781,東京都品川区大井2-22-12
"0,1,0,1,0,0,0,0,1","0.0,3.0,0.0,3.0,0.0,0.0,0.0,0.0,3.0",0.14312516878962822,771.1873480893346,1.0,1.0101904839885691,19484,大盛苑,https://tabelog.com/tokyo/A1317/A131712/13167131/,焼肉,焼肉・ホルモン・鍋,35.60699111,139.7261472,東京都品川区二葉1-16-17このお店は「品川区大井1-1-28」から移転しています。※移転前の情報は最新のものとは異なります。移転前の店舗情報を見る
"0,1,0,1,0,0,0,0,1","0.0,3.0,0.0,3.0,0.0,0.0,0.0,0.0,3.0",0.14312516878962822,771.1873480893346,1.0,1.0101904839885691,18870,シノア,https://tabelog.com/tokyo/A1317/A131712/13125509/,中華料理,アジア・エスニック、中華料理,35.60699111,139.7261472,東京都品川区二葉1-16-17
"0,1,0,1,0,0,0,0,1","0.0,3.0,0.0,3.0,0.0,0.0,0.0,0.0,3.0",0.11336803990955875,797.9687640813971,1.0,1.00640564012377,19628,てけてけ 青物横丁店,https://tabelog.com/tokyo/A1315/A131501/13155596/,居酒屋、焼鳥、水炊き,焼肉・ホルモン・鍋,35.61062528,139.7421658,東京都品川区南品川3-6-1J・NACビル2F～3F
"0,1,0,1,0,0,0,0,1","0.0,3.0,0.0,3.0,0.0,0.0,0.0,0.0,3.0",0.0887521979544964,820.1230218409532,1.0,1.0039307509194815,17918,TCK バーベキューガーデン by デジキュー,https://tabelog.com/tokyo/A1315/A131501/13184087/,バーベキュー,創作料理・無国籍料理,35.60309083,139.7424378,東京都品川区勝島2-1-2
"0,1,0,1,0,0,0,0,1","0.0,3.0,0.0,3.0,3.0,0.0,0.0,3.0,0.0",0.811224556562817,169.89789909346476,0.57735026919,0.9957000625207736,19900,呑み処食べ処　真琴,https://tabelog.com/tokyo/A1315/A131501/13135652/,居酒屋、和食（その他）,Ｂ級和食,35.60826409,139.7338894,東京都品川区東大井5-1-8
"0,1,0,1,0,0,0,0,1","0.0,3.0,0.0,3.0,0.0,3.0,0.0,0.0,3.0",0.697990726362707,271.8083462735638,0.707106781187,0.9935748859992081,18524,PIZZERIA&BAR CERTO! 阪急大井町ガーデン店,https://tabelog.com/tokyo/A1315/A131501/13165771/,イタリアン、居酒屋、バル・バール,洋食・西洋料理,35.60589472,139.7319036,東京都品川区大井1-50-5阪急大井町ガーデン2F
"0,1,0,1,0,0,0,0,1","0.0,3.0,0.0,3.0,3.0,0.0,0.0,0.0,3.0",0.6956043278618452,273.95610492433934,0.707106781187,0.9918998845347899,19895,グリシーヌ,https://tabelog.com/tokyo/A1315/A131501/13183084/,バー、ビストロ,洋食・西洋料理,35.60732472,139.7376281,東京都品川区南品川5-11-24
"0,1,0,1,0,0,0,0,1","0.0,3.0,0.0,3.0,3.0,0.0,0.0,0.0,3.0",0.6809231841133154,287.1691342980162,0.707106781187,0.9816600137843123,19875,ビストロ ドライチ,https://tabelog.com/tokyo/A1315/A131501/13147251/,イタリアン、居酒屋、ワインバー,洋食・西洋料理,35.60931806,139.7336389,東京都品川区南品川6-11-27ガーデンプラザ1F
"0,1,0,1,0,0,0,0,1","0.0,3.0,0.0,3.0,0.0,0.0,0.0,3.0,0.0",0.6753522301452727,292.1829928692546,0.707106781187,0.977803985859228,18194,はなの舞 阪急大井町ガーデン店,https://tabelog.com/tokyo/A1315/A131501/13125286/,居酒屋,居酒屋,35.60569028,139.7317722,東京都品川区大井1-50-5阪急大井町ガーデン2F
"0,1,0,1,0,0,0,0,1","0.0,3.0,0.0,3.0,0.0,0.0,0.0,3.0,0.0",0.6731763739526281,294.1412634426347,0.707106781187,0.9763024277589444,19092,宝田水産 阪急大井町ガーデン店,https://tabelog.com/tokyo/A1315/A131501/13165752/,寿司,高級和食,35.6053275,139.7320142,東京都品川区大井1-50-5阪急大井町ガーデン1F
"0,1,0,1,0,0,0,0,1","0.0,3.0,0.0,3.0,3.0,0.0,0.0,0.0,3.0",0.6616128860792108,304.5484025287103,0.707106781187,0.968365432585273,19791,八幸,https://tabelog.com/tokyo/A1315/A131501/13077153/,割烹・小料理、おでん,高級和食,35.60457944,139.7327994,東京都品川区東大井6-1-5
"0,1,0,1,0,0,0,0,1","0.0,3.0,0.0,3.0,3.0,0.0,0.0,0.0,3.0",0.6611316507174815,304.9815143542666,0.707106781187,0.968036703632885,17771,食彩　市,https://tabelog.com/tokyo/A1315/A131501/13098889/,魚介料理・海鮮料理、鍋（その他）、懐石・会席料理,高級和食,35.60457611,139.7327969,東京都品川区東大井6-1-5桐木ハイツ1F
"0,1,0,1,0,0,0,0,1","0.0,3.0,0.0,3.0,0.0,0.0,0.0,3.0,0.0",0.6379324389446748,325.86080494979274,0.707106781187,0.9523433186923198,20104,ひな鳥そのだ,https://tabelog.com/tokyo/A1315/A131501/13137722/,鳥料理、焼酎バー、居酒屋,バー・お酒,35.60716806,139.7382344,東京都品川区南品川5-14-11
"0,1,0,1,0,0,0,0,1","0.0,3.0,0.0,3.0,3.0,0.0,0.0,0.0,3.0",0.6328026384107227,330.4776254303496,0.707106781187,0.9489147375710697,18730,屋台屋　博多劇場　大井町店,https://tabelog.com/tokyo/A1315/A131501/13209241/,居酒屋、餃子、もつ鍋,居酒屋,35.60729472,139.7310475,東京都品川区大井1-9-4
"0,1,0,1,0,0,0,0,1","0.0,3.0,0.0,3.0,3.0,0.0,0.0,0.0,3.0",0.6285485418425232,334.3063123417292,0.707106781187,0.9460831197375642,18459,まかないや 大井町店,https://tabelog.com/tokyo/A1315/A131501/13095745/,居酒屋、創作料理、和食（その他）,Ｂ級和食,35.60495222,139.7318083,東京都品川区大井1-52-6コスモ大井町　１Ｆ
"0,1,0,1,0,0,0,0,1","0.0,3.0,0.0,3.0,3.0,0.0,0.0,0.0,3.0",0.6027382064298741,357.5356142131134,0.707106781187,0.9291358057304118,19287,ひなの家　Ｂ’２ｎｄ,https://tabelog.com/tokyo/A1315/A131501/13164069/,居酒屋、ダイニングバー,バー・お酒,35.6040625,139.7327136,東京都品川区東大井6-1-7NICハイム1F
"0,1,0,1,0,0,0,0,1","0.0,3.0,0.0,3.0,3.0,0.0,0.0,0.0,3.0",0.5913903897224679,367.74864924977885,0.707106781187,0.9218148366435055,18341,山内農場 大井町西口駅前店,https://tabelog.com/tokyo/A1315/A131501/13147078/,居酒屋、魚介料理・海鮮料理、創作料理,高級和食,35.60749639,139.7306722,東京都品川区大井1-10-2YK-5ビル4F
"0,1,0,1,0,0,0,0,1","0.0,3.0,0.0,3.0,3.0,0.0,0.0,0.0,3.0",0.5827394769253973,375.5344707671424,0.707106781187,0.9162888725545486,18201,串揚げ&泡 東京大井町 串あん,https://tabelog.com/tokyo/A1315/A131501/13163507/,串揚げ・串かつ、居酒屋、ダイニングバー,Ｂ級和食,35.60455972,139.7316247,東京都品川区大井1-53-7
"0,1,0,1,0,0,0,0,1","0.0,3.0,0.0,3.0,3.0,0.0,0.0,0.0,3.0",0.5812572982151456,376.868431606369,0.707106781187,0.9153469542902138,19013,Cocktail&Wine KIYOMI,https://tabelog.com/tokyo/A1315/A131501/13044259/,バー,バー・お酒,35.60754056,139.7305803,東京都品川区大井1-10-1梅原ビル2階
"0,1,0,1,0,0,0,0,1","0.0,3.0,0.0,3.0,3.0,0.0,0.0,0.0,3.0",0.5804603310286623,377.5857020742039,0.707106781187,0.91484107685319,19444,魚箱 大井町店,https://tabelog.com/tokyo/A1315/A131501/13044837/,居酒屋、日本酒バー、魚介料理・海鮮料理,高級和食,35.60775213,139.7306332,東京都品川区大井1-1-13
"0,1,0,1,0,0,0,0,1","0.0,3.0,0.0,3.0,3.0,0.0,0.0,0.0,3.0",0.5783670583546343,379.46964748082917,0.707106781187,0.9135143426294922,19481,炭火焼肉 にくなべ屋 神戸びいどろ 大井町店,https://tabelog.com/tokyo/A1315/A131501/13194580/,焼肉、居酒屋、鍋（その他）,焼肉・ホルモン・鍋,35.6061075,139.7305736,東京都品川区大井1-23-9
"0,1,0,1,0,0,0,0,1","0.0,3.0,0.0,3.0,3.0,0.0,0.0,0.0,3.0",0.5751816305577647,382.3365324980117,0.707106781187,0.9115009095613065,18432,わたる商店,https://tabelog.com/tokyo/A1315/A131501/13183045/,居酒屋、焼鳥、鳥料理,Ｂ級和食,35.60451896,139.7315686,東京都品川区大井1-53-8堀江ビル　1F
"0,1,0,1,0,0,0,0,1","0.0,3.0,0.0,3.0,3.0,0.0,0.0,0.0,3.0",0.5569519230014693,398.74326929867755,0.707106781187,0.9001085737482089,19053,しゃぶしゃぶ 温野菜 大井町店,https://tabelog.com/tokyo/A1315/A131501/13026873/,しゃぶしゃぶ、バイキング、居酒屋,焼肉・ホルモン・鍋,35.60753556,139.7303331,東京都品川区大井1-11-3大井ビル　３Ｆ
"0,1,0,1,0,0,0,0,1","0.0,3.0,0.0,3.0,3.0,0.0,0.0,0.0,3.0",0.5534764897885511,401.87115919030396,0.707106781187,0.8979622624301403,19354,ワインカフェ 大井町,https://tabelog.com/tokyo/A1315/A131501/13149124/,ダイニングバー、ワインバー、イタリアン,バー・お酒,35.60756958,139.730306,東京都品川区大井1-11-3ニュー森田ビル5F
"0,1,0,1,0,0,0,0,1","0.0,3.0,0.0,3.0,3.0,0.0,0.0,0.0,3.0",0.5534436549759356,401.90071052165797,0.707106781187,0.8979420244275922,20025,晴天の月 大井町,https://tabelog.com/tokyo/A1315/A131501/13119643/,居酒屋、魚介料理・海鮮料理、日本酒バー,高級和食,35.60756806,139.7303053,東京都品川区大井1-11-3YK-6ビル5F
"0,1,0,1,0,0,0,0,1","0.0,3.0,0.0,3.0,3.0,0.0,0.0,0.0,3.0",0.5534273769338236,401.9153607595588,0.707106781187,0.8979319916006182,19999,手作り料理 大井町の名物家,https://tabelog.com/tokyo/A1315/A131501/13097646/,居酒屋、ビアバー、居酒屋・ダイニングバー（その他）,居酒屋,35.6075675,139.730305,東京都品川区大井1-11-3銀泉大井町ビル　3F
"0,1,0,1,0,0,0,0,1","0.0,3.0,0.0,3.0,0.0,0.0,0.0,3.0,0.0",0.5525159100108571,402.7356809902286,0.707106781187,0.897370509218531,19974,活魚・串焼き ほんま,https://tabelog.com/tokyo/A1315/A131501/13025627/,ホルモン,焼肉・ホルモン・鍋,35.61040667,139.7336725,東京都品川区南品川6-8-26
"0,1,0,1,0,0,0,0,1","0.0,3.0,0.0,3.0,3.0,0.0,0.0,0.0,3.0",0.5421554152164607,412.0601263051854,0.707106781187,0.8910288964161225,18520,唐揚げと手作り家庭料理 あおば 大井町酒場,https://tabelog.com/tokyo/A1315/A131501/13030949/,定食・食堂、居酒屋,居酒屋,35.60588444,139.7302714,東京都品川区大井1-24-10ＫｏＡビル　Ｂ１Ｆ
"0,1,0,1,0,0,0,0,1","0.0,3.0,0.0,3.0,0.0,0.0,0.0,3.0,0.0",0.5262213472556391,426.40078746992486,0.707106781187,0.8814243622158058,19771,わらじ,https://tabelog.com/tokyo/A1315/A131501/13081256/,定食・食堂、居酒屋,居酒屋,35.60695167,139.7299522,東京都品川区大井1-22-18
"0,1,0,1,0,0,0,0,1","0.0,3.0,0.0,3.0,3.0,0.0,0.0,0.0,3.0",0.5120027247311849,439.19754774193353,0.707106781187,0.8730101890196688,19704,軍鶏チュー,https://tabelog.com/tokyo/A1315/A131501/13139916/,居酒屋、焼鳥、串焼き,居酒屋,35.60567798,139.7300337,東京都品川区大井1-25-3シティーハイツ大井町105このお店は「品川区南品川6-11-27」から移転しています。※移転前の情報は最新のものとは異なります。移転前の店舗情報を見る
"0,1,0,1,0,0,0,0,1","0.0,3.0,0.0,3.0,3.0,0.0,0.0,0.0,3.0",0.5088482800010171,442.03654799908463,0.707106781187,0.8711639180200208,20159,おぎ,https://tabelog.com/tokyo/A1315/A131501/13168514/,割烹・小料理、韓国料理,高級和食,35.6069518,139.7297796,東京都品川区大井1-21-6
"0,1,0,1,0,0,0,0,1","0.0,3.0,0.0,3.0,3.0,0.0,0.0,0.0,3.0",0.5072648305338434,443.46165251954096,0.707106781187,0.8702399716724858,18514,まんぷく,https://tabelog.com/tokyo/A1315/A131501/13179895/,焼肉、韓国料理、居酒屋,焼肉・ホルモン・鍋,35.60758917,139.7298433,東京都品川区大井1-11-10
"0,1,0,1,0,0,0,0,1","0.0,3.0,0.0,3.0,3.0,0.0,0.0,0.0,3.0",0.5072384980947602,443.4853517147159,0.707106781187,0.8702246226977424,18605,魚菜　由良,https://tabelog.com/tokyo/A1315/A131501/13120584/,割烹・小料理、魚介料理・海鮮料理,高級和食,35.6070325,139.7297667,東京都品川区大井1丁目21-5
"0,1,0,1,0,0,0,0,1","0.0,3.0,0.0,3.0,3.0,0.0,0.0,3.0,0.0",0.6389577505167537,324.93802453492157,0.57735026919,0.8611622032339572,19303,治郎丸 大井町店,https://tabelog.com/tokyo/A1315/A131501/13181040/,焼肉、ホルモン、居酒屋,焼肉・ホルモン・鍋,35.60774583,139.7312361,東京都品川区大井1-1-9
"0,1,0,1,0,0,0,0,1","0.0,3.0,0.0,3.0,3.0,0.0,0.0,3.0,0.0",0.635103343735864,328.4069906377224,0.57735026919,0.8583062335540902,17747,CFT北一倶楽部 大井町店,https://tabelog.com/tokyo/A1315/A131501/13085851/,ジンギスカン,焼肉・ホルモン・鍋,35.60766222,139.7311658,東京都品川区大井1-1-10
"0,1,0,1,0,0,0,0,1","0.0,3.0,0.0,3.0,3.0,0.0,0.0,0.0,3.0",0.4751971824777533,472.32253577002206,0.707106781187,0.8519462202714414,17515,地酒屋のぼる,https://tabelog.com/tokyo/A1315/A131501/13151396/,居酒屋、日本酒バー,バー・お酒,35.6054975,139.7297214,東京都品川区大井1-25-91F
"0,1,0,1,0,0,0,0,1","0.0,3.0,0.0,3.0,0.0,0.0,0.0,3.0,0.0",0.4547635159896617,490.7128356093045,0.707106781187,0.840719843631206,20073,まぐろダイニング美蔵 ホテルルートイン品川大井町店,https://tabelog.com/tokyo/A1315/A131501/13173340/,居酒屋、バイキング,創作料理・無国籍料理,35.60518633,139.7296476,東京都品川区大井1-35-2
"0,1,0,1,0,0,0,0,1","0.0,3.0,0.0,3.0,3.0,0.0,0.0,0.0,3.0",0.4535324532788151,491.8207920490664,0.707106781187,0.8400545733326501,18726,ふわり,https://tabelog.com/tokyo/A1315/A131501/13150902/,お好み焼き、鉄板焼き、居酒屋,洋食・西洋料理,35.60378028,139.7307614,東京都品川区大井4-1-2ひろせビルB1F
"0,1,0,1,0,0,0,0,1","0.0,3.0,0.0,3.0,0.0,0.0,0.0,3.0,0.0",0.43804413719457697,505.76027652488074,0.707106781187,0.8317948461793578,18872,よろい,https://tabelog.com/tokyo/A1315/A131501/13138041/,焼肉,焼肉・ホルモン・鍋,35.60532917,139.7294025,東京都品川区大井1-34-7
"0,1,0,1,0,0,0,0,1","0.0,3.0,0.0,3.0,0.0,0.0,0.0,3.0,0.0",0.4030682712680036,537.2385558587968,0.707106781187,0.8139189341101343,17471,オステリア　トスカーナ,https://tabelog.com/tokyo/A1315/A131501/13149995/,イタリアン,洋食・西洋料理,35.60315889,139.7308442,東京都品川区大井4-6-9
"0,1,0,1,0,0,0,0,1","0.0,3.0,0.0,3.0,3.0,0.0,0.0,0.0,3.0",0.3815510937382602,556.6040156355658,0.707106781187,0.803480701157696,17652,たもん,https://tabelog.com/tokyo/A1315/A131501/13105022/,居酒屋,居酒屋,35.60382694,139.7297706,東京都品川区大井1-42-8
"0,1,0,1,0,0,0,0,1","0.0,3.0,0.0,3.0,3.0,0.0,0.0,0.0,3.0",0.36864699523734634,568.2177042863883,0.707106781187,0.7974337634546986,17859,燻製キッチン,https://tabelog.com/tokyo/A1315/A131501/13060616/,ダイニングバー、ビストロ、イタリアン,洋食・西洋料理,35.60334139,139.7301086,東京都品川区大井3-4-8
"0,1,0,1,0,0,0,0,1","0.0,3.0,0.0,3.0,0.0,0.0,0.0,3.0,0.0",0.35306019225406976,582.2458269713372,0.707106781187,0.7903489731469769,19282,なるほど,https://tabelog.com/tokyo/A1315/A131501/13069378/,懐石・会席料理、割烹・小料理,高級和食,35.60520167,139.7285633,東京都品川区大井1-32-15
"0,1,0,1,0,0,0,0,1","0.0,3.0,0.0,3.0,0.0,0.0,0.0,3.0,0.0",0.3354282078788122,598.114612909069,0.707106781187,0.7826315114029027,19202,まなpiece23,https://tabelog.com/tokyo/A1315/A131501/13167947/,居酒屋,居酒屋,35.60266306,139.730525,東京都品川区大井4-12-24
"0,1,0,1,0,0,0,0,1","0.0,3.0,0.0,3.0,0.0,0.0,0.0,3.0,0.0",0.32750212015834185,605.2480918574923,0.707106781187,0.7792673730551082,18482,駅前酒蔵 鮫州南店,https://tabelog.com/tokyo/A1315/A131501/13085751/,居酒屋,居酒屋,35.605,139.7409333,東京都品川区東大井1-2-15
"0,1,0,1,0,0,0,0,1","0.0,3.0,0.0,3.0,0.0,0.0,0.0,3.0,0.0",0.31881890591114903,613.0629846799659,0.707106781187,0.7756581043000725,19744,弦六,https://tabelog.com/tokyo/A1315/A131501/13093568/,焼鳥,Ｂ級和食,35.60410023,139.7288004,東京都品川区大井1-41-15月曜日
"0,1,0,1,0,0,0,0,1","0.0,3.0,0.0,3.0,3.0,0.0,0.0,0.0,3.0",0.3165831587621148,615.0751571140967,0.707106781187,0.7747418256501958,17729,大井町 日本酒 宵月,https://tabelog.com/tokyo/A1315/A131501/13192489/,割烹・小料理,高級和食,35.60409833,139.7287761,東京都品川区大井1-41-1薩田ビル1F
"0,1,0,1,0,0,0,0,1","0.0,3.0,0.0,3.0,3.0,0.0,0.0,0.0,3.0",0.3046769618285197,625.7907343543322,0.707106781187,0.7699532784975055,19391,van-vino 青物横丁,https://tabelog.com/tokyo/A1315/A131501/13128427/,ダイニングバー、ワインバー,バー・お酒,35.61009611,139.7403197,東京都品川区南品川2-4-4
"0,1,0,1,0,0,0,0,1","0.0,3.0,0.0,3.0,3.0,0.0,0.0,0.0,3.0",0.30380211763243375,626.5780941308096,0.707106781187,0.7696075146969079,18653,Bar たしろ,https://tabelog.com/tokyo/A1315/A131501/13149922/,バー,バー・お酒,35.61011361,139.7403153,東京都品川区南品川2-4-4グリーングラスビル2F
"0,1,0,1,0,0,0,0,1","0.0,3.0,0.0,3.0,0.0,0.0,0.0,3.0,0.0",0.30096960383114174,629.1273565519724,0.707106781187,0.7684937881533426,20380,居酒屋 まつり,https://tabelog.com/tokyo/A1315/A131501/13159619/,居酒屋、魚介料理・海鮮料理、定食・食堂,居酒屋,35.60428644,139.7408395,東京都品川区東大井1-17-17
"0,1,0,1,0,0,0,0,1","0.0,3.0,0.0,3.0,3.0,0.0,0.0,3.0,0.0",0.5010246845061586,449.07778394445734,0.57735026919,0.7644338217385656,18126,焼鳥 晋ちゃん,https://tabelog.com/tokyo/A1315/A131501/13183186/,焼鳥,Ｂ級和食,35.604,139.7311586,東京都品川区大井4-1-5ケイビル21F
"0,1,0,1,0,0,0,0,1","0.0,3.0,0.0,3.0,3.0,0.0,0.0,3.0,0.0",0.4976342842075718,452.1291442131854,0.57735026919,0.7622159891737483,18823,むろと,https://tabelog.com/tokyo/A1315/A131501/13079179/,割烹・小料理、すっぽん、ふぐ,高級和食,35.60554722,139.7299361,東京都品川区大井1-25-3シティハイツ大井町1F
"0,1,0,1,0,0,0,0,1","0.0,3.0,0.0,3.0,0.0,0.0,0.0,3.0,0.0",0.28421011666625784,644.2108950003679,0.707106781187,0.7620862093066951,19122,宮美,https://tabelog.com/tokyo/A1315/A131501/13065429/,焼鳥,Ｂ級和食,35.60393558,139.72852,東京都品川区大井2-27-18
"0,1,0,1,0,0,0,0,1","0.0,3.0,0.0,3.0,3.0,0.0,0.0,3.0,0.0",0.4851622080971852,463.35401271253335,0.57735026919,0.7541324164223878,19367,鳥はし,https://tabelog.com/tokyo/A1315/A131501/13124330/,焼鳥,Ｂ級和食,35.60406093,139.7308697,東京都品川区大井1-55-6Ｍビル１
"0,1,0,1,0,0,0,0,1","0.0,3.0,0.0,3.0,3.0,0.0,0.0,0.0,3.0",0.2595047428584279,666.4457314274149,0.707106781187,0.7532215554310823,18134,品川　漢城軒,https://tabelog.com/tokyo/A1314/A131405/13189307/,焼肉、ホルモン、韓国料理,焼肉・ホルモン・鍋,35.61065583,139.7403645,東京都品川区南品川2-4-7アサミビル3F
"0,1,0,1,0,0,0,0,1","0.0,3.0,0.0,3.0,3.0,0.0,0.0,0.0,3.0",0.23582597893053994,687.756618962514,0.707106781187,0.7453951249763763,18394,ふうこうめいび,https://tabelog.com/tokyo/A1315/A131501/13155813/,居酒屋、魚介料理・海鮮料理、鍋（その他）,高級和食,35.61068083,139.7406408,東京都品川区南品川2-5-1
"0,1,0,1,0,0,0,0,1","0.0,3.0,0.0,3.0,3.0,0.0,0.0,0.0,3.0",0.22970375340672325,693.2666219339491,0.707106781187,0.7434808769088393,17704,藍の家 大井町店,https://tabelog.com/tokyo/A1317/A131712/13059181/,うなぎ,高級和食,35.60756083,139.7270531,東京都品川区二葉1-17-2
"0,1,0,1,0,0,0,0,1","0.0,3.0,0.0,3.0,3.0,0.0,0.0,0.0,3.0",0.22945242493453002,693.492817558923,0.707106781187,0.743403265602416,17469,焼肉 乙ちゃん,https://tabelog.com/tokyo/A1315/A131501/13154344/,焼肉、ホルモン、居酒屋,焼肉・ホルモン・鍋,35.6021713,139.7397083,東京都品川区東大井2-5-13乙川ビル1F
"0,1,0,1,0,0,0,0,1","0.0,3.0,0.0,3.0,3.0,0.0,0.0,0.0,3.0",0.22526996070346375,697.2570353668826,0.707106781187,0.7421230054346383,19402,魚ちょ,https://tabelog.com/tokyo/A1317/A131712/13052615/,魚介料理・海鮮料理、創作料理、懐石・会席料理,高級和食,35.6089825,139.7274108,東京都品川区二葉1-7-11
"0,1,0,1,0,0,0,0,1","0.0,3.0,0.0,3.0,3.0,0.0,0.0,0.0,3.0",0.2143033371505482,707.1269965645066,0.707106781187,0.7388679992487573,18372,ビストロ おきみくら,https://tabelog.com/tokyo/A1315/A131501/13030181/,居酒屋、洋食、魚介料理・海鮮料理,洋食・西洋料理,35.61021611,139.7412969,東京都品川区南品川3-5-3青横ビル　３Ｆ
"0,1,0,1,0,0,0,0,1","0.0,3.0,0.0,3.0,3.0,0.0,0.0,0.0,3.0",0.20823383695093411,712.5895467441593,0.707106781187,0.7371304707114666,19112,王様のポケット,https://tabelog.com/tokyo/A1315/A131501/13194297/,居酒屋,居酒屋,35.61075361,139.7409181,東京都品川区南品川2-7-18アスキー南品川21F
"0,1,0,1,0,0,0,0,1","0.0,3.0,0.0,3.0,3.0,0.0,0.0,0.0,3.0",0.19709139186721863,722.6177473195032,0.707106781187,0.7340606356072757,18888,てっぺい,https://tabelog.com/tokyo/A1315/A131501/13039291/,居酒屋、魚介料理・海鮮料理,高級和食,35.61063611,139.7411611,東京都品川区南品川2-7-17１Ｆ
"0,1,0,1,0,0,0,0,1","0.0,3.0,0.0,3.0,0.0,0.0,0.0,3.0,0.0",0.19256611953709013,726.6904924166189,0.707106781187,0.7328585882648664,20252,華華,https://tabelog.com/tokyo/A1315/A131501/13102210/,居酒屋,居酒屋,35.61029711,139.7414894,東京都品川区南品川3-5-5コーポローザ２０１号室
"0,1,0,1,0,0,0,0,1","0.0,3.0,0.0,3.0,3.0,0.0,0.0,0.0,3.0",0.18245918019428145,735.7867378251467,0.707106781187,0.7302680004198249,17869,グストーゾの話,https://tabelog.com/tokyo/A1315/A131501/13148119/,イタリアン、ダイニングバー、パスタ,洋食・西洋料理,35.61031028,139.7415972,東京都品川区南品川3-5-6田中屋ビル2F
"0,1,0,1,0,0,0,0,1","0.0,3.0,0.0,3.0,3.0,0.0,0.0,0.0,3.0",0.17173416526576174,745.4392512608144,0.707106781187,0.7276624378924118,17524,かる,https://tabelog.com/tokyo/A1317/A131712/13121077/,魚介料理・海鮮料理,高級和食,35.60800389,139.7265486,東京都品川区二葉1-10-7
"0,1,0,1,0,0,0,0,1","0.0,3.0,0.0,3.0,3.0,0.0,0.0,0.0,3.0",0.16136978253057768,754.7671957224801,0.707106781187,0.7252862929312576,19977,ごっつヴィゴーレ,https://tabelog.com/tokyo/A1315/A131501/13132981/,バル・バール、居酒屋、イタリアン,洋食・西洋料理,35.61070694,139.7415331,東京都品川区南品川2-7-13君嶋ビル2F
"0,1,0,1,0,0,0,0,1","0.0,3.0,0.0,3.0,3.0,0.0,0.0,0.0,3.0",0.1581900288858075,757.6289740027732,0.707106781187,0.7245854575127028,18807,くつろぎ居酒屋 故郷,https://tabelog.com/tokyo/A1315/A131501/13162680/,居酒屋、焼鳥、すき焼き,居酒屋,35.61035806,139.7418433,東京都品川区南品川3-5-102F左
"0,1,0,1,0,0,0,0,1","0.0,3.0,0.0,3.0,3.0,0.0,0.0,0.0,3.0",0.15800752995366313,757.7932230417032,0.707106781187,0.724545636604112,18769,八那里 青物横丁,https://tabelog.com/tokyo/A1315/A131501/13174152/,居酒屋、もつ鍋、和食（その他）,Ｂ級和食,35.61035972,139.7418442,東京都品川区南品川3-5-102F
"0,1,0,1,0,0,0,0,1","0.0,3.0,0.0,3.0,3.0,0.0,0.0,0.0,3.0",0.1526726787173906,762.5945891543485,0.707106781187,0.7234009585470175,19918,青横ホルモンまるみち,https://tabelog.com/tokyo/A1315/A131501/13095809/,ホルモン、焼肉、居酒屋,焼肉・ホルモン・鍋,35.6105031,139.7417993,東京都品川区南品川3-5-8MAビル2F
"0,1,0,1,0,0,0,0,1","0.0,3.0,0.0,3.0,3.0,0.0,0.0,0.0,3.0",0.10536441313056027,805.1720281824958,0.707106781187,0.7149137427370854,18556,水炊き・焼鳥 とりいちず 青物横丁店,https://tabelog.com/tokyo/A1315/A131501/13202326/,焼鳥、水炊き、居酒屋,Ｂ級和食,35.61129167,139.7417006,東京都品川区南品川2-7-7
"0,1,0,1,0,0,0,0,1","0.0,3.0,0.0,3.0,0.0,0.0,0.0,3.0,0.0",0.07787357366153604,829.9137837046176,0.707106781187,0.7113819603242822,17465,天ぷら 穴子蒲焼 助六酒場,https://tabelog.com/tokyo/A1315/A131501/13203144/,和食（その他）、居酒屋、天ぷら,高級和食,35.61117806,139.7421422,東京都品川区南品川2-17-25菱倉ビル1F
"0,1,0,1,0,0,0,0,1","0.0,3.0,0.0,3.0,3.0,0.0,0.0,0.0,3.0",0.07700920112200947,830.6917189901915,0.707106781187,0.7112878580838072,19456,ラビット ピット,https://tabelog.com/tokyo/A1315/A131501/13150988/,ダイニングバー、ワインバー、バル・バール,バー・お酒,35.60683898,139.7254892,東京都品川区二葉1-11-13桑原ビル1F
"0,1,0,1,0,0,0,0,1","0.0,3.0,0.0,3.0,3.0,0.0,0.0,0.0,3.0",0.07574060003905844,831.8334599648474,0.707106781187,0.7111516283425615,19320,気まぐれ厨房 ごっつ 青物横丁店,https://tabelog.com/tokyo/A1315/A131501/13032635/,居酒屋、居酒屋・ダイニングバー（その他）、創作料理,創作料理・無国籍料理,35.61070556,139.7425431,東京都品川区南品川3-6-3佐瀬ビル　２Ｆ
"0,1,0,1,0,0,0,0,1","0.0,3.0,0.0,3.0,0.0,0.0,0.0,3.0,0.0",0.0692511465491782,837.6739681057396,0.707106781187,0.710489775646614,17970,居酒屋 えいちゃん,https://tabelog.com/tokyo/A1315/A131501/13098324/,居酒屋,居酒屋,35.61152135,139.7419364,東京都品川区南品川2-7-5
"0,1,0,1,0,0,0,0,1","0.0,3.0,0.0,3.0,3.0,0.0,0.0,0.0,3.0",0.06756860030112471,839.1882597289878,0.707106781187,0.7103277523415886,19811,ロッキーカナイ 青物横丁,https://tabelog.com/tokyo/A1315/A131501/13165156/,居酒屋、ろばた焼き、郷土料理（その他）,Ｂ級和食,35.61092522,139.7424728,東京都品川区南品川2-17-18SGビル1F
"0,1,0,1,0,0,0,0,1","0.0,2.0,0.0,3.0,3.0,0.0,0.0,3.0,0.0",0.2306557752087133,692.409802312158,0.57735026919,0.6217197278279545,19669,あをよこ ひなの家 青物横丁店,https://tabelog.com/tokyo/A1315/A131501/13193368/,居酒屋、創作料理、和食（その他）,Ｂ級和食,35.61013222,139.7411694,東京都品川区南品川3-5-3青横ビル3F
"0,1,0,1,0,0,0,0,1","0.0,3.0,0.0,3.0,3.0,0.0,0.0,3.0,0.0",0.2306377149750823,692.4260565224259,0.57735026919,0.6217130277726699,17707,やきとり家すみれ 青物横丁店,https://tabelog.com/tokyo/A1315/A131501/13147855/,焼鳥、鳥料理、居酒屋,Ｂ級和食,35.6101325,139.7411694,東京都品川区南品川3-5-3山崎ビル2F
"0,1,0,1,0,0,0,0,1","0.0,3.0,0.0,3.0,3.0,0.0,0.0,3.0,0.0",0.16816279507483575,748.6534844326478,0.57735026919,0.6013418819446343,19828,居酒屋じゃんけんぽん,https://tabelog.com/tokyo/A1315/A131501/13096196/,居酒屋、日本酒バー,居酒屋,35.60386344,139.7272584,東京都品川区大井2-23-8
"0,1,0,1,0,0,0,0,1","0.0,3.0,0.0,3.0,3.0,0.0,0.0,3.0,0.0",0.06744594083556094,839.2986532479952,0.57735026919,0.5812764301677191,18423,酒処 盛や,https://tabelog.com/tokyo/A1314/A131405/13136157/,居酒屋,居酒屋,35.61382972,139.7382778,東京都品川区南品川4-4-19
"0,1,0,1,0,0,0,0,1","0.0,3.0,0.0,3.0,3.0,0.0,0.0,3.0,0.0",0.010762167685081876,890.3140490834263,0.57735026919,0.5774505672233903,18543,チャッピーノ,https://tabelog.com/tokyo/A1315/A131501/13130060/,イタリアン、パスタ、ピザ,洋食・西洋料理,35.60504139,139.7250889,東京都品川区二葉1-23-18ドミール二葉1F
"0,1,0,1,0.5,0,0,1,0","0.0,3.0,0.0,3.0,3.0,0.0,0.0,3.0,0.0",0.8932375058651717,96.0862447213455,0.962250448649,1.3129353250675218,20121,旬鮮料理 じょう 大井町店,https://tabelog.com/tokyo/A1315/A131501/13033234/,魚介料理・海鮮料理、居酒屋,高級和食,35.60679722,139.7336,東京都品川区東大井5-17-2野村ビル　２Ｆ
"0,1,0,1,0.5,0,0,1,0","0.0,3.0,0.0,3.0,0.0,0.0,0.0,3.0,0.0",0.9057927877525732,84.78649102268415,0.942809041582,1.3074209204512015,20044,肉寿司 大井町店,https://tabelog.com/tokyo/A1315/A131501/13117263/,牛料理、寿司、創作料理,高級和食,35.607478,139.734095,東京都品川区東大井5-4-13
"0,1,0,1,0.5,0,0,1,0","0.0,3.0,0.0,3.0,3.0,0.0,0.0,3.0,0.0",0.8740254169064454,113.37712478419922,0.962250448649,1.2999409045508228,19975,Speak Easy,https://tabelog.com/tokyo/A1315/A131501/13060294/,バー,バー・お酒,35.60778861,139.7351975,東京都品川区東大井5-6-14
"0,1,0,1,0.5,0,0,1,0","0.0,3.0,0.0,3.0,0.0,0.0,0.0,3.0,0.0",0.892445091330939,96.79941780215489,0.942809041582,1.2982092011419333,17599,洋風居酒屋 春菜亭,https://tabelog.com/tokyo/A1315/A131501/13028524/,居酒屋、洋食,居酒屋,35.60715833,139.73365,東京都品川区東大井5-15-16まめそうビル　Ｂ１Ｆ
"0,1,0,1,0.5,0,0,1,0","0.0,3.0,0.0,3.0,0.0,0.0,0.0,3.0,0.0",0.8815570896956979,106.59861927387195,0.942809041582,1.2907485391359688,17519,みさき,https://tabelog.com/tokyo/A1315/A131501/13074891/,居酒屋,居酒屋,35.60754167,139.7338194,東京都品川区東大井5-3-4
"0,1,0,1,0.5,0,0,1,0","0.0,3.0,0.0,3.0,0.0,0.0,0.0,3.0,0.0",0.872411713471785,114.82945787539352,0.942809041582,1.2845197883612633,18040,餃子屋EX,https://tabelog.com/tokyo/A1315/A131501/13203810/,バー・お酒（その他）,バー・お酒,35.60754472,139.7336992,東京都品川区東大井5-3-3
"0,1,0,1,0.5,0,0,1,0","0.0,3.0,0.0,3.0,0.0,0.0,0.0,3.0,0.0",0.8692646394396578,117.66182450430797,0.942809041582,1.282384459617726,20311,宮川 大井町,https://tabelog.com/tokyo/A1315/A131501/13045689/,うなぎ,高級和食,35.60719972,139.73589,東京都品川区東大井5-7-10
"0,1,0,1,0.5,0,0,1,0","0.0,3.0,0.0,3.0,0.0,0.0,0.0,3.0,0.0",0.8540004806805999,131.39956738746008,0.942809041582,1.272087147129309,17954,ユイット,https://tabelog.com/tokyo/A1315/A131501/13117441/,ビストロ、ワインバー,バー・お酒,35.60756917,139.7334892,東京都品川区東大井5-3-2
"0,1,0,1,0.5,0,0,1,0","0.0,3.0,0.0,3.0,0.0,0.0,0.0,3.0,0.0",0.84310783404644,141.20294935820397,0.942809041582,1.2648002643577239,18767,牛タン いろ葉,https://tabelog.com/tokyo/A1315/A131501/13181078/,牛タン、居酒屋、焼肉,焼肉・ホルモン・鍋,35.60755972,139.7333497,東京都品川区東大井5-3-13
"0,1,0,1,0.5,0,0,1,0","0.0,3.0,0.0,3.0,0.0,0.0,0.0,3.0,0.0",0.8430678958082582,141.23889377256765,0.942809041582,1.2647736421318452,19432,美寿々,https://tabelog.com/tokyo/A1315/A131501/13167874/,居酒屋,居酒屋,35.60756132,139.7333505,東京都品川区東大井5-3-13
"0,1,0,1,0.5,0,0,1,0","0.0,3.0,0.0,3.0,3.0,0.0,0.0,3.0,0.0",0.811224556562817,169.89789909346476,0.962250448649,1.2585750701076457,19900,呑み処食べ処　真琴,https://tabelog.com/tokyo/A1315/A131501/13135652/,居酒屋、和食（その他）,Ｂ級和食,35.60826409,139.7338894,東京都品川区東大井5-1-8
"0,1,0,1,0.5,0,0,1,0","0.0,3.0,0.0,3.0,0.0,0.0,0.0,3.0,0.0",0.8217864880635903,160.3921607427687,0.942809041582,1.2506885786848692,20094,たら福,https://tabelog.com/tokyo/A1315/A131501/13083838/,居酒屋,居酒屋,35.60784444,139.7333528,東京都品川区東大井5-2-14
"0,1,0,1,0.5,0,0,1,0","0.0,3.0,0.0,3.0,3.0,0.0,0.0,0.0,3.0",0.9464904665040924,48.158580146316844,0.707106781187,1.1814585067547376,19107,大井町 よし臓2号館 焼肉居酒屋,https://tabelog.com/tokyo/A1315/A131501/13055824/,居酒屋、ホルモン、焼肉,居酒屋,35.60661222,139.7342267,東京都品川区東大井5-14-19高田ビル　3F
"0,1,0,1,0.5,0,0,1,0","0.0,3.0,0.0,3.0,3.0,0.0,0.0,0.0,3.0",0.9397203584301725,54.25167741284474,0.707106781187,1.1760418156035661,18898,お魚sun,https://tabelog.com/tokyo/A1315/A131501/13109164/,魚介料理・海鮮料理、居酒屋、和食（その他）,Ｂ級和食,35.60734914,139.7345573,東京都品川区東大井5-5-7
"0,1,0,1,0.5,0,0,1,0","0.0,3.0,0.0,3.0,3.0,0.0,0.0,0.0,3.0",0.929596262395517,63.36336384403478,0.707106781187,1.1679679837477202,19980,瓢箪,https://tabelog.com/tokyo/A1315/A131501/13022613/,居酒屋、創作料理、炭火焼き,創作料理・無国籍料理,35.6074325,139.7345594,東京都品川区東大井5-5-11サンライズビル　３Ｆ
"0,1,0,1,0.5,0,0,1,0","0.0,3.0,0.0,3.0,3.0,0.0,0.0,0.0,3.0",0.9293406733139961,63.593394017403554,0.707106781187,1.1677645683423143,19521,H,https://tabelog.com/tokyo/A1315/A131501/13031730/,ダイニングバー、和食（その他）、居酒屋,Ｂ級和食,35.60694389,139.7353525,東京都品川区東大井5-12-2シティ大井町　１Ｆ・Ｂ１Ｆ
"0,1,0,1,0.5,0,0,1,0","0.0,3.0,0.0,3.0,0.0,0.0,0.0,0.0,3.0",0.9571517710177659,38.56340608401075,0.666666666667,1.1664407216858002,20294,藤半,https://tabelog.com/tokyo/A1315/A131501/13029458/,魚介料理・海鮮料理、郷土料理（その他）,高級和食,35.60673261,139.7342645,東京都品川区東大井5-14-19中川ビル
"0,1,0,1,0.5,0,0,1,0","0.0,3.0,0.0,3.0,3.0,0.0,0.0,0.0,3.0",0.9268361343691133,65.8474790677981,0.707106781187,1.1657723705648033,20375,マリアナ,https://tabelog.com/tokyo/A1315/A131501/13156484/,居酒屋、ダイニングバー、ハワイ料理,バー・お酒,35.60660806,139.7340031,東京都品川区東大井5-15-10カンナビル2F
"0,1,0,1,0.5,0,0,1,0","0.0,3.0,0.0,3.0,3.0,0.0,0.0,0.0,3.0",0.9255853328851515,66.97320040336368,0.707106781187,1.1647781799347534,19937,唐屋利久,https://tabelog.com/tokyo/A1315/A131501/13028356/,居酒屋、魚介料理・海鮮料理、焼鳥,高級和食,35.60731667,139.7341639,東京都品川区東大井5-4-10
"0,1,0,1,0.5,0,0,1,0","0.0,3.0,0.0,3.0,0.0,0.0,0.0,3.0,0.0",0.6753522301452727,292.1829928692546,0.942809041582,1.1597368337907883,18194,はなの舞 阪急大井町ガーデン店,https://tabelog.com/tokyo/A1315/A131501/13125286/,居酒屋,居酒屋,35.60569028,139.7317722,東京都品川区大井1-50-5阪急大井町ガーデン2F
"0,1,0,1,0.5,0,0,1,0","0.0,3.0,0.0,3.0,3.0,0.0,0.0,0.0,3.0",0.9189109489594198,72.98014593652216,0.707106781187,1.159481492787833,20198,ビストロ マケロニ,https://tabelog.com/tokyo/A1315/A131501/13130656/,ビストロ、ワインバー、イタリアン,洋食・西洋料理,35.60752472,139.7346664,東京都品川区東大井5-5-11サンライスビル1F
"0,1,0,1,0.5,0,0,1,0","0.0,3.0,0.0,3.0,0.0,0.0,0.0,3.0,0.0",0.6731763739526281,294.1412634426347,0.942809041582,1.1584711128625078,19092,宝田水産 阪急大井町ガーデン店,https://tabelog.com/tokyo/A1315/A131501/13165752/,寿司,高級和食,35.6053275,139.7320142,東京都品川区大井1-50-5阪急大井町ガーデン1F
