user_vec,shop_vec,dist_score,distance [m],cosθ,oaiso_score,id,shop_name,URL,genre,oaiso_genre,lat,lng,address
"0,1,0,1,0,0,0,1,0","0.0,3.0,0.0,3.0,0.0,0.0,0.0,3.0,0.0",0.7745043696044069,67.6486891186779,1.0,1.2648545444185746,11495,すしざんまい 渋谷東口店,https://tabelog.com/tokyo/A1303/A130301/13055318/,寿司、魚介料理・海鮮料理、海鮮丼,高級和食,35.65843167,139.7010697,東京都渋谷区渋谷2-22-11渋谷フランセ奥野ビル
"0,1,0,1,0,0,0,1,0","0.0,3.0,0.0,3.0,0.0,0.0,0.0,3.0,0.0",0.7413080697045163,77.60757908864508,1.0,1.2448042634121383,15318,居酒屋 赤頭巾,https://tabelog.com/tokyo/A1303/A130301/13121345/,居酒屋、焼鳥,居酒屋,35.65783244,139.7024567,東京都渋谷区渋谷3-7-3野口ビル1Ｆ
"0,1,0,1,0,0,0,1,0","0.0,3.0,0.0,3.0,0.0,0.0,0.0,3.0,0.0",0.44217923241286333,167.346230276141,1.0,1.0933995031904986,12648,chopstick cafe 汁ベゑ 渋谷店,https://tabelog.com/tokyo/A1303/A130301/13181978/,居酒屋,居酒屋,35.65736528,139.7032925,東京都渋谷区渋谷3-10-1渋谷MJビルB1Fこのお店は「渋谷区道玄坂1-21-6」から移転しています。※移転前の情報は最新のものとは異なります。移転前の店舗情報を見る
"0,1,0,1,0,0,0,1,0","0.0,3.0,0.0,3.0,0.0,0.0,0.0,3.0,0.0",0.4297962185416206,171.06113443751383,1.0,1.0884506371318252,13690,全席個室 鮮や一夜 渋谷駅前店,https://tabelog.com/tokyo/A1303/A130301/13194073/,和食（その他）,Ｂ級和食,35.65888889,139.7000639,東京都渋谷区渋谷1-24-12渋谷東映プラザ6F
"0,1,0,1,0,0,0,1,0","0.0,2.0,0.0,3.0,0.0,0.0,3.0,3.0,0.0",0.7032515507468745,89.02453477593764,0.816496580928,1.0776035496853889,11283,並木倶楽部,https://tabelog.com/tokyo/A1303/A130301/13215252/,ハンバーグ、西洋各国料理（その他）、無国籍料理,創作料理・無国籍料理,35.65759911,139.7024622,東京都渋谷区渋谷3-7-5大石ビルB1F
"0,1,0,1,0,0,0,1,0","0.0,3.0,0.0,3.0,0.0,0.0,0.0,0.0,3.0",0.777411239702209,66.77662808933731,0.707106781187,1.0508892594442696,11992,渋谷 燻し家もっくん,https://tabelog.com/tokyo/A1303/A130301/13168968/,焼鳥、居酒屋,居酒屋,35.65854861,139.7012536,東京都渋谷区渋谷2-22-14春日ビル2F
"0,1,0,1,0,0,0,1,0","0.0,3.0,0.0,3.0,0.0,0.0,0.0,3.0,0.0",0.27903755252526385,216.28873424242084,1.0,1.0382013078971195,13865,赤から 渋谷宮益坂店,https://tabelog.com/tokyo/A1303/A130301/13185337/,鍋（その他）,焼肉・ホルモン・鍋,35.65986278,139.7008089,東京都渋谷区渋谷1-14-8宮益SKビルB1F
"0,1,0,1,0,0,0,1,0","0.0,3.0,0.0,3.0,0.0,0.0,0.0,3.0,0.0",0.27856407062734356,216.43077881179693,1.0,1.038074150263109,10036,アル・フォルノ,https://tabelog.com/tokyo/A1303/A130301/13045839/,ピザ、イタリアン,洋食・西洋料理,35.65696306,139.6996383,東京都渋谷区桜丘町2-3第二富士商事ビル1F
"0,1,0,1,0,0,0,1,0","0.0,2.0,0.0,3.0,0.0,0.0,0.0,3.0,0.0",0.2693875385971146,219.1837384208656,1.0,1.0356493836967278,12732,BON GOUT KITCHEN 渋谷店,https://tabelog.com/tokyo/A1303/A130301/13193158/,ダイニングバー、ステーキ、ハンバーグ,洋食・西洋料理,35.65982861,139.7006242,東京都渋谷区渋谷1-14-11BCサロンB1F
"0,1,0,1,0,0,0,1,0","0.0,3.0,0.0,3.0,3.0,0.0,0.0,3.0,0.0",0.6184993150709205,114.45020547872386,0.816496580928,1.02430858114626,15013,石の華,https://tabelog.com/tokyo/A1303/A130301/13004802/,バー,バー・お酒,35.65778583,139.7028628,東京都渋谷区渋谷3-6-2第二矢木ビル　Ｂ１Ｆ
"0,1,0,1,0,0,0,1,0","0.0,3.0,0.0,3.0,0.0,0.0,0.0,3.0,0.0",0.21850785174139295,234.44764447758212,1.0,1.0235944906419918,13636,洋食 富士屋本店,https://tabelog.com/tokyo/A1303/A130301/13190042/,洋食・欧風料理（その他）、ハンバーグ、ダイニングバー,洋食・西洋料理,35.65687267,139.699473,東京都渋谷区桜丘町2-3富士商事ビルB1F
"0,1,0,1,0,0,0,1,0","0.0,3.0,0.0,3.0,0.0,0.0,0.0,3.0,0.0",0.20614518176626387,238.15644547012084,1.0,1.0210268536945764,9835,カラオケBar ミルキーウェイ,https://tabelog.com/tokyo/A1303/A130301/13052211/,ダイニングバー,バー・お酒,35.65599139,139.7008278,東京都渋谷区桜丘町3-10渋谷山手ビルB館1F
"0,1,0,1,0,0,0,1,0","0.0,3.0,0.0,3.0,0.0,0.0,0.0,0.0,3.0",0.7141738892927325,85.74783321218023,0.707106781187,1.0050096239079047,10699,アチェーゾ,https://tabelog.com/tokyo/A1303/A130301/13120958/,イタリアン、バル・バール、ダイニングバー,洋食・西洋料理,35.65875269,139.7019842,東京都渋谷区渋谷2-22-3渋谷東口ビル2F
"0,1,0,1,0,0,0,1,0","0.0,3.0,0.0,3.0,0.0,0.0,0.0,3.0,0.0",0.08513352169621195,274.4599434911364,1.0,1.0036173157715043,12805,Js Bar,https://tabelog.com/tokyo/A1303/A130301/13007443/,ダイニングバー,バー・お酒,35.65969028,139.6993847,東京都渋谷区渋谷1-25-6渋谷パークサイド共同ビル10F
"0,1,0,1,0,0,0,1,0","0.0,3.0,0.0,3.0,3.0,0.0,0.0,0.0,3.0",0.8695238436634698,39.142846900959036,0.5,1.0030312630717422,13998,THE GRIFFON 渋谷店,https://tabelog.com/tokyo/A1303/A130301/13053765/,ビアホール・ビアレストラン、居酒屋・ダイニングバー（その他）,バー・お酒,35.65838611,139.7016628,東京都渋谷区渋谷2-22-6幸和ビルB1F
"0,1,0,1,0,0,0,1,0","0.0,3.0,0.0,3.0,0.0,0.0,0.0,3.0,0.0",0.07433840482549518,277.69847855235145,1.0,1.0027592923688113,10190,鬼亭,https://tabelog.com/tokyo/A1303/A130301/13003491/,焼鳥、焼肉,焼肉・ホルモン・鍋,35.66046611,139.70236,東京都渋谷区渋谷1-9-4
"0,1,0,1,0,0,0,1,0","0.0,3.0,0.0,3.0,0.0,0.0,0.0,3.0,0.0",0.060848467322040085,281.745459803388,1.0,1.001849557556144,12673,黒瀬,https://tabelog.com/tokyo/A1303/A130301/13076715/,居酒屋,居酒屋,35.65962778,139.7040583,東京都渋谷区渋谷2-14-4
"0,1,0,1,0,0,0,1,0","0.0,2.0,0.0,3.0,0.0,0.0,0.0,3.0,0.0",0.043969838266954754,286.8090485199136,1.0,1.0009662065610518,15002,パブリック スタンド 渋谷店,https://tabelog.com/tokyo/A1303/A130301/13213067/,バー・お酒（その他）,バー・お酒,35.65978167,139.6993022,東京都渋谷区渋谷1-25-6渋谷パークサイド共同ビル2F
"0,1,0,1,0,0,0,1,0","0.0,3.0,0.0,3.0,0.0,0.0,0.0,3.0,0.0",0.0284758294797651,291.45725115607047,1.0,1.0004053542762357,12715,串木乃,https://tabelog.com/tokyo/A1303/A130301/13075199/,居酒屋,居酒屋,35.65989667,139.6993664,東京都渋谷区渋谷1-25-9
"0,1,0,1,0,0,0,1,0","0.0,3.0,0.0,3.0,0.0,0.0,0.0,3.0,0.0",0.02839542043205294,291.4813738703841,1.0,1.0004030687185606,10778,会津,https://tabelog.com/tokyo/A1303/A130301/13075058/,居酒屋,居酒屋,35.65989722,139.6993667,東京都渋谷区渋谷1-25-9
"0,1,0,1,0,0,0,1,0","0.0,3.0,0.0,3.0,0.0,0.0,0.0,3.0,0.0",0.025887090286698444,292.23387291399047,1.0,1.0003350146043632,14585,えのき2,https://tabelog.com/tokyo/A1303/A130301/13210125/,居酒屋、割烹・小料理,高級和食,35.65988472,139.6993397,東京都渋谷区渋谷1-25-9のんべい横丁
"0,1,0,1,0,0,0,1,0","0.0,3.0,0.0,3.0,0.0,0.0,0.0,3.0,0.0",0.018758142668995864,294.37255719930124,1.0,1.0001759184845385,9481,まぐろ処,https://tabelog.com/tokyo/A1303/A130301/13051241/,魚介料理・海鮮料理、居酒屋,高級和食,35.65995944,139.6993994,東京都渋谷区渋谷1-25-10のんべい横丁
"0,1,0,1,0,0,0,1,0","0.0,2.0,0.0,3.0,0.0,0.0,0.0,3.0,0.0",0.01568140385677831,295.2955788429665,1.0,1.0001229456556426,11658,バンコク屋台 カオサン 渋谷宮益坂,https://tabelog.com/tokyo/A1303/A130301/13209312/,タイ料理、タイカレー、居酒屋,居酒屋,35.66027917,139.7033872,東京都渋谷区渋谷1-8-5小山ビル2F
"0,1,0,1,0,0,0,1,0","0.0,3.0,0.0,3.0,0.0,0.0,0.0,0.0,3.0",0.6793918207061854,96.18245378814437,0.707106781187,0.9805984122169816,9625,凛花,https://tabelog.com/tokyo/A1303/A130301/13034721/,居酒屋、焼酎バー,バー・お酒,35.65737972,139.7023328,東京都渋谷区渋谷3-8-7第２窪島ビル　２Ｆ
"0,1,0,1,0,0,0,1,0","0.0,3.0,0.0,3.0,0.0,0.0,0.0,0.0,3.0",0.6714473022921976,98.5658093123407,0.707106781187,0.9751110089397359,11672,招福門 渋谷ヒカリエ店,https://tabelog.com/tokyo/A1303/A130301/13140103/,広東料理、台湾料理、飲茶・点心,アジア・エスニック、中華料理,35.65892111,139.7015783,東京都渋谷区渋谷2-21-1渋谷ヒカリエ6F
"0,1,0,1,0,0,0,1,0","0.0,3.0,0.0,3.0,0.0,0.0,0.0,0.0,3.0",0.6324290006196301,110.27129981411096,0.707106781187,0.9486656106472628,11943,博多漁家磯貝　 しらすくじら 渋谷ヒカリエ店,https://tabelog.com/tokyo/A1303/A130301/13140115/,居酒屋、魚介料理・海鮮料理、郷土料理（その他）,高級和食,35.659025,139.7017283,東京都渋谷区渋谷2-21-1渋谷ヒカリエ7F
"0,1,0,1,0,0,0,1,0","0.0,3.0,0.0,3.0,0.0,0.0,0.0,0.0,3.0",0.6146087320365614,115.61738038903158,0.707106781187,0.9368798714326131,13836,宮崎料理 万作 渋谷ヒカリエ店,https://tabelog.com/tokyo/A1303/A130301/13188242/,鳥料理、居酒屋、水炊き,焼肉・ホルモン・鍋,35.65904472,139.7013253,東京都渋谷区渋谷2-21-1渋谷ヒカリエ6F
"0,1,0,1,0,0,0,1,0","0.0,3.0,0.0,3.0,0.0,0.0,0.0,0.0,3.0",0.6023967867724538,119.28096396826388,0.707106781187,0.9289143602688985,12716,炭火串焼あられ,https://tabelog.com/tokyo/A1303/A130301/13059754/,串焼き、焼鳥、居酒屋,Ｂ級和食,35.65697278,139.7018467,東京都渋谷区渋谷3-18-9大野ビル2号館　2F
"0,1,0,1,0,0,0,1,0","0.0,3.0,0.0,3.0,0.0,0.0,0.0,0.0,3.0",0.5327543691016899,140.17368926949302,0.707106781187,0.8853401706671508,10961,かしわ 渋谷ヒカリエ店,https://tabelog.com/tokyo/A1303/A130301/13140093/,鳥料理、鉄板焼き、お好み焼き,洋食・西洋料理,35.65927583,139.7019206,東京都渋谷区渋谷2-21-1渋谷ヒカリエ7F
"0,1,0,1,0,0,0,1,0","0.0,3.0,0.0,3.0,3.0,0.0,0.0,0.0,3.0",0.7269767071639942,81.90698785080171,0.5,0.8823237120008754,9646,魚喰食堂　ときしらず,https://tabelog.com/tokyo/A1303/A130301/13182535/,魚介料理・海鮮料理,高級和食,35.65731194,139.7014478,東京都渋谷区渋谷3-18-5佐藤エステートビル２F
"0,1,0,1,0,0,0,1,0","0.0,3.0,0.0,3.0,3.0,0.0,0.0,0.0,3.0",0.7264398041572723,82.06805875281832,0.5,0.8818813917211634,15277,ビターバレーグリル,https://tabelog.com/tokyo/A1303/A130301/13196959/,バー、ステーキ、ダイニングバー,洋食・西洋料理,35.65731056,139.7014472,東京都渋谷区渋谷3-18-5和田ビル2F
"0,1,0,1,0,0,0,1,0","0.0,3.0,0.0,3.0,0.0,0.0,0.0,0.0,3.0",0.5174461138491409,144.76616584525775,0.707106781187,0.8762137186426482,12536,餃子と牛たん 居酒屋おおとら 渋谷南口店,https://tabelog.com/tokyo/A1303/A130301/13189296/,居酒屋、餃子、牛タン,居酒屋,35.65673028,139.7016997,東京都渋谷区渋谷3-22-11サンクスプライムビル2F
"0,1,0,1,0,0,0,1,0","0.0,3.0,0.0,3.0,3.0,0.0,0.0,0.0,3.0",0.7030594762760048,89.08215711719856,0.5,0.8627239576953281,10367,焼肉バル Gyutto Batto,https://tabelog.com/tokyo/A1303/A130301/13167916/,焼肉、鉄板焼き、バル・バール,焼肉・ホルモン・鍋,35.65759639,139.7024608,東京都渋谷区渋谷3-7-5大石ビル2F
"0,1,0,1,0,0,0,1,0","0.0,3.0,0.0,3.0,3.0,0.0,0.0,0.0,3.0",0.6963130911827615,91.10607264517152,0.5,0.8572350441696214,13580,風ぐるま,https://tabelog.com/tokyo/A1303/A130301/13043631/,居酒屋、魚介料理・海鮮料理、割烹・小料理,高級和食,35.65742806,139.702315,東京都渋谷区渋谷3-8-7B1F
"0,1,0,1,0,0,0,1,0","0.0,3.0,0.0,3.0,3.0,0.0,0.0,0.0,3.0",0.693956076846839,91.8131769459483,0.5,0.8553215983433693,11716,M&W TOKYO,https://tabelog.com/tokyo/A1303/A130301/13096470/,バー、ピザ、ダイニングバー,バー・お酒,35.65755306,139.7024611,東京都渋谷区渋谷3-7-6第６矢木ビル　Ｂ１Ｆ
"0,1,0,1,0,0,0,1,0","0.0,3.0,0.0,3.0,3.0,0.0,0.0,0.0,3.0",0.6891557587684857,93.25327236945428,0.5,0.8514315356173785,13920,ベルゴ,https://tabelog.com/tokyo/A1303/A130301/13007044/,ビアホール・ビアレストラン、ダイニングバー、居酒屋,バー・お酒,35.65719361,139.7016211,東京都渋谷区渋谷3-18-7渋谷第一号ビル　Ｂ１Ｆ
"0,1,0,1,0,0,0,1,0","0.0,3.0,0.0,3.0,0.0,3.0,0.0,0.0,3.0",0.673331190535494,98.00064283935183,0.5,0.8386744852133906,12483,渋谷ワヰン酒場,https://tabelog.com/tokyo/A1303/A130301/13163549/,イタリアン、ワインバー、バル・バール,バー・お酒,35.65715083,139.7016519,東京都渋谷区渋谷3-18-7渋谷一号館ビル6F
"0,1,0,1,0,0,0,1,0","0.0,3.0,0.0,3.0,3.0,0.0,0.0,0.0,3.0",0.6628974204432221,101.13077386703338,0.5,0.8303210162523156,11678,KATL,https://tabelog.com/tokyo/A1303/A130301/13050396/,居酒屋、日本酒バー、バー,バー・お酒,35.65793861,139.7027467,東京都渋谷区渋谷3-6-2第二矢木ビルB2F
"0,1,0,1,0,0,0,1,0","0.0,3.0,0.0,3.0,3.0,0.0,0.0,0.0,3.0",0.66092126824028,101.72361952791601,0.5,0.8287441841801003,11490,Ruelle,https://tabelog.com/tokyo/A1303/A130301/13172971/,バル・バール、ワインバー、ビストロ,バー・お酒,35.65770361,139.7026839,東京都渋谷区渋谷3-6-19第一矢木ビル1F
"0,1,0,1,0,0,0,1,0","0.0,3.0,0.0,3.0,3.0,0.0,0.0,3.0,0.0",0.08321866553068769,275.0344003407937,0.816496580928,0.8207265153261316,9731,SHOT Bar Q,https://tabelog.com/tokyo/A1303/A130301/13091116/,バー,バー・お酒,35.65648769,139.6992621,東京都渋谷区桜丘町16-2曙ビル　Ｂ１Ｆ
"0,1,0,1,0,0,0,1,0","0.0,3.0,0.0,3.0,0.0,3.0,0.0,0.0,3.0",0.6500141185458342,104.99576443624971,0.5,0.8200721640861357,11576,ラ ボデガ 渋谷店,https://tabelog.com/tokyo/A1303/A130301/13140099/,スペイン料理、ワインバー、バル・バール,バー・お酒,35.65895361,139.7013625,東京都渋谷区渋谷2-21-1渋谷ヒカリエ7F
"0,1,0,1,0,0,0,1,0","0.0,3.0,0.0,3.0,3.0,0.0,0.0,0.0,3.0",0.6468472696857661,105.94581909427019,0.5,0.8175643034648286,9610,鳥田むら,https://tabelog.com/tokyo/A1303/A130301/13178183/,居酒屋、焼鳥,居酒屋,35.65708417,139.7017561,東京都渋谷区渋谷3-18-8大野ビルB1F
"0,1,0,1,0,0,0,1,0","0.0,3.0,0.0,3.0,3.0,0.0,0.0,3.0,0.0",0.01856599165295165,294.4302025041145,0.816496580928,0.8167076360073561,10356,五十亭,https://tabelog.com/tokyo/A1303/A130301/13089188/,焼鳥,Ｂ級和食,35.65605167,139.6994744,東京都渋谷区桜丘町15-15NKG東京第2ビルB1F
"0,1,0,1,0,0,0,1,0","0.0,3.0,0.0,3.0,3.0,0.0,0.0,0.0,3.0",0.6323595888706043,110.29212333881873,0.5,0.8061505130163967,15194,炭火焼酒場 ホルイチ,https://tabelog.com/tokyo/A1303/A130301/13125564/,焼肉、ホルモン、居酒屋,焼肉・ホルモン・鍋,35.65760222,139.7027331,東京都渋谷区渋谷3-6-18荻津ビル1F
"0,1,0,1,0,0,0,1,0","0.0,3.0,0.0,3.0,0.0,0.0,0.0,0.0,3.0",0.353551193841338,193.9346418475986,0.707106781187,0.7905684326272048,9860,米家,https://tabelog.com/tokyo/A1303/A130301/13140974/,居酒屋,居酒屋,35.65644179,139.7025196,東京都渋谷区渋谷3-17-5鈴屋ビルＢ1Ｆこのお店は「渋谷区渋谷1-8-10」から移転しています。※移転前の情報は最新のものとは異なります。移転前の店舗情報を見る
"0,1,0,1,0,0,0,1,0","0.0,3.0,0.0,3.0,0.0,3.0,0.0,0.0,3.0",0.5882081774661834,123.537546760145,0.5,0.7720031476866458,15124,THE THEATRE TABLE,https://tabelog.com/tokyo/A1303/A130301/13137242/,イタリアン、ワインバー、ダイニングバー,バー・お酒,35.65914,139.7017933,東京都渋谷区渋谷2-21-1渋谷ヒカリエ11F
"0,1,0,1,0,0,0,1,0","0.0,3.0,0.0,3.0,0.0,3.0,0.0,0.0,3.0",0.5825560503486562,125.23318489540313,0.5,0.7677053808576738,14779,ビストロ＆バー タコニョッキ,https://tabelog.com/tokyo/A1303/A130301/13140097/,ビストロ、バー、カフェ,洋食・西洋料理,35.65916167,139.7015767,東京都渋谷区渋谷2-21-1渋谷ヒカリエ7F
"0,1,0,1,0,0,0,1,0","0.0,3.0,0.0,3.0,0.0,0.0,0.0,0.0,3.0",0.2817597276692163,215.4720816992351,0.707106781187,0.7611757642859045,9821,鳥ぎん 渋谷店,https://tabelog.com/tokyo/A1303/A130301/13002030/,釜飯、焼鳥、居酒屋,Ｂ級和食,35.65992611,139.7011,東京都渋谷区渋谷1-13-9たくぎんビル　Ｂ１Ｆ
"0,1,0,1,0,0,0,1,0","0.0,2.0,0.0,3.0,0.0,0.0,0.0,0.0,3.0",0.2619585138826042,221.41244583521873,0.707106781187,0.7540704628849896,11527,七輪焼肉 安安 宮益坂店,https://tabelog.com/tokyo/A1303/A130301/13162833/,焼肉、居酒屋、ホルモン,焼肉・ホルモン・鍋,35.6600275,139.701525,東京都渋谷区渋谷1-13-5大協渋谷ビル3F
"0,1,0,1,0,0,0,1,0","0.0,3.0,0.0,3.0,0.0,0.0,0.0,0.0,3.0",0.25429439523889025,223.71168142833292,0.707106781187,0.7514423726739881,13878,ヘイメル ミヤマス,https://tabelog.com/tokyo/A1303/A130301/13129415/,バル・バール、ビアバー,バー・お酒,35.66004806,139.7017519,東京都渋谷区渋谷1-12-7CR-VITE1F
"0,1,0,1,0,0,0,1,0","0.0,3.0,0.0,3.0,0.0,0.0,0.0,0.0,3.0",0.24641946066107445,226.07416180167766,0.707106781187,0.7488140961497016,10912,串だおれ 渋谷 宮益坂店,https://tabelog.com/tokyo/A1303/A130301/13199389/,居酒屋、焼鳥、餃子,居酒屋,35.66007056,139.7017147,東京都渋谷区渋谷1-12-7CR-VITE2F
"0,1,0,1,0,0,0,1,0","0.0,3.0,0.0,3.0,0.0,3.0,0.0,0.0,3.0",0.5441779560430325,136.74661318709025,0.5,0.7390058510209325,9693,ごっつ食べなはれ 渋谷店,https://tabelog.com/tokyo/A1303/A130301/13211361/,しゃぶしゃぶ、和食（その他）、バイキング,Ｂ級和食,35.65915972,139.7022508,東京都渋谷区渋谷2-17-5シオノギ渋谷ビル2・3F
"0,1,0,1,0,0,0,1,0","0.0,3.0,0.0,3.0,0.0,0.0,0.0,0.0,3.0",0.18637185476812335,244.088443569563,0.707106781187,0.7312554056208477,9922,とんがらし,https://tabelog.com/tokyo/A1303/A130301/13059463/,居酒屋、割烹・小料理、魚介料理・海鮮料理,高級和食,35.66010417,139.7025481,東京都渋谷区渋谷1-9-8センスビル　B1Ｆ
"0,1,0,1,0,0,0,1,0","0.0,3.0,0.0,3.0,3.0,0.0,0.0,0.0,3.0",0.5321862146115574,140.34413561653278,0.5,0.7302206290037132,15189,渋谷三丁目酒場,https://tabelog.com/tokyo/A1303/A130301/13089932/,居酒屋、もつ焼き、定食・食堂,居酒屋,35.65681556,139.7020522,東京都渋谷区渋谷3-17-2清澤ビル2F
"0,1,0,1,0,0,0,1,0","0.0,3.0,0.0,3.0,0.0,0.0,0.0,0.0,3.0",0.16519659230139128,250.44102230958262,0.707106781187,0.7261473088210078,9394,和風創作料理 采,https://tabelog.com/tokyo/A1303/A130301/13024554/,創作料理、和食（その他）,Ｂ級和食,35.65713389,139.6990997,東京都渋谷区桜丘町2-9第１カスヤビル　Ｂ１Ｆ
"0,1,0,1,0,0,0,1,0","0.0,3.0,0.0,3.0,0.0,0.0,0.0,0.0,3.0",0.16328331474097174,251.01500557770848,0.707106781187,0.7257144347970482,13076,レストラン バー アミューズメント,https://tabelog.com/tokyo/A1303/A130301/13036084/,ダイニングバー、ビアバー、ビアホール・ビアレストラン,バー・お酒,35.657135,139.6990922,東京都渋谷区桜丘町2-9第1カスヤビルB1F
"0,1,0,1,0,0,0,1,0","0.0,3.0,0.0,3.0,0.0,0.0,0.0,0.0,3.0",0.1450087570965968,256.49737287102096,0.707106781187,0.7218223740191902,11151,太樹苑 渋谷宮益坂店,https://tabelog.com/tokyo/A1303/A130301/13101060/,焼肉、韓国料理、ホルモン,焼肉・ホルモン・鍋,35.66029877,139.7010677,東京都渋谷区渋谷1-12-1カレイド渋谷宮益坂　4F
"0,1,0,1,0,0,0,1,0","0.0,3.0,0.0,3.0,0.0,0.0,0.0,0.0,3.0",0.1442669980365997,256.7199005890201,0.707106781187,0.7216737259471846,15011,キリンシティ 渋谷桜丘店,https://tabelog.com/tokyo/A1303/A130301/13014525/,ビアホール・ビアレストラン、ビアバー、ダイニングバー,バー・お酒,35.65671667,139.6993053,東京都渋谷区桜丘町16-15カーサ渋谷1F
"0,1,0,1,0,0,0,1,0","0.0,3.0,0.0,3.0,3.0,0.0,0.0,0.0,3.0",0.5186742165599981,144.39773503200055,0.5,0.7204324693710908,14842,ニュー信州,https://tabelog.com/tokyo/A1303/A130301/13014685/,居酒屋、魚介料理・海鮮料理、焼酎バー,高級和食,35.65673306,139.70168,東京都渋谷区渋谷3-22-11サンクスプライムビルB1このお店は「渋谷区渋谷3-20-16」から移転しています。※移転前の情報は最新のものとは異なります。移転前の店舗情報を見る
"0,1,0,1,0,0,0,1,0","0.0,3.0,0.0,3.0,0.0,0.0,0.0,0.0,3.0",0.13691467441473815,258.92559767557856,0.707106781187,0.7202399794999537,13786,桜ヶ丘 椿堂,https://tabelog.com/tokyo/A1303/A130301/13017840/,創作料理、和食（その他）、居酒屋,Ｂ級和食,35.65638222,139.6996161,東京都渋谷区桜丘町15-3堀ビル2F
"0,1,0,1,0,0,0,1,0","0.0,3.0,0.0,3.0,0.0,0.0,0.0,0.0,3.0",0.13292857853197726,260.1214264404068,0.707106781187,0.7194928818206139,10689,ガブリシェア 渋谷店,https://tabelog.com/tokyo/A1303/A130301/13166486/,ビストロ、ダイニングバー、ステーキ,洋食・西洋料理,35.6557725,139.7023933,東京都渋谷区渋谷3-27-11GEMS渋谷1F
"0,1,0,1,0,0,0,1,0","0.0,3.0,0.0,3.0,0.0,0.0,0.0,0.0,3.0",0.13142930579876824,260.57120826036953,0.707106781187,0.7192173958009817,15094,魚魯魚魯 渋谷宮益坂店,https://tabelog.com/tokyo/A1303/A130301/13027695/,居酒屋、魚介料理・海鮮料理、日本酒バー,高級和食,35.66033556,139.7010636,東京都渋谷区渋谷1-12-1カレイド渋谷宮益坂5F
"0,1,0,1,0,0,0,1,0","0.0,3.0,0.0,3.0,0.0,0.0,0.0,0.0,3.0",0.13061383976686217,260.81584806994135,0.707106781187,0.7190688250359929,12971,くいもの屋わん 渋谷桜丘店,https://tabelog.com/tokyo/A1303/A130301/13115079/,居酒屋、創作料理、ダイニングバー,創作料理・無国籍料理,35.65651639,139.6994364,東京都渋谷区桜丘町15-19第八東都ビル3～5F
"0,1,0,1,0,0,0,1,0","0.0,3.0,0.0,3.0,0.0,0.0,0.0,0.0,3.0",0.12223530222327099,263.3294093330187,0.707106781187,0.7175942231579169,9706,LIFEMALL　shibuya　チーズフォンデュ専門店,https://tabelog.com/tokyo/A1303/A130301/13123263/,ビストロ、ワインバー、西洋各国料理（その他）,バー・お酒,35.65570247,139.7010925,東京都渋谷区桜丘町4-2１Ｆ
"0,1,0,1,0,0,0,1,0","0.0,3.0,0.0,3.0,0.0,0.0,0.0,0.0,3.0",0.09789604624086413,270.63118612774076,0.707106781187,0.7138512701323668,13143,座楽 渋谷店,https://tabelog.com/tokyo/A1303/A130301/13160168/,居酒屋、もつ鍋、魚介料理・海鮮料理,高級和食,35.65961806,139.6993633,東京都渋谷区渋谷1-25-6渋谷パークサイド共同ビル3F
"0,1,0,1,0,0,0,1,0","0.0,3.0,0.0,3.0,0.0,0.0,0.0,0.0,3.0",0.09181508157895962,272.4554755263121,0.707106781187,0.7130427821704325,14423,酒と肴 旬菜バー しばらく,https://tabelog.com/tokyo/A1303/A130301/13194843/,魚介料理・海鮮料理、おでん、釜飯,Ｂ級和食,35.66043417,139.7022717,東京都渋谷区渋谷1-9-4トーカン渋谷キャステール105このお店は「渋谷区渋谷1-15-20」から移転しています。※移転前の情報は最新のものとは異なります。移転前の店舗情報を見る
"0,1,0,1,0,0,0,1,0","0.0,3.0,0.0,3.0,0.0,0.0,0.0,0.0,3.0",0.07619920702686916,277.14023789193925,0.707106781187,0.7112006180758869,12582,さくら 渋谷駅前店,https://tabelog.com/tokyo/A1303/A130301/13052810/,居酒屋、ダイニングバー,バー・お酒,35.65972889,139.6993878,東京都渋谷区渋谷1-25-6渋谷パークサイド共同ビル2F
"0,1,0,1,0,0,0,1,0","0.0,2.0,0.0,3.0,0.0,0.0,0.0,0.0,3.0",0.06160994988914732,281.5170150332558,0.707106781187,0.709785732404747,14333,味道本色 渋谷店,https://tabelog.com/tokyo/A1303/A130301/13196624/,中華料理,アジア・エスニック、中華料理,35.6559175,139.7033506,東京都渋谷区渋谷3-15-2コンパルビルB1・1F
"0,1,0,1,0,0,0,1,0","0.0,3.0,0.0,3.0,0.0,0.0,0.0,0.0,3.0",0.054506621929249946,283.648013421225,0.707106781187,0.7092044640540118,13753,一番,https://tabelog.com/tokyo/A1303/A130301/13062356/,中華料理,アジア・エスニック、中華料理,35.66054444,139.7022278,東京都渋谷区渋谷1-9-14
"0,1,0,1,0,0,0,1,0","0.0,3.0,0.0,3.0,0.0,0.0,0.0,0.0,3.0",0.04270839322630896,287.1874820321073,0.707106781187,0.7083953746686753,13458,タパス＆タパス 青山店,https://tabelog.com/tokyo/A1303/A130301/13026964/,居酒屋、ダイニングバー、イタリアン,洋食・西洋料理,35.66023333,139.7033083,東京都渋谷区渋谷1-8-5グローリア宮益坂ビル　２Ｆ
"0,1,0,1,0,0,0,1,0","0.0,3.0,0.0,3.0,0.0,0.0,0.0,0.0,3.0",0.04210752374158346,287.36774287752496,0.707106781187,0.7083594028144525,14757,カルネ ガーデン,https://tabelog.com/tokyo/A1303/A130301/13200917/,イタリアン、ダイニングバー、バル・バール,洋食・西洋料理,35.66025417,139.7032703,東京都渋谷区渋谷1-8-5小山ビル4F
"0,1,0,1,0,0,0,1,0","0.0,3.0,0.0,3.0,0.0,0.0,0.0,0.0,3.0",0.025845634162413186,292.24630975127604,0.707106781187,0.7075789686001537,11883,えのき,https://tabelog.com/tokyo/A1303/A130301/13161621/,割烹・小料理、居酒屋,高級和食,35.65988521,139.6993401,東京都渋谷区渋谷1-25-9
"0,1,0,1,0,0,0,1,0","0.0,3.0,0.0,3.0,0.0,0.0,0.0,0.0,3.0",0.01999643404699403,294.0010697859018,0.707106781187,0.7073894665420144,13488,北の味紀行と地酒 北海道 渋谷駅前店,https://tabelog.com/tokyo/A1303/A130301/13029696/,居酒屋、魚介料理・海鮮料理、かに,高級和食,35.66024056,139.6998383,東京都渋谷区渋谷1-24-10渋谷全線座ビル　３Ｆ
"0,1,0,1,0,0,0,1,0","0.0,3.0,0.0,3.0,0.0,0.0,0.0,0.0,3.0",0.007193374500393285,297.841987649882,0.707106781187,0.7071433692234572,14066,West,https://tabelog.com/tokyo/A1303/A130301/13030318/,洋食・欧風料理（その他）,洋食・西洋料理,35.66054194,139.7028089,東京都渋谷区渋谷1-10-7-101
"0,1,0,1,0,0,0,1,0","0.0,3.0,0.0,3.0,3.0,0.0,0.0,0.0,3.0",0.49651744399882913,151.04476680035125,0.5,0.7046485451593087,14088,IZAKAYA P/man,https://tabelog.com/tokyo/A1303/A130301/13188989/,居酒屋、ダイニングバー、バー,バー・お酒,35.6566811,139.7018215,東京都渋谷区渋谷3-22-111F・2Fこのお店は「渋谷区渋谷3-20-12」から移転しています。※移転前の情報は最新のものとは異なります。移転前の店舗情報を見る
"0,1,0,1,0,0,0,1,0","0.0,3.0,0.0,3.0,3.0,0.0,0.0,0.0,3.0",0.48207964051658964,155.3761078450231,0.5,0.6945507755381202,13197,カトルセ,https://tabelog.com/tokyo/A1303/A130301/13120088/,スペイン料理、バル・バール、パスタ,洋食・西洋料理,35.65691472,139.7026672,東京都渋谷区渋谷3-10-14長崎堂ビルB１F
"0,1,0,1,0,0,0,1,0","0.0,3.0,0.0,3.0,3.0,0.0,0.0,0.0,3.0",0.4820712274291691,155.37863177124927,0.5,0.6945449361380915,10786,ビストロ　イル・ド・レ,https://tabelog.com/tokyo/A1303/A130301/13179041/,ビストロ、ワインバー、居酒屋,洋食・西洋料理,35.65879583,139.7030758,東京都渋谷区渋谷2-15-1渋谷クロスタワー　1F
"0,1,0,1,0,0,0,1,0","0.0,3.0,0.0,3.0,3.0,0.0,0.0,0.0,3.0",0.4748228953249506,157.55313140251482,0.5,0.6895337424120512,10509,浜ちゃん,https://tabelog.com/tokyo/A1303/A130301/13091442/,居酒屋、魚介料理・海鮮料理,高級和食,35.65690519,139.7026916,東京都渋谷区渋谷3-10-14長崎堂ビル1F
"0,1,0,1,0,0,0,1,0","0.0,3.0,0.0,3.0,3.0,0.0,0.0,0.0,3.0",0.451446508369601,164.5660474891197,0.5,0.6736497234610167,12859,慶家菜,https://tabelog.com/tokyo/A1303/A130301/13041450/,中華料理、餃子、飲茶・点心,アジア・エスニック、中華料理,35.65878333,139.7032044,東京都渋谷区渋谷2-15-1渋谷クロスタワー　１Ｆ
"0,1,0,1,0,0,0,1,0","0.0,3.0,0.0,3.0,3.0,0.0,0.0,0.0,3.0",0.442719995441855,167.1840013674435,0.5,0.6678330587534852,11012,座空,https://tabelog.com/tokyo/A1303/A130301/13039316/,居酒屋、魚介料理・海鮮料理、日本酒バー,高級和食,35.65740389,139.7033131,東京都渋谷区渋谷3-10-19渋谷ＭＪ２ビル　Ｂ１Ｆ
"0,1,0,1,0,0,0,1,0","0.0,3.0,0.0,3.0,3.0,0.0,0.0,0.0,3.0",0.410333970705965,176.8998087882105,0.5,0.6468183419750276,14288,旬鮮酒場 天狗 宮益坂店,https://tabelog.com/tokyo/A1303/A130301/13085569/,居酒屋、魚介料理・海鮮料理、串焼き,高級和食,35.65947167,139.7007914,東京都渋谷区渋谷2-20-11
"0,1,0,1,0,0,0,1,0","0.0,3.0,0.0,3.0,3.0,0.0,0.0,0.0,3.0",0.33213637223804254,200.35908832858723,0.5,0.6002620842294202,13319,ビストロ クー ハナレ,https://tabelog.com/tokyo/A1303/A130301/13115401/,ダイニングバー、イタリアン、ビストロ,洋食・西洋料理,35.65714595,139.6997094,東京都渋谷区桜丘町1-5大沼ビル５F
"0,1,0,1,0,0,0,1,0","0.0,3.0,0.0,3.0,3.0,0.0,0.0,0.0,3.0",0.33152339603818526,200.54298118854442,0.5,0.5999231301764347,12588,まる-HIKARIEN- 渋谷本店,https://tabelog.com/tokyo/A1303/A130301/13181951/,居酒屋、和食（その他）、ダイニングバー,Ｂ級和食,35.65714417,139.6997083,東京都渋谷区桜丘町1-5大沼ビルB1F
"0,1,0,1,0,0,0,1,0","0.0,3.0,0.0,3.0,3.0,0.0,0.0,0.0,3.0",0.32364454185940983,202.90663744217704,0.5,0.5956053974532024,12318,創作鉄板料理とワインを楽しむ店 ～渋谷 居酒屋 花花～,https://tabelog.com/tokyo/A1303/A130301/13024521/,居酒屋、鉄板焼き、もつ鍋,居酒屋,35.6571475,139.6996761,東京都渋谷区桜丘町1-5大沼ビル　２Ｆ
"0,1,0,1,0,0,0,1,0","0.0,3.0,0.0,3.0,3.0,0.0,0.0,0.0,3.0",0.32086721485326336,203.739835544021,0.5,0.5941008075804057,10582,新寮,https://tabelog.com/tokyo/A1303/A130301/13191552/,居酒屋、郷土料理（その他）、鳥料理,高級和食,35.659765,139.7023869,東京都渋谷区渋谷2-19-20岡ビル3F
"0,1,0,1,0,0,0,1,0","0.0,3.0,0.0,3.0,3.0,0.0,0.0,0.0,3.0",0.30245192532642884,209.26442240207135,0.5,0.5843604770462011,10805,アンカラ 宮益坂店,https://tabelog.com/tokyo/A1303/A130301/13089864/,トルコ料理、アジア・エスニック料理（その他）、ダイニングバー,アジア・エスニック、中華料理,35.65978944,139.7024811,東京都渋谷区渋谷2-19-20宮益坂岡ビルB1
"0,1,0,1,0,0,0,1,0","0.0,3.0,0.0,3.0,3.0,0.0,0.0,0.0,3.0",0.27522330529159783,217.43300841252065,0.5,0.5707432590715654,9884,ビストロバークー,https://tabelog.com/tokyo/A1303/A130301/13019301/,ダイニングバー、イタリアン、バル・バール,洋食・西洋料理,35.65712694,139.6995075,東京都渋谷区桜丘町2-2
"0,1,0,1,0,0,0,1,0","0.0,3.0,0.0,3.0,3.0,0.0,0.0,0.0,3.0",0.2549520736157642,223.51437791527073,0.5,0.5612491067618531,14390,九州酒場だんだん． 渋谷桜ヶ丘店,https://tabelog.com/tokyo/A1303/A130301/13141174/,居酒屋、もつ鍋、焼鳥,居酒屋,35.65727028,139.6993519,東京都渋谷区桜丘町2-12渋谷亀八ビル2F
"0,1,0,1,0,0,0,1,0","0.0,3.0,0.0,3.0,3.0,0.0,0.0,0.0,3.0",0.25481767251297366,223.5546982461079,0.5,0.5611880667164343,10426,四十八漁場 渋谷桜丘店,https://tabelog.com/tokyo/A1303/A130301/13148416/,魚介料理・海鮮料理、居酒屋、日本酒バー,高級和食,35.65726972,139.6993517,東京都渋谷区桜丘町2-12亀八ビル3F
"0,1,0,1,0,0,0,1,0","0.0,3.0,0.0,3.0,3.0,0.0,0.0,0.0,3.0",0.22901773690716556,231.29467892785033,0.5,0.5499537469806708,10858,宮崎県日南市　塚田農場 渋谷宮益坂店,https://tabelog.com/tokyo/A1303/A130301/13153961/,居酒屋、鳥料理、水炊き,焼肉・ホルモン・鍋,35.65996639,139.7006778,東京都渋谷区渋谷1-14-6平野屋ビル１Ｆ
"0,1,0,1,0,0,0,1,0","0.0,3.0,0.0,3.0,3.0,0.0,0.0,0.0,3.0",0.22180177572547952,233.45946728235614,0.5,0.5469881422069183,10761,花咲かじいさん 桜丘店,https://tabelog.com/tokyo/A1303/A130301/13014669/,居酒屋、日本酒バー、創作料理,バー・お酒,35.65661583,139.6997314,東京都渋谷区桜丘町3-22サクラヤビル　Ｂ１Ｆ
"0,1,0,1,0,0,0,1,0","0.0,3.0,0.0,3.0,3.0,0.0,0.0,0.0,3.0",0.20984256398971504,237.04723080308548,0.5,0.5422489296086971,11776,A muse,https://tabelog.com/tokyo/A1303/A130301/13182182/,バル・バール、和食（その他）、居酒屋,Ｂ級和食,35.65663472,139.6996578,東京都渋谷区桜丘町3-22
"0,1,0,1,0,0,0,1,0","0.0,3.0,0.0,3.0,3.0,0.0,0.0,0.0,3.0",0.20967427380185902,237.0977178594423,0.5,0.5421838259246922,10486,バルハッテンハチ,https://tabelog.com/tokyo/A1303/A130301/13091658/,バー,バー・お酒,35.65697083,139.6993647,東京都渋谷区桜丘町2-8志水ビル3F
"0,1,0,1,0,0,0,1,0","0.0,3.0,0.0,3.0,3.0,0.0,0.0,0.0,3.0",0.20442347435032568,238.6729576949023,0.5,0.5401749317262494,12347,サンカイ,https://tabelog.com/tokyo/A1303/A130301/13026304/,居酒屋、創作料理、ダイニングバー,創作料理・無国籍料理,35.6601175,139.7009803,東京都渋谷区渋谷1-12-24707渋谷ビル3F
"0,1,0,1,0,0,0,1,0","0.0,2.0,0.0,3.0,3.0,0.0,0.0,0.0,3.0",0.20371734809856443,238.88479557043067,0.5,0.5399081013619926,9651,金の蔵 渋谷東口店,https://tabelog.com/tokyo/A1303/A130301/13119477/,居酒屋、ちゃんこ鍋、ピザ,居酒屋,35.66000333,139.7005697,東京都渋谷区渋谷1-14平野屋ビル
"0,1,0,1,0,0,0,1,0","0.0,3.0,0.0,3.0,3.0,0.0,0.0,0.0,3.0",0.19946258489120794,240.16122453263762,0.5,0.5383171210090595,11675,餃子と牛たん 居酒屋おおとら 宮益坂本店,https://tabelog.com/tokyo/A1303/A130301/13138935/,居酒屋、餃子、牛タン,居酒屋,35.6601525,139.7010919,東京都渋谷区渋谷1-12-22イセビル1F
"0,1,0,1,0,0,0,1,0","0.0,3.0,0.0,3.0,3.0,0.0,0.0,0.0,3.0",0.19227904539029889,242.31628638291033,0.5,0.5356969584533822,12585,LAND Seafood,https://tabelog.com/tokyo/A1303/A130301/13215057/,地中海料理、イタリアン,洋食・西洋料理,35.65598254,139.7025539,東京都渋谷区渋谷3-27-1100BANCH1F
"0,1,0,1,0,0,0,1,0","0.0,3.0,0.0,3.0,3.0,0.0,0.0,0.0,3.0",0.18105678773974718,245.68296367807585,0.5,0.53177209440383,14950,炉端と天ぷら屋台 さくら亭,https://tabelog.com/tokyo/A1303/A130301/13200091/,居酒屋、天ぷら、魚介料理・海鮮料理,高級和食,35.65652194,139.6996539,東京都渋谷区桜丘町3丁目22
"0,1,0,1,0,0,0,1,0","0.0,3.0,0.0,3.0,3.0,0.0,0.0,0.0,3.0",0.16871195070426778,249.38641478871966,0.5,0.5276966195745803,9557,かぶ金とん 渋谷桜丘店,https://tabelog.com/tokyo/A1303/A130301/13162939/,居酒屋、鳥料理、もつ鍋,Ｂ級和食,35.65588578,139.7008258,東京都渋谷区桜丘町3-121F
"0,1,0,1,0,0,0,1,0","0.0,3.0,0.0,3.0,3.0,0.0,0.0,0.0,3.0",0.15307324821230017,254.07802553630995,0.5,0.522906702307653,9802,今も昔や,https://tabelog.com/tokyo/A1303/A130301/13004733/,居酒屋、ダイニングバー、創作料理,創作料理・無国籍料理,35.66026278,139.7009917,東京都渋谷区渋谷1-12-24７０７渋谷ビル　２Ｆ
"0,1,0,1,0,0,0,1,0","0.0,3.0,0.0,3.0,3.0,0.0,0.0,0.0,3.0",0.14407462759521594,256.7776117214352,0.5,0.5203436348382674,14924,沖縄料理 あしびな～,https://tabelog.com/tokyo/A1303/A130301/13018951/,沖縄料理、居酒屋、ダイニングバー,バー・お酒,35.65671611,139.699305,東京都渋谷区桜丘町16-15カーサ渋谷　Ｂ１Ｆ
"0,1,0,1,0,0,0,1,0","0.0,3.0,0.0,3.0,3.0,0.0,0.0,0.0,3.0",0.14191157144079378,257.42652856776186,0.5,0.5197488760053219,9611,だしや 渋谷宮益坂,https://tabelog.com/tokyo/A1303/A130301/13123846/,和食（その他）、居酒屋、水炊き,Ｂ級和食,35.66014167,139.7004475,東京都渋谷区渋谷1-14-15森ビルB1
"0,1,0,1,0,0,0,1,0","0.0,3.0,0.0,3.0,3.0,0.0,0.0,0.0,3.0",0.12230083310128483,263.30975006961455,0.5,0.5147402197004508,9943,土間土間 渋谷宮益坂店,https://tabelog.com/tokyo/A1303/A130301/13051969/,居酒屋、創作料理、ダイニングバー,創作料理・無国籍料理,35.66036028,139.7010608,東京都渋谷区渋谷1-12-1カレイド渋谷宮益坂　６Ｆ
"0,1,0,1,0,0,0,1,0","0.0,3.0,0.0,3.0,3.0,0.0,0.0,0.0,3.0",0.12190583903201532,263.4282482903954,0.5,0.5146465132400099,13912,Bane BAGUS 渋谷宮益坂店,https://tabelog.com/tokyo/A1303/A130301/13026938/,バー,バー・お酒,35.66035944,139.7010492,東京都渋谷区渋谷1-12-1カレイド渋谷宮益坂B1F
"0,1,0,1,0,0,0,1,0","0.0,3.0,0.0,3.0,0.0,3.0,0.0,0.0,3.0",0.11909316032671162,264.2720519019865,0.5,0.5139875298454272,11253,ラ ココリコ 渋谷,https://tabelog.com/tokyo/A1303/A130301/13147320/,ビストロ、イタリアン、居酒屋,洋食・西洋料理,35.65573278,139.7023889,東京都渋谷区渋谷3-27-11GEMS渋谷5F
"0,1,0,1,0,0,0,1,0","0.0,3.0,0.0,3.0,3.0,0.0,0.0,0.0,3.0",0.11649584643421179,265.05124606973646,0.5,0.5133919382269491,10181,やきとり家すみれ 渋谷宮益坂店,https://tabelog.com/tokyo/A1303/A130301/13183034/,居酒屋、焼鳥、バル・バール,Ｂ級和食,35.66020556,139.7028558,東京都渋谷区渋谷1-8-8
"0,1,0,1,0,0,0,1,0","0.0,3.0,0.0,3.0,0.0,3.0,0.0,0.0,3.0",0.11423037361709494,265.7308879148715,0.5,0.5128826164501007,13091,炭火焼ホルモン　ぐう 渋谷,https://tabelog.com/tokyo/A1303/A130301/13148359/,焼肉、ホルモン、冷麺,焼肉・ホルモン・鍋,35.65571444,139.7023667,東京都渋谷区渋谷3-27-11GEMS渋谷9F
"0,1,0,1,0,0,0,1,0","0.0,3.0,0.0,3.0,3.0,0.0,0.0,0.0,3.0",0.11170545259150572,266.4883642225483,0.5,0.5123261735834634,12251,燻製工房 渋谷店,https://tabelog.com/tokyo/A1303/A130301/13148364/,居酒屋、ダイニングバー、居酒屋・ダイニングバー（その他）,バー・お酒,35.65571667,139.7024097,東京都渋谷区渋谷3-27-11GEMS渋谷6F
"0,1,0,1,0,0,0,1,0","0.0,3.0,0.0,3.0,3.0,0.0,0.0,0.0,3.0",0.11051879450145027,266.8443616495649,0.5,0.5120687492300754,9887,シャングリラ トウキョウ,https://tabelog.com/tokyo/A1303/A130301/13171366/,居酒屋、焼鳥、鍋（その他）,焼肉・ホルモン・鍋,35.65654722,139.6993197,東京都渋谷区桜丘町16-1
"0,1,0,1,0,0,0,1,0","0.0,3.0,0.0,3.0,3.0,0.0,0.0,0.0,3.0",0.1095320092541446,267.1403972237566,0.5,0.5118566801862119,14045,神屋流 博多道場 渋谷新南口店,https://tabelog.com/tokyo/A1303/A130301/13147374/,居酒屋、焼鳥、もつ鍋,居酒屋,35.65570694,139.7023931,東京都渋谷区渋谷3-27-11GEMS渋谷7F
"0,1,0,1,0,0,0,1,0","0.0,3.0,0.0,3.0,3.0,0.0,0.0,0.0,3.0",0.1084679428804884,267.4596171358535,0.5,0.5116300368750109,11826,渋三魚金,https://tabelog.com/tokyo/A1303/A130301/13148368/,魚介料理・海鮮料理、居酒屋,高級和食,35.65576194,139.7026228,東京都渋谷区渋谷3-27-11GEMS渋谷2F
"0,1,0,1,0,0,0,1,0","0.0,3.0,0.0,3.0,3.0,0.0,0.0,0.0,3.0",0.1084679428804884,267.4596171358535,0.5,0.5116300368750109,13589,芋蔵 渋谷新南口店,https://tabelog.com/tokyo/A1303/A130301/13148369/,居酒屋、もつ鍋、しゃぶしゃぶ,焼肉・ホルモン・鍋,35.65576194,139.7026228,東京都渋谷区渋谷3-27-11GEMS渋谷B1F
"0,1,0,1,0,0,0,1,0","0.0,3.0,0.0,3.0,3.0,0.0,0.0,0.0,3.0",0.10830645786558857,267.50806264032343,0.5,0.5115958256430466,10369,でんず食堂,https://tabelog.com/tokyo/A1303/A130301/13148365/,居酒屋、ダイニングバー、魚介料理・海鮮料理,高級和食,35.65576139,139.7026225,東京都渋谷区渋谷3-27-11GEMS渋谷4F
"0,1,0,1,0,0,0,1,0","0.0,3.0,0.0,3.0,3.0,0.0,0.0,0.0,3.0",0.10755294476057259,267.7341165718282,0.5,0.5114368347378498,14685,ワインの酒場。ディプント 渋谷駅前店,https://tabelog.com/tokyo/A1303/A130301/13187946/,イタリアン、ダイニングバー、バル・バール,洋食・西洋料理,35.65979833,139.6996189,東京都渋谷区渋谷1-24-16みずほ銀行遠州屋共同ビルB1F
"0,1,0,1,0,0,0,1,0","0.0,3.0,0.0,3.0,3.0,0.0,0.0,0.0,3.0",0.10705248095164184,267.88425571450745,0.5,0.5113318234550844,12546,bar 小桜,https://tabelog.com/tokyo/A1303/A130301/13113945/,バー、居酒屋、創作料理,創作料理・無国籍料理,35.65673056,139.6991458,東京都渋谷区桜丘町16-14ドルチェ渋谷　Ｂ２Ｆ
"0,1,0,1,0,0,0,1,0","0.0,3.0,0.0,3.0,3.0,0.0,0.0,0.0,3.0",0.10624056971791769,268.1278290846247,0.5,0.5111624581813377,9918,うみかぜやまうた,https://tabelog.com/tokyo/A1303/A130301/13019314/,沖縄料理、居酒屋,居酒屋,35.65625167,139.6996364,東京都渋谷区桜丘町15-18北沢ビル　Ｂ１Ｆ
"0,1,0,1,0,0,0,1,0","0.0,3.0,0.0,3.0,3.0,0.0,0.0,0.0,3.0",0.1023393094840469,269.2982071547859,0.5,0.5103658827406781,9657,カタラタス,https://tabelog.com/tokyo/A1303/A130301/13048683/,ビアバー、ダイニングバー、バー,バー・お酒,35.65674278,139.6991178,東京都渋谷区桜丘町16-14ドルチェ渋谷B2F
"0,1,0,1,0,0,0,1,0","0.0,3.0,0.0,3.0,3.0,0.0,0.0,0.0,3.0",0.1008014550729058,269.75956347812826,0.5,0.5100597350750351,12764,菜な  渋谷宮益坂下店,https://tabelog.com/tokyo/A1303/A130301/13004731/,居酒屋、京料理、懐石・会席料理,高級和食,35.66031222,139.7005956,東京都渋谷区渋谷1-14-16渋谷野村證券ビル　Ｂ１Ｆ
"0,1,0,1,0,0,0,1,0","0.0,3.0,0.0,3.0,3.0,0.0,0.0,0.0,3.0",0.09804441749301228,270.5866747520963,0.5,0.5095220385827723,9477,月の響　 渋谷本店,https://tabelog.com/tokyo/A1303/A130301/13173009/,居酒屋、すき焼き、しゃぶしゃぶ,焼肉・ホルモン・鍋,35.65961639,139.6993622,東京都渋谷区渋谷1-25-6渋谷パークサイド共同ビル　2F
"0,1,0,1,0,0,0,1,0","0.0,3.0,0.0,3.0,0.0,3.0,0.0,0.0,3.0",0.09798462292530606,270.6046131224082,0.5,0.5095105360341574,14154,和牛・焼肉・食べ放題 肉屋の台所 宮益坂ミート,https://tabelog.com/tokyo/A1303/A130301/13160699/,焼肉、ホルモン、居酒屋,焼肉・ホルモン・鍋,35.6596175,139.6993631,東京都渋谷区渋谷1-25-6渋谷パークサイド共同ビルF
"0,1,0,1,0,0,0,1,0","0.0,3.0,0.0,3.0,3.0,0.0,0.0,0.0,3.0",0.09789604624086413,270.63118612774076,0.5,0.509493509153545,10720,月のえん 渋谷駅前店,https://tabelog.com/tokyo/A1303/A130301/13168621/,居酒屋、ダイニングバー、魚介料理・海鮮料理,高級和食,35.65961806,139.6993633,東京都渋谷区渋谷1-25-6渋谷パークサイド共同ビル
"0,1,0,1,0,0,0,1,0","0.0,3.0,0.0,3.0,3.0,0.0,0.0,0.0,3.0",0.09783433916528414,270.64969825041476,0.5,0.5094816561171833,10959,渋谷 ドラエモン,https://tabelog.com/tokyo/A1303/A130301/13151214/,ダイニングバー、ピザ、イタリアン,洋食・西洋料理,35.65961889,139.6993639,東京都渋谷区渋谷1-25-6渋谷パークサイド共同ビルB1Fこのお店は「渋谷区道玄坂1-22-12」から移転しています。※移転前の情報は最新のものとは異なります。移転前の店舗情報を見る
"0,1,0,1,0,0,0,1,0","0.0,3.0,0.0,3.0,3.0,0.0,0.0,0.0,3.0",0.09768224412650833,270.6953267620475,0.5,0.5094524715982746,13965,産地直送×個室居酒屋 一禅 渋谷店,https://tabelog.com/tokyo/A1303/A130301/13206794/,居酒屋、ダイニングバー、魚介料理・海鮮料理,居酒屋,35.65962,139.6993644,東京都渋谷区渋谷1-25-6渋谷パークサイド共同ビル4F
"0,1,0,1,0,0,0,1,0","0.0,3.0,0.0,3.0,3.0,0.0,0.0,0.0,3.0",0.08769764681959297,273.6907059541221,0.5,0.507632620364072,15339,鳥鈴,https://tabelog.com/tokyo/A1303/A130301/13105542/,焼鳥、居酒屋、日本酒バー,バー・お酒,35.65597778,139.7033056,東京都渋谷区渋谷3-15-1
"0,1,0,1,0,0,0,1,0","0.0,3.0,0.0,3.0,0.0,3.0,0.0,0.0,3.0",0.08719634907202893,273.8410952783913,0.5,0.5075462572923685,14967,ガストロパブ オーガスタス,https://tabelog.com/tokyo/A1303/A130301/13196135/,ビストロ、バー、ステーキ,洋食・西洋料理,35.65597583,139.703305,東京都渋谷区渋谷3-15-2コンパルビル2F
"0,1,0,1,0,0,0,1,0","0.0,3.0,0.0,3.0,3.0,0.0,0.0,0.0,3.0",0.08529620681081951,274.41113795675415,0.5,0.5072232673057439,14451,藍楽 渋谷駅前店,https://tabelog.com/tokyo/A1303/A130301/13024141/,居酒屋、もつ鍋、日本酒バー,バー・お酒,35.65968917,139.6993842,東京都渋谷区渋谷1-25-6渋谷パークサイド共同ビル8F
"0,1,0,1,0,0,0,1,0","0.0,3.0,0.0,3.0,3.0,0.0,0.0,0.0,3.0",0.0852662937957344,274.4201118612797,0.5,0.5072182378992898,14929,居酒屋 喜楽,https://tabelog.com/tokyo/A1303/A130301/13039171/,居酒屋、鍋（その他）、カレー（その他）,居酒屋,35.65596139,139.7032897,東京都渋谷区渋谷3-15-2コンパルビル5F
"0,1,0,1,0,0,0,1,0","0.0,3.0,0.0,3.0,3.0,0.0,0.0,0.0,3.0",0.08365297044141547,274.90410886757536,0.5,0.5069495235856054,9715,地鶏専門個室居酒屋 官兵衛 渋谷駅前店,https://tabelog.com/tokyo/A1303/A130301/13206872/,居酒屋、ダイニングバー、鳥料理,居酒屋,35.65962306,139.6993067,東京都渋谷区渋谷1-25-6渋谷パークサイド共同ビル4F
"0,1,0,1,0,0,0,1,0","0.0,3.0,0.0,3.0,3.0,0.0,0.0,0.0,3.0",0.08259983726135185,275.22004882159445,0.5,0.506776807989081,12360,焼肉台所家 渋谷桜丘店,https://tabelog.com/tokyo/A1303/A130301/13173421/,焼肉、居酒屋、ホルモン,焼肉・ホルモン・鍋,35.65648063,139.6992664,東京都渋谷区桜丘町16-2
"0,1,0,1,0,0,0,1,0","0.0,3.0,0.0,3.0,3.0,0.0,0.0,0.0,3.0",0.08174354676199148,275.47693597140255,0.5,0.5066379451217901,13119,焼鳥 みなと,https://tabelog.com/tokyo/A1303/A130301/13210501/,焼鳥、居酒屋、和食（その他）,Ｂ級和食,35.65649,139.6992536,東京都渋谷区桜丘町16-2桜ビル3F
"0,1,0,1,0,0,0,1,0","0.0,3.0,0.0,3.0,0.0,3.0,0.0,0.0,3.0",0.07838536471047215,276.48439058685835,0.5,0.5061069703143731,13537,渋谷の日本酒ダイニング sakeba,https://tabelog.com/tokyo/A1303/A130301/13154838/,日本酒バー、居酒屋、ダイニングバー,バー・お酒,35.65596444,139.7033367,東京都渋谷区渋谷3-15-2コンパルビル7F
"0,1,0,1,0,0,0,1,0","0.0,3.0,0.0,3.0,3.0,0.0,0.0,0.0,3.0",0.07016172433587448,278.95148269923766,0.5,0.504898670588251,9490,ダイニングここち,https://tabelog.com/tokyo/A1303/A130301/13053447/,居酒屋、創作料理,創作料理・無国籍料理,35.659735,139.6993675,東京都渋谷区渋谷1-25-6渋谷パークサイド共同ビル6F
"0,1,0,1,0,0,0,1,0","0.0,3.0,0.0,3.0,3.0,0.0,0.0,0.0,3.0",0.061243550662147754,281.6269348013557,0.5,0.5037368087580131,11312,わたら瀬,https://tabelog.com/tokyo/A1303/A130301/13042128/,居酒屋、割烹・小料理、和食（その他）,高級和食,35.6559175,139.7033528,東京都渋谷区渋谷3-15-2住報ビルB1
"0,1,0,1,0,0,0,1,0","0.0,3.0,0.0,3.0,3.0,0.0,0.0,0.0,3.0",0.05752689720518712,282.74193083844386,0.5,0.5032984640370525,11833,翠屋 渋谷駅前店,https://tabelog.com/tokyo/A1303/A130301/13129496/,居酒屋、ダイニングバー、居酒屋・ダイニングバー（その他）,バー・お酒,35.65973639,139.6993125,東京都渋谷区渋谷1-25-6渋谷パークサイド共同ビル4F
"0,1,0,1,0,0,0,1,0","0.0,3.0,0.0,3.0,3.0,0.0,0.0,0.0,3.0",0.043911067456266245,286.8266797631201,0.5,0.501924478228696,13454,もつやき　婁熊東京,https://tabelog.com/tokyo/A1303/A130301/13058009/,ホルモン、もつ焼き、串焼き,焼肉・ホルモン・鍋,35.65589417,139.7034133,東京都渋谷区渋谷3-15-2住報渋谷ビル　２Ｆ
"0,1,0,1,0,0,0,1,0","0.0,3.0,0.0,3.0,3.0,0.0,0.0,0.0,3.0",0.04043696839167656,287.86890948249703,0.5,0.5016324834106235,12769,和楽,https://tabelog.com/tokyo/A1303/A130301/13020690/,居酒屋、創作料理,創作料理・無国籍料理,35.65646611,139.6991031,東京都渋谷区桜丘町16-6サンライズ桜丘　Ｂ１Ｆ
"0,1,0,1,0,0,0,1,0","0.0,3.0,0.0,3.0,3.0,0.0,0.0,0.0,3.0",0.019553852954630125,294.13384411361096,0.5,0.5003822070831169,12796,87 fooding bar,https://tabelog.com/tokyo/A1303/A130301/13188176/,バー、ダイニングバー、バー・お酒（その他）,バー・お酒,35.66056639,139.7006753,東京都渋谷区渋谷1-15-17バイオレットビルB1F
"0,1,0,1,0,0,0,1,0","0.0,3.0,0.0,3.0,3.0,0.0,0.0,0.0,3.0",0.019105425205797624,294.2683724382607,0.5,0.5003648841318646,14425,焚火家 渋谷店,https://tabelog.com/tokyo/A1303/A130301/13130110/,焼肉、居酒屋,焼肉・ホルモン・鍋,35.66050186,139.7004456,東京都渋谷区渋谷1-15-19東口二葉ビル1F
"0,1,0,1,0,0,0,1,0","0.0,3.0,0.0,3.0,0.0,3.0,0.0,0.0,3.0",0.018213093656307442,294.53607190310777,0.5,0.500331606817452,13286,KICHIRI 渋谷宮益坂下,https://tabelog.com/tokyo/A1303/A130301/13145457/,居酒屋、ダイニングバー、パスタ,洋食・西洋料理,35.66050194,139.7004378,東京都渋谷区渋谷1-15-19ラコステ渋谷3・4F
"0,1,0,1,0,0,0,1,0","0.0,3.0,0.0,3.0,3.0,0.0,0.0,0.0,3.0",0.011661913111026176,296.50142606669215,0.5,0.5001359817263792,14794,溶岩焼ダイニング bonbori 渋谷宮益坂店,https://tabelog.com/tokyo/A1303/A130301/13169810/,焼肉、ハンバーグ、ステーキ,洋食・西洋料理,35.66060361,139.7007369,東京都渋谷区渋谷1-15-16Ｍ1Ｆ
"0,1,0,1,0,0,0,1,0","0.0,3.0,0.0,3.0,3.0,0.0,0.0,0.0,3.0",0.007282517496296919,297.8152447511109,0.5,0.5000530322486645,12969,時流家,https://tabelog.com/tokyo/A1303/A130301/13046496/,居酒屋、魚介料理・海鮮料理,高級和食,35.6605419,139.7028082,東京都渋谷区渋谷1丁目10-72F
"0,1,0,1,0,0,0,1,0","0.0,3.0,0.0,3.0,3.0,3.0,0.0,0.0,3.0",0.12725298199247695,261.8241054022569,0.408248290464,0.4276213138895725,10821,えん 渋谷店,https://tabelog.com/tokyo/A1303/A130301/13004725/,居酒屋、割烹・小料理、魚介料理・海鮮料理,高級和食,35.65985028,139.69979,東京都渋谷区渋谷1-24-12渋谷東映プラザ　１１Ｆ
"0,1,0,1,0,0,0,1,0","0.0,3.0,0.0,3.0,3.0,3.0,0.0,0.0,3.0",0.1266316268449096,262.0105119465271,0.408248290464,0.4274368205759245,12304,ホームパーティーレストラン 10th story 渋谷店,https://tabelog.com/tokyo/A1303/A130301/13170790/,居酒屋・ダイニングバー（その他）、焼肉、イタリアン,洋食・西洋料理,35.65579083,139.7007317,東京都渋谷区桜ヶ丘町8-6後上ビル1F
"0,1,0,1,0,0,0,1,0","0.0,3.0,0.0,3.0,3.0,3.0,0.0,0.0,3.0",0.11069898746960954,266.79030375911714,0.408248290464,0.4229904638327718,11425,チャイニーズファン よだれ鶏,https://tabelog.com/tokyo/A1303/A130301/13176432/,飲茶・点心、中華料理,アジア・エスニック、中華料理,35.6556775,139.70105,東京都渋谷区桜丘町4-2ジョイス渋谷3F
"0,1,0,1,0,0,0,1,0","0.0,3.0,0.0,3.0,3.0,3.0,0.0,0.0,3.0",0.10529419662949674,268.411741011151,0.408248290464,0.4216082713971795,14058,小割烹 おはし 渋谷,https://tabelog.com/tokyo/A1303/A130301/13009706/,割烹・小料理、居酒屋、和食（その他）,高級和食,35.66040528,139.7010492,東京都渋谷区渋谷1-12-1カレイド渋谷宮益坂　１Ｆ
"0,1,0,1,0,0,0,1,0","0.0,3.0,0.0,3.0,3.0,3.0,0.0,0.0,3.0",0.09811331681767683,270.56600495469695,0.408248290464,0.4198724682610572,14935,輝,https://tabelog.com/tokyo/A1303/A130301/13165401/,居酒屋、バル・バール、ダイニングバー,バー・お酒,35.65961639,139.6993625,東京都渋谷区渋谷1-25-6渋谷パークサイド共同ビル
"0,1,0,1,0,0,0,1,0","0.0,3.0,0.0,3.0,3.0,3.0,0.0,0.0,3.0",0.07568070847264778,277.29578745820567,0.408248290464,0.41520384909293473,9498,咲ラダイニング,https://tabelog.com/tokyo/A1303/A130301/13133227/,居酒屋、魚介料理・海鮮料理、日本酒バー,高級和食,35.65621917,139.6995306,東京都渋谷区桜丘町15-17渋谷グランベルホテル2F
"0,1,0,1,0,0,0,1,0","0.0,3.0,0.0,3.0,3.0,3.0,0.0,0.0,3.0",0.019820186642096664,294.053944007371,0.408248290464,0.408729135816367,9306,渋谷 桜丘 肉寿司,https://tabelog.com/tokyo/A1303/A130301/13147644/,馬肉料理、その他肉料理、寿司,高級和食,35.65666222,139.6988575,東京都渋谷区桜丘町16-10
"0,1,0,1,0,0,0,0,1","0.0,3.0,0.0,3.0,0.0,0.0,0.0,0.0,3.0",0.777411239702209,66.77662808933731,1.0,1.266636583876893,11992,渋谷 燻し家もっくん,https://tabelog.com/tokyo/A1303/A130301/13168968/,焼鳥、居酒屋,居酒屋,35.65854861,139.7012536,東京都渋谷区渋谷2-22-14春日ビル2F
"0,1,0,1,0,0,0,0,1","0.0,3.0,0.0,3.0,0.0,0.0,0.0,0.0,3.0",0.7141738892927325,85.74783321218023,1.0,1.228838615989711,10699,アチェーゾ,https://tabelog.com/tokyo/A1303/A130301/13120958/,イタリアン、バル・バール、ダイニングバー,洋食・西洋料理,35.65875269,139.7019842,東京都渋谷区渋谷2-22-3渋谷東口ビル2F
"0,1,0,1,0,0,0,0,1","0.0,3.0,0.0,3.0,0.0,0.0,0.0,0.0,3.0",0.6793918207061854,96.18245378814437,1.0,1.2089554359208057,9625,凛花,https://tabelog.com/tokyo/A1303/A130301/13034721/,居酒屋、焼酎バー,バー・お酒,35.65737972,139.7023328,東京都渋谷区渋谷3-8-7第２窪島ビル　２Ｆ
"0,1,0,1,0,0,0,0,1","0.0,3.0,0.0,3.0,0.0,0.0,0.0,0.0,3.0",0.6714473022921976,98.5658093123407,1.0,1.2045088126516426,11672,招福門 渋谷ヒカリエ店,https://tabelog.com/tokyo/A1303/A130301/13140103/,広東料理、台湾料理、飲茶・点心,アジア・エスニック、中華料理,35.65892111,139.7015783,東京都渋谷区渋谷2-21-1渋谷ヒカリエ6F
"0,1,0,1,0,0,0,0,1","0.0,3.0,0.0,3.0,0.0,0.0,0.0,0.0,3.0",0.6324290006196301,110.27129981411096,1.0,1.1832017751950612,11943,博多漁家磯貝　 しらすくじら 渋谷ヒカリエ店,https://tabelog.com/tokyo/A1303/A130301/13140115/,居酒屋、魚介料理・海鮮料理、郷土料理（その他）,高級和食,35.659025,139.7017283,東京都渋谷区渋谷2-21-1渋谷ヒカリエ7F
"0,1,0,1,0,0,0,0,1","0.0,3.0,0.0,3.0,0.0,0.0,0.0,0.0,3.0",0.6146087320365614,115.61738038903158,1.0,1.1737733569542246,13836,宮崎料理 万作 渋谷ヒカリエ店,https://tabelog.com/tokyo/A1303/A130301/13188242/,鳥料理、居酒屋、水炊き,焼肉・ホルモン・鍋,35.65904472,139.7013253,東京都渋谷区渋谷2-21-1渋谷ヒカリエ6F
"0,1,0,1,0,0,0,0,1","0.0,3.0,0.0,3.0,0.0,0.0,0.0,0.0,3.0",0.6023967867724538,119.28096396826388,1.0,1.1674253246841002,12716,炭火串焼あられ,https://tabelog.com/tokyo/A1303/A130301/13059754/,串焼き、焼鳥、居酒屋,Ｂ級和食,35.65697278,139.7018467,東京都渋谷区渋谷3-18-9大野ビル2号館　2F
"0,1,0,1,0,0,0,0,1","0.0,3.0,0.0,3.0,0.0,0.0,0.0,0.0,3.0",0.5327543691016899,140.17368926949302,1.0,1.1330609947381207,10961,かしわ 渋谷ヒカリエ店,https://tabelog.com/tokyo/A1303/A130301/13140093/,鳥料理、鉄板焼き、お好み焼き,洋食・西洋料理,35.65927583,139.7019206,東京都渋谷区渋谷2-21-1渋谷ヒカリエ7F
"0,1,0,1,0,0,0,0,1","0.0,3.0,0.0,3.0,0.0,0.0,0.0,0.0,3.0",0.5174461138491409,144.76616584525775,1.0,1.1259442618254147,12536,餃子と牛たん 居酒屋おおとら 渋谷南口店,https://tabelog.com/tokyo/A1303/A130301/13189296/,居酒屋、餃子、牛タン,居酒屋,35.65673028,139.7016997,東京都渋谷区渋谷3-22-11サンクスプライムビル2F
"0,1,0,1,0,0,0,0,1","0.0,3.0,0.0,3.0,3.0,0.0,0.0,0.0,3.0",0.8695238436634698,39.142846900959036,0.707106781187,1.1207460527252793,13998,THE GRIFFON 渋谷店,https://tabelog.com/tokyo/A1303/A130301/13053765/,ビアホール・ビアレストラン、居酒屋・ダイニングバー（その他）,バー・お酒,35.65838611,139.7016628,東京都渋谷区渋谷2-22-6幸和ビルB1F
"0,1,0,1,0,0,0,0,1","0.0,3.0,0.0,3.0,0.0,0.0,0.0,0.0,3.0",0.353551193841338,193.9346418475986,1.0,1.0606594395311981,9860,米家,https://tabelog.com/tokyo/A1303/A130301/13140974/,居酒屋,居酒屋,35.65644179,139.7025196,東京都渋谷区渋谷3-17-5鈴屋ビルＢ1Ｆこのお店は「渋谷区渋谷1-8-10」から移転しています。※移転前の情報は最新のものとは異なります。移転前の店舗情報を見る
"0,1,0,1,0,0,0,0,1","0.0,3.0,0.0,3.0,0.0,0.0,0.0,3.0,0.0",0.7745043696044069,67.6486891186779,0.707106781187,1.048740682216686,11495,すしざんまい 渋谷東口店,https://tabelog.com/tokyo/A1303/A130301/13055318/,寿司、魚介料理・海鮮料理、海鮮丼,高級和食,35.65843167,139.7010697,東京都渋谷区渋谷2-22-11渋谷フランセ奥野ビル
"0,1,0,1,0,0,0,0,1","0.0,3.0,0.0,3.0,0.0,0.0,0.0,0.0,3.0",0.2817597276692163,215.4720816992351,1.0,1.0389362560505004,9821,鳥ぎん 渋谷店,https://tabelog.com/tokyo/A1303/A130301/13002030/,釜飯、焼鳥、居酒屋,Ｂ級和食,35.65992611,139.7011,東京都渋谷区渋谷1-13-9たくぎんビル　Ｂ１Ｆ
"0,1,0,1,0,0,0,0,1","0.0,2.0,0.0,3.0,0.0,0.0,0.0,0.0,3.0",0.2619585138826042,221.41244583521873,1.0,1.0337418744520233,11527,七輪焼肉 安安 宮益坂店,https://tabelog.com/tokyo/A1303/A130301/13162833/,焼肉、居酒屋、ホルモン,焼肉・ホルモン・鍋,35.6600275,139.701525,東京都渋谷区渋谷1-13-5大協渋谷ビル3F
"0,1,0,1,0,0,0,0,1","0.0,3.0,0.0,3.0,0.0,0.0,0.0,0.0,3.0",0.25429439523889025,223.71168142833292,1.0,1.0318263610946916,13878,ヘイメル ミヤマス,https://tabelog.com/tokyo/A1303/A130301/13129415/,バル・バール、ビアバー,バー・お酒,35.66004806,139.7017519,東京都渋谷区渋谷1-12-7CR-VITE1F
"0,1,0,1,0,0,0,0,1","0.0,3.0,0.0,3.0,0.0,0.0,0.0,0.0,3.0",0.24641946066107445,226.07416180167766,1.0,1.0299138559085876,10912,串だおれ 渋谷 宮益坂店,https://tabelog.com/tokyo/A1303/A130301/13199389/,居酒屋、焼鳥、餃子,居酒屋,35.66007056,139.7017147,東京都渋谷区渋谷1-12-7CR-VITE2F
"0,1,0,1,0,0,0,0,1","0.0,3.0,0.0,3.0,0.0,0.0,0.0,3.0,0.0",0.7413080697045163,77.60757908864508,0.707106781187,1.024469450110171,15318,居酒屋 赤頭巾,https://tabelog.com/tokyo/A1303/A130301/13121345/,居酒屋、焼鳥,居酒屋,35.65783244,139.7024567,東京都渋谷区渋谷3-7-3野口ビル1Ｆ
"0,1,0,1,0,0,0,0,1","0.0,3.0,0.0,3.0,0.0,0.0,0.0,0.0,3.0",0.18637185476812335,244.088443569563,1.0,1.0172189873619693,9922,とんがらし,https://tabelog.com/tokyo/A1303/A130301/13059463/,居酒屋、割烹・小料理、魚介料理・海鮮料理,高級和食,35.66010417,139.7025481,東京都渋谷区渋谷1-9-8センスビル　B1Ｆ
"0,1,0,1,0,0,0,0,1","0.0,3.0,0.0,3.0,3.0,0.0,0.0,0.0,3.0",0.7269767071639942,81.90698785080171,0.707106781187,1.014147490633884,9646,魚喰食堂　ときしらず,https://tabelog.com/tokyo/A1303/A130301/13182535/,魚介料理・海鮮料理,高級和食,35.65731194,139.7014478,東京都渋谷区渋谷3-18-5佐藤エステートビル２F
"0,1,0,1,0,0,0,0,1","0.0,3.0,0.0,3.0,3.0,0.0,0.0,0.0,3.0",0.7264398041572723,82.06805875281832,0.707106781187,1.0137626887314686,15277,ビターバレーグリル,https://tabelog.com/tokyo/A1303/A130301/13196959/,バー、ステーキ、ダイニングバー,洋食・西洋料理,35.65731056,139.7014472,東京都渋谷区渋谷3-18-5和田ビル2F
"0,1,0,1,0,0,0,0,1","0.0,3.0,0.0,3.0,0.0,0.0,0.0,0.0,3.0",0.16519659230139128,250.44102230958262,1.0,1.0135531136097369,9394,和風創作料理 采,https://tabelog.com/tokyo/A1303/A130301/13024554/,創作料理、和食（その他）,Ｂ級和食,35.65713389,139.6990997,東京都渋谷区桜丘町2-9第１カスヤビル　Ｂ１Ｆ
"0,1,0,1,0,0,0,0,1","0.0,3.0,0.0,3.0,0.0,0.0,0.0,0.0,3.0",0.16328331474097174,251.01500557770848,1.0,1.0132430314948133,13076,レストラン バー アミューズメント,https://tabelog.com/tokyo/A1303/A130301/13036084/,ダイニングバー、ビアバー、ビアホール・ビアレストラン,バー・お酒,35.657135,139.6990922,東京都渋谷区桜丘町2-9第1カスヤビルB1F
"0,1,0,1,0,0,0,0,1","0.0,3.0,0.0,3.0,0.0,0.0,0.0,0.0,3.0",0.1450087570965968,256.49737287102096,1.0,1.0104590737059564,11151,太樹苑 渋谷宮益坂店,https://tabelog.com/tokyo/A1303/A130301/13101060/,焼肉、韓国料理、ホルモン,焼肉・ホルモン・鍋,35.66029877,139.7010677,東京都渋谷区渋谷1-12-1カレイド渋谷宮益坂　4F
"0,1,0,1,0,0,0,0,1","0.0,3.0,0.0,3.0,0.0,0.0,0.0,0.0,3.0",0.1442669980365997,256.7199005890201,1.0,1.0103528921730724,15011,キリンシティ 渋谷桜丘店,https://tabelog.com/tokyo/A1303/A130301/13014525/,ビアホール・ビアレストラン、ビアバー、ダイニングバー,バー・お酒,35.65671667,139.6993053,東京都渋谷区桜丘町16-15カーサ渋谷1F
"0,1,0,1,0,0,0,0,1","0.0,3.0,0.0,3.0,0.0,0.0,0.0,0.0,3.0",0.13691467441473815,258.92559767557856,1.0,1.0093292961517037,13786,桜ヶ丘 椿堂,https://tabelog.com/tokyo/A1303/A130301/13017840/,創作料理、和食（その他）、居酒屋,Ｂ級和食,35.65638222,139.6996161,東京都渋谷区桜丘町15-3堀ビル2F
"0,1,0,1,0,0,0,0,1","0.0,3.0,0.0,3.0,0.0,0.0,0.0,0.0,3.0",0.13292857853197726,260.1214264404068,1.0,1.0087963159084852,10689,ガブリシェア 渋谷店,https://tabelog.com/tokyo/A1303/A130301/13166486/,ビストロ、ダイニングバー、ステーキ,洋食・西洋料理,35.6557725,139.7023933,東京都渋谷区渋谷3-27-11GEMS渋谷1F
"0,1,0,1,0,0,0,0,1","0.0,3.0,0.0,3.0,0.0,0.0,0.0,0.0,3.0",0.13142930579876824,260.57120826036953,1.0,1.008599852480034,15094,魚魯魚魯 渋谷宮益坂店,https://tabelog.com/tokyo/A1303/A130301/13027695/,居酒屋、魚介料理・海鮮料理、日本酒バー,高級和食,35.66033556,139.7010636,東京都渋谷区渋谷1-12-1カレイド渋谷宮益坂5F
"0,1,0,1,0,0,0,0,1","0.0,3.0,0.0,3.0,0.0,0.0,0.0,0.0,3.0",0.13061383976686217,260.81584806994135,1.0,1.0084939142794287,12971,くいもの屋わん 渋谷桜丘店,https://tabelog.com/tokyo/A1303/A130301/13115079/,居酒屋、創作料理、ダイニングバー,創作料理・無国籍料理,35.65651639,139.6994364,東京都渋谷区桜丘町15-19第八東都ビル3～5F
"0,1,0,1,0,0,0,0,1","0.0,3.0,0.0,3.0,0.0,0.0,0.0,0.0,3.0",0.12223530222327099,263.3294093330187,1.0,1.007443035168547,9706,LIFEMALL　shibuya　チーズフォンデュ専門店,https://tabelog.com/tokyo/A1303/A130301/13123263/,ビストロ、ワインバー、西洋各国料理（その他）,バー・お酒,35.65570247,139.7010925,東京都渋谷区桜丘町4-2１Ｆ
"0,1,0,1,0,0,0,0,1","0.0,3.0,0.0,3.0,0.0,0.0,0.0,0.0,3.0",0.09789604624086413,270.63118612774076,1.0,1.0047803918616214,13143,座楽 渋谷店,https://tabelog.com/tokyo/A1303/A130301/13160168/,居酒屋、もつ鍋、魚介料理・海鮮料理,高級和食,35.65961806,139.6993633,東京都渋谷区渋谷1-25-6渋谷パークサイド共同ビル3F
"0,1,0,1,0,0,0,0,1","0.0,3.0,0.0,3.0,0.0,0.0,0.0,0.0,3.0",0.09181508157895962,272.4554755263121,1.0,1.0042061587170987,14423,酒と肴 旬菜バー しばらく,https://tabelog.com/tokyo/A1303/A130301/13194843/,魚介料理・海鮮料理、おでん、釜飯,Ｂ級和食,35.66043417,139.7022717,東京都渋谷区渋谷1-9-4トーカン渋谷キャステール105このお店は「渋谷区渋谷1-15-20」から移転しています。※移転前の情報は最新のものとは異なります。移転前の店舗情報を見る
"0,1,0,1,0,0,0,0,1","0.0,3.0,0.0,3.0,0.0,0.0,0.0,0.0,3.0",0.07619920702686916,277.14023789193925,1.0,1.0028989575981837,12582,さくら 渋谷駅前店,https://tabelog.com/tokyo/A1303/A130301/13052810/,居酒屋、ダイニングバー,バー・お酒,35.65972889,139.6993878,東京都渋谷区渋谷1-25-6渋谷パークサイド共同ビル2F
"0,1,0,1,0,0,0,0,1","0.0,2.0,0.0,3.0,0.0,0.0,0.0,0.0,3.0",0.06160994988914732,281.5170150332558,1.0,1.0018960953738383,14333,味道本色 渋谷店,https://tabelog.com/tokyo/A1303/A130301/13196624/,中華料理,アジア・エスニック、中華料理,35.6559175,139.7033506,東京都渋谷区渋谷3-15-2コンパルビルB1・1F
"0,1,0,1,0,0,0,0,1","0.0,3.0,0.0,3.0,0.0,0.0,0.0,0.0,3.0",0.054506621929249946,283.648013421225,1.0,1.0014843842188146,13753,一番,https://tabelog.com/tokyo/A1303/A130301/13062356/,中華料理,アジア・エスニック、中華料理,35.66054444,139.7022278,東京都渋谷区渋谷1-9-14
"0,1,0,1,0,0,0,0,1","0.0,3.0,0.0,3.0,0.0,0.0,0.0,0.0,3.0",0.04270839322630896,287.1874820321073,1.0,1.0009115879297097,13458,タパス＆タパス 青山店,https://tabelog.com/tokyo/A1303/A130301/13026964/,居酒屋、ダイニングバー、イタリアン,洋食・西洋料理,35.66023333,139.7033083,東京都渋谷区渋谷1-8-5グローリア宮益坂ビル　２Ｆ
"0,1,0,1,0,0,0,0,1","0.0,3.0,0.0,3.0,0.0,0.0,0.0,0.0,3.0",0.04210752374158346,287.36774287752496,1.0,1.0008861291653752,14757,カルネ ガーデン,https://tabelog.com/tokyo/A1303/A130301/13200917/,イタリアン、ダイニングバー、バル・バール,洋食・西洋料理,35.66025417,139.7032703,東京都渋谷区渋谷1-8-5小山ビル4F
"0,1,0,1,0,0,0,0,1","0.0,3.0,0.0,3.0,0.0,0.0,0.0,0.0,3.0",0.025845634162413186,292.24630975127604,1.0,1.0003339426437838,11883,えのき,https://tabelog.com/tokyo/A1303/A130301/13161621/,割烹・小料理、居酒屋,高級和食,35.65988521,139.6993401,東京都渋谷区渋谷1-25-9
"0,1,0,1,0,0,0,0,1","0.0,3.0,0.0,3.0,0.0,0.0,0.0,0.0,3.0",0.01999643404699403,294.0010697859018,1.0,1.0001999087055526,13488,北の味紀行と地酒 北海道 渋谷駅前店,https://tabelog.com/tokyo/A1303/A130301/13029696/,居酒屋、魚介料理・海鮮料理、かに,高級和食,35.66024056,139.6998383,東京都渋谷区渋谷1-24-10渋谷全線座ビル　３Ｆ
"0,1,0,1,0,0,0,0,1","0.0,3.0,0.0,3.0,0.0,0.0,0.0,0.0,3.0",0.007193374500393285,297.841987649882,1.0,1.0000258719836717,14066,West,https://tabelog.com/tokyo/A1303/A130301/13030318/,洋食・欧風料理（その他）,洋食・西洋料理,35.66054194,139.7028089,東京都渋谷区渋谷1-10-7-101
"0,1,0,1,0,0,0,0,1","0.0,3.0,0.0,3.0,3.0,0.0,0.0,0.0,3.0",0.7030594762760048,89.08215711719856,0.707106781187,0.9971422301665346,10367,焼肉バル Gyutto Batto,https://tabelog.com/tokyo/A1303/A130301/13167916/,焼肉、鉄板焼き、バル・バール,焼肉・ホルモン・鍋,35.65759639,139.7024608,東京都渋谷区渋谷3-7-5大石ビル2F
"0,1,0,1,0,0,0,0,1","0.0,3.0,0.0,3.0,3.0,0.0,0.0,0.0,3.0",0.6963130911827615,91.10607264517152,0.707106781187,0.9923970581135823,13580,風ぐるま,https://tabelog.com/tokyo/A1303/A130301/13043631/,居酒屋、魚介料理・海鮮料理、割烹・小料理,高級和食,35.65742806,139.702315,東京都渋谷区渋谷3-8-7B1F
"0,1,0,1,0,0,0,0,1","0.0,3.0,0.0,3.0,3.0,0.0,0.0,0.0,3.0",0.693956076846839,91.8131769459483,0.707106781187,0.9907446878952498,11716,M&W TOKYO,https://tabelog.com/tokyo/A1303/A130301/13096470/,バー、ピザ、ダイニングバー,バー・お酒,35.65755306,139.7024611,東京都渋谷区渋谷3-7-6第６矢木ビル　Ｂ１Ｆ
"0,1,0,1,0,0,0,0,1","0.0,3.0,0.0,3.0,3.0,0.0,0.0,0.0,3.0",0.6891557587684857,93.25327236945428,0.707106781187,0.9873883024645205,13920,ベルゴ,https://tabelog.com/tokyo/A1303/A130301/13007044/,ビアホール・ビアレストラン、ダイニングバー、居酒屋,バー・お酒,35.65719361,139.7016211,東京都渋谷区渋谷3-18-7渋谷第一号ビル　Ｂ１Ｆ
"0,1,0,1,0,0,0,0,1","0.0,3.0,0.0,3.0,0.0,3.0,0.0,0.0,3.0",0.673331190535494,98.00064283935183,0.707106781187,0.9764091827445837,12483,渋谷ワヰン酒場,https://tabelog.com/tokyo/A1303/A130301/13163549/,イタリアン、ワインバー、バル・バール,バー・お酒,35.65715083,139.7016519,東京都渋谷区渋谷3-18-7渋谷一号館ビル6F
"0,1,0,1,0,0,0,0,1","0.0,3.0,0.0,3.0,3.0,0.0,0.0,0.0,3.0",0.6628974204432221,101.13077386703338,0.707106781187,0.9692435143091122,11678,KATL,https://tabelog.com/tokyo/A1303/A130301/13050396/,居酒屋、日本酒バー、バー,バー・お酒,35.65793861,139.7027467,東京都渋谷区渋谷3-6-2第二矢木ビルB2F
"0,1,0,1,0,0,0,0,1","0.0,3.0,0.0,3.0,3.0,0.0,0.0,0.0,3.0",0.66092126824028,101.72361952791601,0.707106781187,0.9678930327326156,11490,Ruelle,https://tabelog.com/tokyo/A1303/A130301/13172971/,バル・バール、ワインバー、ビストロ,バー・お酒,35.65770361,139.7026839,東京都渋谷区渋谷3-6-19第一矢木ビル1F
"0,1,0,1,0,0,0,0,1","0.0,3.0,0.0,3.0,0.0,3.0,0.0,0.0,3.0",0.6500141185458342,104.99576443624971,0.707106781187,0.9604781904389698,11576,ラ ボデガ 渋谷店,https://tabelog.com/tokyo/A1303/A130301/13140099/,スペイン料理、ワインバー、バル・バール,バー・お酒,35.65895361,139.7013625,東京都渋谷区渋谷2-21-1渋谷ヒカリエ7F
"0,1,0,1,0,0,0,0,1","0.0,3.0,0.0,3.0,3.0,0.0,0.0,0.0,3.0",0.6468472696857661,105.94581909427019,0.707106781187,0.9583378268126175,9610,鳥田むら,https://tabelog.com/tokyo/A1303/A130301/13178183/,居酒屋、焼鳥,居酒屋,35.65708417,139.7017561,東京都渋谷区渋谷3-18-8大野ビルB1F
"0,1,0,1,0,0,0,0,1","0.0,3.0,0.0,3.0,3.0,0.0,0.0,0.0,3.0",0.6323595888706043,110.29212333881873,0.707106781187,0.9486193386372638,15194,炭火焼酒場 ホルイチ,https://tabelog.com/tokyo/A1303/A130301/13125564/,焼肉、ホルモン、居酒屋,焼肉・ホルモン・鍋,35.65760222,139.7027331,東京都渋谷区渋谷3-6-18荻津ビル1F
"0,1,0,1,0,0,0,0,1","0.0,3.0,0.0,3.0,0.0,3.0,0.0,0.0,3.0",0.5882081774661834,123.537546760145,0.707106781187,0.9197765272271787,15124,THE THEATRE TABLE,https://tabelog.com/tokyo/A1303/A130301/13137242/,イタリアン、ワインバー、ダイニングバー,バー・お酒,35.65914,139.7017933,東京都渋谷区渋谷2-21-1渋谷ヒカリエ11F
"0,1,0,1,0,0,0,0,1","0.0,3.0,0.0,3.0,0.0,3.0,0.0,0.0,3.0",0.5825560503486562,125.23318489540313,0.707106781187,0.9161722282397705,14779,ビストロ＆バー タコニョッキ,https://tabelog.com/tokyo/A1303/A130301/13140097/,ビストロ、バー、カフェ,洋食・西洋料理,35.65916167,139.7015767,東京都渋谷区渋谷2-21-1渋谷ヒカリエ7F
"0,1,0,1,0,0,0,0,1","0.0,2.0,0.0,3.0,0.0,0.0,3.0,3.0,0.0",0.7032515507468745,89.02453477593764,0.57735026919,0.9098879474755214,11283,並木倶楽部,https://tabelog.com/tokyo/A1303/A130301/13215252/,ハンバーグ、西洋各国料理（その他）、無国籍料理,創作料理・無国籍料理,35.65759911,139.7024622,東京都渋谷区渋谷3-7-5大石ビルB1F
"0,1,0,1,0,0,0,0,1","0.0,3.0,0.0,3.0,0.0,3.0,0.0,0.0,3.0",0.5441779560430325,136.74661318709025,0.707106781187,0.8922609751878499,9693,ごっつ食べなはれ 渋谷店,https://tabelog.com/tokyo/A1303/A130301/13211361/,しゃぶしゃぶ、和食（その他）、バイキング,Ｂ級和食,35.65915972,139.7022508,東京都渋谷区渋谷2-17-5シオノギ渋谷ビル2・3F
"0,1,0,1,0,0,0,0,1","0.0,3.0,0.0,3.0,3.0,0.0,0.0,0.0,3.0",0.5321862146115574,140.34413561653278,0.707106781187,0.8849983994463373,15189,渋谷三丁目酒場,https://tabelog.com/tokyo/A1303/A130301/13089932/,居酒屋、もつ焼き、定食・食堂,居酒屋,35.65681556,139.7020522,東京都渋谷区渋谷3-17-2清澤ビル2F
"0,1,0,1,0,0,0,0,1","0.0,3.0,0.0,3.0,3.0,0.0,0.0,0.0,3.0",0.5186742165599981,144.39773503200055,0.707106781187,0.8769395320796799,14842,ニュー信州,https://tabelog.com/tokyo/A1303/A130301/13014685/,居酒屋、魚介料理・海鮮料理、焼酎バー,高級和食,35.65673306,139.70168,東京都渋谷区渋谷3-22-11サンクスプライムビルB1このお店は「渋谷区渋谷3-20-16」から移転しています。※移転前の情報は最新のものとは異なります。移転前の店舗情報を見る
"0,1,0,1,0,0,0,0,1","0.0,3.0,0.0,3.0,3.0,0.0,0.0,0.0,3.0",0.49651744399882913,151.04476680035125,0.707106781187,0.8640194281352304,14088,IZAKAYA P/man,https://tabelog.com/tokyo/A1303/A130301/13188989/,居酒屋、ダイニングバー、バー,バー・お酒,35.6566811,139.7018215,東京都渋谷区渋谷3-22-111F・2Fこのお店は「渋谷区渋谷3-20-12」から移転しています。※移転前の情報は最新のものとは異なります。移転前の店舗情報を見る
"0,1,0,1,0,0,0,0,1","0.0,3.0,0.0,3.0,3.0,0.0,0.0,0.0,3.0",0.48207964051658964,155.3761078450231,0.707106781187,0.8558041714087425,13197,カトルセ,https://tabelog.com/tokyo/A1303/A130301/13120088/,スペイン料理、バル・バール、パスタ,洋食・西洋料理,35.65691472,139.7026672,東京都渋谷区渋谷3-10-14長崎堂ビルB１F
"0,1,0,1,0,0,0,0,1","0.0,3.0,0.0,3.0,3.0,0.0,0.0,0.0,3.0",0.4820712274291691,155.37863177124927,0.707106781187,0.8557994322941946,10786,ビストロ　イル・ド・レ,https://tabelog.com/tokyo/A1303/A130301/13179041/,ビストロ、ワインバー、居酒屋,洋食・西洋料理,35.65879583,139.7030758,東京都渋谷区渋谷2-15-1渋谷クロスタワー　1F
"0,1,0,1,0,0,0,0,1","0.0,3.0,0.0,3.0,3.0,0.0,0.0,0.0,3.0",0.4748228953249506,157.55313140251482,0.707106781187,0.8517375076423305,10509,浜ちゃん,https://tabelog.com/tokyo/A1303/A130301/13091442/,居酒屋、魚介料理・海鮮料理,高級和食,35.65690519,139.7026916,東京都渋谷区渋谷3-10-14長崎堂ビル1F
"0,1,0,1,0,0,0,0,1","0.0,3.0,0.0,3.0,3.0,0.0,0.0,3.0,0.0",0.6184993150709205,114.45020547872386,0.57735026919,0.846093810446886,15013,石の華,https://tabelog.com/tokyo/A1303/A130301/13004802/,バー,バー・お酒,35.65778583,139.7028628,東京都渋谷区渋谷3-6-2第二矢木ビル　Ｂ１Ｆ
"0,1,0,1,0,0,0,0,1","0.0,3.0,0.0,3.0,3.0,0.0,0.0,0.0,3.0",0.451446508369601,164.5660474891197,0.707106781187,0.8389302413902507,12859,慶家菜,https://tabelog.com/tokyo/A1303/A130301/13041450/,中華料理、餃子、飲茶・点心,アジア・エスニック、中華料理,35.65878333,139.7032044,東京都渋谷区渋谷2-15-1渋谷クロスタワー　１Ｆ
"0,1,0,1,0,0,0,0,1","0.0,3.0,0.0,3.0,3.0,0.0,0.0,0.0,3.0",0.442719995441855,167.1840013674435,0.707106781187,0.8342667405356852,11012,座空,https://tabelog.com/tokyo/A1303/A130301/13039316/,居酒屋、魚介料理・海鮮料理、日本酒バー,高級和食,35.65740389,139.7033131,東京都渋谷区渋谷3-10-19渋谷ＭＪ２ビル　Ｂ１Ｆ
"0,1,0,1,0,0,0,0,1","0.0,3.0,0.0,3.0,0.0,0.0,0.0,3.0,0.0",0.44217923241286333,167.346230276141,0.707106781187,0.833979899983944,12648,chopstick cafe 汁ベゑ 渋谷店,https://tabelog.com/tokyo/A1303/A130301/13181978/,居酒屋,居酒屋,35.65736528,139.7032925,東京都渋谷区渋谷3-10-1渋谷MJビルB1Fこのお店は「渋谷区道玄坂1-21-6」から移転しています。※移転前の情報は最新のものとは異なります。移転前の店舗情報を見る
"0,1,0,1,0,0,0,0,1","0.0,3.0,0.0,3.0,0.0,0.0,0.0,3.0,0.0",0.4297962185416206,171.06113443751383,0.707106781187,0.8274809903995841,13690,全席個室 鮮や一夜 渋谷駅前店,https://tabelog.com/tokyo/A1303/A130301/13194073/,和食（その他）,Ｂ級和食,35.65888889,139.7000639,東京都渋谷区渋谷1-24-12渋谷東映プラザ6F
"0,1,0,1,0,0,0,0,1","0.0,3.0,0.0,3.0,3.0,0.0,0.0,0.0,3.0",0.410333970705965,176.8998087882105,0.707106781187,0.8175414163914412,14288,旬鮮酒場 天狗 宮益坂店,https://tabelog.com/tokyo/A1303/A130301/13085569/,居酒屋、魚介料理・海鮮料理、串焼き,高級和食,35.65947167,139.7007914,東京都渋谷区渋谷2-20-11
"0,1,0,1,0,0,0,0,1","0.0,3.0,0.0,3.0,3.0,0.0,0.0,0.0,3.0",0.33213637223804254,200.35908832858723,0.707106781187,0.7812263242898614,13319,ビストロ クー ハナレ,https://tabelog.com/tokyo/A1303/A130301/13115401/,ダイニングバー、イタリアン、ビストロ,洋食・西洋料理,35.65714595,139.6997094,東京都渋谷区桜丘町1-5大沼ビル５F
"0,1,0,1,0,0,0,0,1","0.0,3.0,0.0,3.0,3.0,0.0,0.0,0.0,3.0",0.33152339603818526,200.54298118854442,0.707106781187,0.7809659161069012,12588,まる-HIKARIEN- 渋谷本店,https://tabelog.com/tokyo/A1303/A130301/13181951/,居酒屋、和食（その他）、ダイニングバー,Ｂ級和食,35.65714417,139.6997083,東京都渋谷区桜丘町1-5大沼ビルB1F
"0,1,0,1,0,0,0,0,1","0.0,3.0,0.0,3.0,3.0,0.0,0.0,0.0,3.0",0.32364454185940983,202.90663744217704,0.707106781187,0.7776540294214307,12318,創作鉄板料理とワインを楽しむ店 ～渋谷 居酒屋 花花～,https://tabelog.com/tokyo/A1303/A130301/13024521/,居酒屋、鉄板焼き、もつ鍋,居酒屋,35.6571475,139.6996761,東京都渋谷区桜丘町1-5大沼ビル　２Ｆ
"0,1,0,1,0,0,0,0,1","0.0,3.0,0.0,3.0,3.0,0.0,0.0,0.0,3.0",0.32086721485326336,203.739835544021,0.707106781187,0.7765022662991334,10582,新寮,https://tabelog.com/tokyo/A1303/A130301/13191552/,居酒屋、郷土料理（その他）、鳥料理,高級和食,35.659765,139.7023869,東京都渋谷区渋谷2-19-20岡ビル3F
"0,1,0,1,0,0,0,0,1","0.0,3.0,0.0,3.0,3.0,0.0,0.0,0.0,3.0",0.30245192532642884,209.26442240207135,0.707106781187,0.769075527587287,10805,アンカラ 宮益坂店,https://tabelog.com/tokyo/A1303/A130301/13089864/,トルコ料理、アジア・エスニック料理（その他）、ダイニングバー,アジア・エスニック、中華料理,35.65978944,139.7024811,東京都渋谷区渋谷2-19-20宮益坂岡ビルB1
"0,1,0,1,0,0,0,0,1","0.0,3.0,0.0,3.0,0.0,0.0,0.0,3.0,0.0",0.27903755252526385,216.28873424242084,0.707106781187,0.7601723197534158,13865,赤から 渋谷宮益坂店,https://tabelog.com/tokyo/A1303/A130301/13185337/,鍋（その他）,焼肉・ホルモン・鍋,35.65986278,139.7008089,東京都渋谷区渋谷1-14-8宮益SKビルB1F
"0,1,0,1,0,0,0,0,1","0.0,3.0,0.0,3.0,0.0,0.0,0.0,3.0,0.0",0.27856407062734356,216.43077881179693,0.707106781187,0.7599986456859484,10036,アル・フォルノ,https://tabelog.com/tokyo/A1303/A130301/13045839/,ピザ、イタリアン,洋食・西洋料理,35.65696306,139.6996383,東京都渋谷区桜丘町2-3第二富士商事ビル1F
"0,1,0,1,0,0,0,0,1","0.0,3.0,0.0,3.0,3.0,0.0,0.0,0.0,3.0",0.27522330529159783,217.43300841252065,0.707106781187,0.7587805135713701,9884,ビストロバークー,https://tabelog.com/tokyo/A1303/A130301/13019301/,ダイニングバー、イタリアン、バル・バール,洋食・西洋料理,35.65712694,139.6995075,東京都渋谷区桜丘町2-2
"0,1,0,1,0,0,0,0,1","0.0,2.0,0.0,3.0,0.0,0.0,0.0,3.0,0.0",0.2693875385971146,219.1837384208656,0.707106781187,0.7566833194615908,12732,BON GOUT KITCHEN 渋谷店,https://tabelog.com/tokyo/A1303/A130301/13193158/,ダイニングバー、ステーキ、ハンバーグ,洋食・西洋料理,35.65982861,139.7006242,東京都渋谷区渋谷1-14-11BCサロンB1F
"0,1,0,1,0,0,0,0,1","0.0,3.0,0.0,3.0,3.0,0.0,0.0,0.0,3.0",0.2549520736157642,223.51437791527073,0.707106781187,0.7516651913192324,14390,九州酒場だんだん． 渋谷桜ヶ丘店,https://tabelog.com/tokyo/A1303/A130301/13141174/,居酒屋、もつ鍋、焼鳥,居酒屋,35.65727028,139.6993519,東京都渋谷区桜丘町2-12渋谷亀八ビル2F
"0,1,0,1,0,0,0,0,1","0.0,3.0,0.0,3.0,3.0,0.0,0.0,0.0,3.0",0.25481767251297366,223.5546982461079,0.707106781187,0.751619615380632,10426,四十八漁場 渋谷桜丘店,https://tabelog.com/tokyo/A1303/A130301/13148416/,魚介料理・海鮮料理、居酒屋、日本酒バー,高級和食,35.65726972,139.6993517,東京都渋谷区桜丘町2-12亀八ビル3F
"0,1,0,1,0,0,0,0,1","0.0,3.0,0.0,3.0,3.0,0.0,0.0,0.0,3.0",0.22901773690716556,231.29467892785033,0.707106781187,0.7432692135546042,10858,宮崎県日南市　塚田農場 渋谷宮益坂店,https://tabelog.com/tokyo/A1303/A130301/13153961/,居酒屋、鳥料理、水炊き,焼肉・ホルモン・鍋,35.65996639,139.7006778,東京都渋谷区渋谷1-14-6平野屋ビル１Ｆ
"0,1,0,1,0,0,0,0,1","0.0,3.0,0.0,3.0,3.0,0.0,0.0,0.0,3.0",0.22180177572547952,233.45946728235614,0.707106781187,0.7410776124772466,10761,花咲かじいさん 桜丘店,https://tabelog.com/tokyo/A1303/A130301/13014669/,居酒屋、日本酒バー、創作料理,バー・お酒,35.65661583,139.6997314,東京都渋谷区桜丘町3-22サクラヤビル　Ｂ１Ｆ
"0,1,0,1,0,0,0,0,1","0.0,3.0,0.0,3.0,0.0,0.0,0.0,3.0,0.0",0.21850785174139295,234.44764447758212,0.707106781187,0.7400984267464961,13636,洋食 富士屋本店,https://tabelog.com/tokyo/A1303/A130301/13190042/,洋食・欧風料理（その他）、ハンバーグ、ダイニングバー,洋食・西洋料理,35.65687267,139.699473,東京都渋谷区桜丘町2-3富士商事ビルB1F
"0,1,0,1,0,0,0,0,1","0.0,3.0,0.0,3.0,3.0,0.0,0.0,0.0,3.0",0.20984256398971504,237.04723080308548,0.707106781187,0.737586538422291,11776,A muse,https://tabelog.com/tokyo/A1303/A130301/13182182/,バル・バール、和食（その他）、居酒屋,Ｂ級和食,35.65663472,139.6996578,東京都渋谷区桜丘町3-22
"0,1,0,1,0,0,0,0,1","0.0,3.0,0.0,3.0,3.0,0.0,0.0,0.0,3.0",0.20967427380185902,237.0977178594423,0.707106781187,0.7375386776938123,10486,バルハッテンハチ,https://tabelog.com/tokyo/A1303/A130301/13091658/,バー,バー・お酒,35.65697083,139.6993647,東京都渋谷区桜丘町2-8志水ビル3F
"0,1,0,1,0,0,0,0,1","0.0,3.0,0.0,3.0,0.0,0.0,0.0,3.0,0.0",0.20614518176626387,238.15644547012084,0.707106781187,0.7365431663965433,9835,カラオケBar ミルキーウェイ,https://tabelog.com/tokyo/A1303/A130301/13052211/,ダイニングバー,バー・お酒,35.65599139,139.7008278,東京都渋谷区桜丘町3-10渋谷山手ビルB館1F
"0,1,0,1,0,0,0,0,1","0.0,3.0,0.0,3.0,3.0,0.0,0.0,0.0,3.0",0.20442347435032568,238.6729576949023,0.707106781187,0.7360631473355111,12347,サンカイ,https://tabelog.com/tokyo/A1303/A130301/13026304/,居酒屋、創作料理、ダイニングバー,創作料理・無国籍料理,35.6601175,139.7009803,東京都渋谷区渋谷1-12-24707渋谷ビル3F
"0,1,0,1,0,0,0,0,1","0.0,2.0,0.0,3.0,3.0,0.0,0.0,0.0,3.0",0.20371734809856443,238.88479557043067,0.707106781187,0.7358673507612032,9651,金の蔵 渋谷東口店,https://tabelog.com/tokyo/A1303/A130301/13119477/,居酒屋、ちゃんこ鍋、ピザ,居酒屋,35.66000333,139.7005697,東京都渋谷区渋谷1-14平野屋ビル
"0,1,0,1,0,0,0,0,1","0.0,3.0,0.0,3.0,3.0,0.0,0.0,0.0,3.0",0.19946258489120794,240.16122453263762,0.707106781187,0.7347008389620107,11675,餃子と牛たん 居酒屋おおとら 宮益坂本店,https://tabelog.com/tokyo/A1303/A130301/13138935/,居酒屋、餃子、牛タン,居酒屋,35.6601525,139.7010919,東京都渋谷区渋谷1-12-22イセビル1F
"0,1,0,1,0,0,0,0,1","0.0,3.0,0.0,3.0,3.0,0.0,0.0,0.0,3.0",0.19227904539029889,242.31628638291033,0.707106781187,0.7327832089344056,12585,LAND Seafood,https://tabelog.com/tokyo/A1303/A130301/13215057/,地中海料理、イタリアン,洋食・西洋料理,35.65598254,139.7025539,東京都渋谷区渋谷3-27-1100BANCH1F
"0,1,0,1,0,0,0,0,1","0.0,3.0,0.0,3.0,3.0,0.0,0.0,0.0,3.0",0.18105678773974718,245.68296367807585,0.707106781187,0.7299188724691504,14950,炉端と天ぷら屋台 さくら亭,https://tabelog.com/tokyo/A1303/A130301/13200091/,居酒屋、天ぷら、魚介料理・海鮮料理,高級和食,35.65652194,139.6996539,東京都渋谷区桜丘町3丁目22
"0,1,0,1,0,0,0,0,1","0.0,3.0,0.0,3.0,3.0,0.0,0.0,0.0,3.0",0.16871195070426778,249.38641478871966,0.707106781187,0.7269551033663905,9557,かぶ金とん 渋谷桜丘店,https://tabelog.com/tokyo/A1303/A130301/13162939/,居酒屋、鳥料理、もつ鍋,Ｂ級和食,35.65588578,139.7008258,東京都渋谷区桜丘町3-121F
"0,1,0,1,0,0,0,0,1","0.0,3.0,0.0,3.0,3.0,0.0,0.0,0.0,3.0",0.15307324821230017,254.07802553630995,0.707106781187,0.7234856040850188,9802,今も昔や,https://tabelog.com/tokyo/A1303/A130301/13004733/,居酒屋、ダイニングバー、創作料理,創作料理・無国籍料理,35.66026278,139.7009917,東京都渋谷区渋谷1-12-24７０７渋谷ビル　２Ｆ
"0,1,0,1,0,0,0,0,1","0.0,3.0,0.0,3.0,3.0,0.0,0.0,0.0,3.0",0.14407462759521594,256.7776117214352,0.707106781187,0.7216352945336725,14924,沖縄料理 あしびな～,https://tabelog.com/tokyo/A1303/A130301/13018951/,沖縄料理、居酒屋、ダイニングバー,バー・お酒,35.65671611,139.699305,東京都渋谷区桜丘町16-15カーサ渋谷　Ｂ１Ｆ
"0,1,0,1,0,0,0,0,1","0.0,3.0,0.0,3.0,3.0,0.0,0.0,0.0,3.0",0.14191157144079378,257.42652856776186,0.707106781187,0.7212065543994978,9611,だしや 渋谷宮益坂,https://tabelog.com/tokyo/A1303/A130301/13123846/,和食（その他）、居酒屋、水炊き,Ｂ級和食,35.66014167,139.7004475,東京都渋谷区渋谷1-14-15森ビルB1
"0,1,0,1,0,0,0,0,1","0.0,3.0,0.0,3.0,3.0,0.0,0.0,0.0,3.0",0.12230083310128483,263.30975006961455,0.707106781187,0.7176053886205624,9943,土間土間 渋谷宮益坂店,https://tabelog.com/tokyo/A1303/A130301/13051969/,居酒屋、創作料理、ダイニングバー,創作料理・無国籍料理,35.66036028,139.7010608,東京都渋谷区渋谷1-12-1カレイド渋谷宮益坂　６Ｆ
"0,1,0,1,0,0,0,0,1","0.0,3.0,0.0,3.0,3.0,0.0,0.0,0.0,3.0",0.12190583903201532,263.4282482903954,0.707106781187,0.7175381757022408,13912,Bane BAGUS 渋谷宮益坂店,https://tabelog.com/tokyo/A1303/A130301/13026938/,バー,バー・お酒,35.66035944,139.7010492,東京都渋谷区渋谷1-12-1カレイド渋谷宮益坂B1F
"0,1,0,1,0,0,0,0,1","0.0,3.0,0.0,3.0,0.0,3.0,0.0,0.0,3.0",0.11909316032671162,264.2720519019865,0.707106781187,0.7170656740052503,11253,ラ ココリコ 渋谷,https://tabelog.com/tokyo/A1303/A130301/13147320/,ビストロ、イタリアン、居酒屋,洋食・西洋料理,35.65573278,139.7023889,東京都渋谷区渋谷3-27-11GEMS渋谷5F
"0,1,0,1,0,0,0,0,1","0.0,3.0,0.0,3.0,3.0,0.0,0.0,0.0,3.0",0.11649584643421179,265.05124606973646,0.707106781187,0.7166388785409452,10181,やきとり家すみれ 渋谷宮益坂店,https://tabelog.com/tokyo/A1303/A130301/13183034/,居酒屋、焼鳥、バル・バール,Ｂ級和食,35.66020556,139.7028558,東京都渋谷区渋谷1-8-8
"0,1,0,1,0,0,0,0,1","0.0,3.0,0.0,3.0,0.0,3.0,0.0,0.0,3.0",0.11423037361709494,265.7308879148715,0.707106781187,0.7162740943638135,13091,炭火焼ホルモン　ぐう 渋谷,https://tabelog.com/tokyo/A1303/A130301/13148359/,焼肉、ホルモン、冷麺,焼肉・ホルモン・鍋,35.65571444,139.7023667,東京都渋谷区渋谷3-27-11GEMS渋谷9F
"0,1,0,1,0,0,0,0,1","0.0,3.0,0.0,3.0,3.0,0.0,0.0,0.0,3.0",0.11170545259150572,266.4883642225483,0.707106781187,0.7158757630613521,12251,燻製工房 渋谷店,https://tabelog.com/tokyo/A1303/A130301/13148364/,居酒屋、ダイニングバー、居酒屋・ダイニングバー（その他）,バー・お酒,35.65571667,139.7024097,東京都渋谷区渋谷3-27-11GEMS渋谷6F
"0,1,0,1,0,0,0,0,1","0.0,3.0,0.0,3.0,3.0,0.0,0.0,0.0,3.0",0.11051879450145027,266.8443616495649,0.707106781187,0.7156915564250105,9887,シャングリラ トウキョウ,https://tabelog.com/tokyo/A1303/A130301/13171366/,居酒屋、焼鳥、鍋（その他）,焼肉・ホルモン・鍋,35.65654722,139.6993197,東京都渋谷区桜丘町16-1
"0,1,0,1,0,0,0,0,1","0.0,3.0,0.0,3.0,3.0,0.0,0.0,0.0,3.0",0.1095320092541446,267.1403972237566,0.707106781187,0.7155398388987507,14045,神屋流 博多道場 渋谷新南口店,https://tabelog.com/tokyo/A1303/A130301/13147374/,居酒屋、焼鳥、もつ鍋,居酒屋,35.65570694,139.7023931,東京都渋谷区渋谷3-27-11GEMS渋谷7F
"0,1,0,1,0,0,0,0,1","0.0,3.0,0.0,3.0,3.0,0.0,0.0,0.0,3.0",0.1084679428804884,267.4596171358535,0.707106781187,0.7153777286390212,13589,芋蔵 渋谷新南口店,https://tabelog.com/tokyo/A1303/A130301/13148369/,居酒屋、もつ鍋、しゃぶしゃぶ,焼肉・ホルモン・鍋,35.65576194,139.7026228,東京都渋谷区渋谷3-27-11GEMS渋谷B1F
"0,1,0,1,0,0,0,0,1","0.0,3.0,0.0,3.0,3.0,0.0,0.0,0.0,3.0",0.1084679428804884,267.4596171358535,0.707106781187,0.7153777286390212,11826,渋三魚金,https://tabelog.com/tokyo/A1303/A130301/13148368/,魚介料理・海鮮料理、居酒屋,高級和食,35.65576194,139.7026228,東京都渋谷区渋谷3-27-11GEMS渋谷2F
"0,1,0,1,0,0,0,0,1","0.0,3.0,0.0,3.0,3.0,0.0,0.0,0.0,3.0",0.10830645786558857,267.50806264032343,0.707106781187,0.7153532615536121,10369,でんず食堂,https://tabelog.com/tokyo/A1303/A130301/13148365/,居酒屋、ダイニングバー、魚介料理・海鮮料理,高級和食,35.65576139,139.7026225,東京都渋谷区渋谷3-27-11GEMS渋谷4F
"0,1,0,1,0,0,0,0,1","0.0,3.0,0.0,3.0,3.0,0.0,0.0,0.0,3.0",0.10755294476057259,267.7341165718282,0.707106781187,0.7152395654091508,14685,ワインの酒場。ディプント 渋谷駅前店,https://tabelog.com/tokyo/A1303/A130301/13187946/,イタリアン、ダイニングバー、バル・バール,洋食・西洋料理,35.65979833,139.6996189,東京都渋谷区渋谷1-24-16みずほ銀行遠州屋共同ビルB1F
"0,1,0,1,0,0,0,0,1","0.0,3.0,0.0,3.0,3.0,0.0,0.0,0.0,3.0",0.10705248095164184,267.88425571450745,0.707106781187,0.715164480156769,12546,bar 小桜,https://tabelog.com/tokyo/A1303/A130301/13113945/,バー、居酒屋、創作料理,創作料理・無国籍料理,35.65673056,139.6991458,東京都渋谷区桜丘町16-14ドルチェ渋谷　Ｂ２Ｆ
"0,1,0,1,0,0,0,0,1","0.0,3.0,0.0,3.0,3.0,0.0,0.0,0.0,3.0",0.10624056971791769,268.1278290846247,0.707106781187,0.7150433963431785,9918,うみかぜやまうた,https://tabelog.com/tokyo/A1303/A130301/13019314/,沖縄料理、居酒屋,居酒屋,35.65625167,139.6996364,東京都渋谷区桜丘町15-18北沢ビル　Ｂ１Ｆ
"0,1,0,1,0,0,0,0,1","0.0,3.0,0.0,3.0,3.0,0.0,0.0,0.0,3.0",0.1023393094840469,269.2982071547859,0.707106781187,0.7144741662689224,9657,カタラタス,https://tabelog.com/tokyo/A1303/A130301/13048683/,ビアバー、ダイニングバー、バー,バー・お酒,35.65674278,139.6991178,東京都渋谷区桜丘町16-14ドルチェ渋谷B2F
"0,1,0,1,0,0,0,0,1","0.0,3.0,0.0,3.0,3.0,0.0,0.0,0.0,3.0",0.1008014550729058,269.75956347812826,0.707106781187,0.714255509845612,12764,菜な  渋谷宮益坂下店,https://tabelog.com/tokyo/A1303/A130301/13004731/,居酒屋、京料理、懐石・会席料理,高級和食,35.66031222,139.7005956,東京都渋谷区渋谷1-14-16渋谷野村證券ビル　Ｂ１Ｆ
"0,1,0,1,0,0,0,0,1","0.0,3.0,0.0,3.0,3.0,0.0,0.0,0.0,3.0",0.09804441749301228,270.5866747520963,0.707106781187,0.7138716325793765,9477,月の響　 渋谷本店,https://tabelog.com/tokyo/A1303/A130301/13173009/,居酒屋、すき焼き、しゃぶしゃぶ,焼肉・ホルモン・鍋,35.65961639,139.6993622,東京都渋谷区渋谷1-25-6渋谷パークサイド共同ビル　2F
"0,1,0,1,0,0,0,0,1","0.0,3.0,0.0,3.0,0.0,3.0,0.0,0.0,3.0",0.09798462292530606,270.6046131224082,0.707106781187,0.7138634227426242,14154,和牛・焼肉・食べ放題 肉屋の台所 宮益坂ミート,https://tabelog.com/tokyo/A1303/A130301/13160699/,焼肉、ホルモン、居酒屋,焼肉・ホルモン・鍋,35.6596175,139.6993631,東京都渋谷区渋谷1-25-6渋谷パークサイド共同ビルF
"0,1,0,1,0,0,0,0,1","0.0,3.0,0.0,3.0,3.0,0.0,0.0,0.0,3.0",0.09789604624086413,270.63118612774076,0.707106781187,0.7138512701323669,10720,月のえん 渋谷駅前店,https://tabelog.com/tokyo/A1303/A130301/13168621/,居酒屋、ダイニングバー、魚介料理・海鮮料理,高級和食,35.65961806,139.6993633,東京都渋谷区渋谷1-25-6渋谷パークサイド共同ビル
"0,1,0,1,0,0,0,0,1","0.0,3.0,0.0,3.0,3.0,0.0,0.0,0.0,3.0",0.09783433916528414,270.64969825041476,0.707106781187,0.713842810372079,10959,渋谷 ドラエモン,https://tabelog.com/tokyo/A1303/A130301/13151214/,ダイニングバー、ピザ、イタリアン,洋食・西洋料理,35.65961889,139.6993639,東京都渋谷区渋谷1-25-6渋谷パークサイド共同ビルB1Fこのお店は「渋谷区道玄坂1-22-12」から移転しています。※移転前の情報は最新のものとは異なります。移転前の店舗情報を見る
"0,1,0,1,0,0,0,0,1","0.0,3.0,0.0,3.0,3.0,0.0,0.0,0.0,3.0",0.09768224412650833,270.6953267620475,0.707106781187,0.7138219811812963,13965,産地直送×個室居酒屋 一禅 渋谷店,https://tabelog.com/tokyo/A1303/A130301/13206794/,居酒屋、ダイニングバー、魚介料理・海鮮料理,居酒屋,35.65962,139.6993644,東京都渋谷区渋谷1-25-6渋谷パークサイド共同ビル4F
"0,1,0,1,0,0,0,0,1","0.0,3.0,0.0,3.0,3.0,0.0,0.0,0.0,3.0",0.08769764681959297,273.6907059541221,0.707106781187,0.7125242994156018,15339,鳥鈴,https://tabelog.com/tokyo/A1303/A130301/13105542/,焼鳥、居酒屋、日本酒バー,バー・お酒,35.65597778,139.7033056,東京都渋谷区渋谷3-15-1
"0,1,0,1,0,0,0,0,1","0.0,3.0,0.0,3.0,0.0,3.0,0.0,0.0,3.0",0.08719634907202893,273.8410952783913,0.707106781187,0.7124627732671309,14967,ガストロパブ オーガスタス,https://tabelog.com/tokyo/A1303/A130301/13196135/,ビストロ、バー、ステーキ,洋食・西洋料理,35.65597583,139.703305,東京都渋谷区渋谷3-15-2コンパルビル2F
"0,1,0,1,0,0,0,0,1","0.0,3.0,0.0,3.0,3.0,0.0,0.0,0.0,3.0",0.08529620681081951,274.41113795675415,0.707106781187,0.7122327168112359,14451,藍楽 渋谷駅前店,https://tabelog.com/tokyo/A1303/A130301/13024141/,居酒屋、もつ鍋、日本酒バー,バー・お酒,35.65968917,139.6993842,東京都渋谷区渋谷1-25-6渋谷パークサイド共同ビル8F
"0,1,0,1,0,0,0,0,1","0.0,3.0,0.0,3.0,3.0,0.0,0.0,0.0,3.0",0.0852662937957344,274.4201118612797,0.707106781187,0.7122291350806008,14929,居酒屋 喜楽,https://tabelog.com/tokyo/A1303/A130301/13039171/,居酒屋、鍋（その他）、カレー（その他）,居酒屋,35.65596139,139.7032897,東京都渋谷区渋谷3-15-2コンパルビル5F
"0,1,0,1,0,0,0,0,1","0.0,3.0,0.0,3.0,0.0,0.0,0.0,3.0,0.0",0.08513352169621195,274.4599434911364,0.707106781187,0.7122132521347799,12805,Js Bar,https://tabelog.com/tokyo/A1303/A130301/13007443/,ダイニングバー,バー・お酒,35.65969028,139.6993847,東京都渋谷区渋谷1-25-6渋谷パークサイド共同ビル10F
"0,1,0,1,0,0,0,0,1","0.0,3.0,0.0,3.0,3.0,0.0,0.0,0.0,3.0",0.08365297044141547,274.90410886757536,0.707106781187,0.7120377935641284,9715,地鶏専門個室居酒屋 官兵衛 渋谷駅前店,https://tabelog.com/tokyo/A1303/A130301/13206872/,居酒屋、ダイニングバー、鳥料理,居酒屋,35.65962306,139.6993067,東京都渋谷区渋谷1-25-6渋谷パークサイド共同ビル4F
"0,1,0,1,0,0,0,0,1","0.0,3.0,0.0,3.0,3.0,0.0,0.0,0.0,3.0",0.08259983726135185,275.22004882159445,0.707106781187,0.7119148355776848,12360,焼肉台所家 渋谷桜丘店,https://tabelog.com/tokyo/A1303/A130301/13173421/,焼肉、居酒屋、ホルモン,焼肉・ホルモン・鍋,35.65648063,139.6992664,東京都渋谷区桜丘町16-2
"0,1,0,1,0,0,0,0,1","0.0,3.0,0.0,3.0,3.0,0.0,0.0,0.0,3.0",0.08174354676199148,275.47693597140255,0.707106781187,0.7118159926815567,13119,焼鳥 みなと,https://tabelog.com/tokyo/A1303/A130301/13210501/,焼鳥、居酒屋、和食（その他）,Ｂ級和食,35.65649,139.6992536,東京都渋谷区桜丘町16-2桜ビル3F
"0,1,0,1,0,0,0,0,1","0.0,3.0,0.0,3.0,0.0,3.0,0.0,0.0,3.0",0.07838536471047215,276.48439058685835,0.707106781187,0.7114381669553538,13537,渋谷の日本酒ダイニング sakeba,https://tabelog.com/tokyo/A1303/A130301/13154838/,日本酒バー、居酒屋、ダイニングバー,バー・お酒,35.65596444,139.7033367,東京都渋谷区渋谷3-15-2コンパルビル7F
"0,1,0,1,0,0,0,0,1","0.0,3.0,0.0,3.0,0.0,0.0,0.0,3.0,0.0",0.07433840482549518,277.69847855235145,0.707106781187,0.7110036557093073,10190,鬼亭,https://tabelog.com/tokyo/A1303/A130301/13003491/,焼鳥、焼肉,焼肉・ホルモン・鍋,35.66046611,139.70236,東京都渋谷区渋谷1-9-4
"0,1,0,1,0,0,0,0,1","0.0,3.0,0.0,3.0,3.0,0.0,0.0,0.0,3.0",0.07016172433587448,278.95148269923766,0.707106781187,0.7105791071807441,9490,ダイニングここち,https://tabelog.com/tokyo/A1303/A130301/13053447/,居酒屋、創作料理,創作料理・無国籍料理,35.659735,139.6993675,東京都渋谷区渋谷1-25-6渋谷パークサイド共同ビル6F
"0,1,0,1,0,0,0,0,1","0.0,3.0,0.0,3.0,3.0,0.0,0.0,0.0,3.0",0.061243550662147754,281.6269348013557,0.707106781187,0.7097540225301349,11312,わたら瀬,https://tabelog.com/tokyo/A1303/A130301/13042128/,居酒屋、割烹・小料理、和食（その他）,高級和食,35.6559175,139.7033528,東京都渋谷区渋谷3-15-2住報ビルB1
"0,1,0,1,0,0,0,0,1","0.0,3.0,0.0,3.0,0.0,0.0,0.0,3.0,0.0",0.060848467322040085,281.745459803388,0.707106781187,0.7097200405620807,12673,黒瀬,https://tabelog.com/tokyo/A1303/A130301/13076715/,居酒屋,居酒屋,35.65962778,139.7040583,東京都渋谷区渋谷2-14-4
"0,1,0,1,0,0,0,0,1","0.0,3.0,0.0,3.0,3.0,0.0,0.0,0.0,3.0",0.05752689720518712,282.74193083844386,0.707106781187,0.7094429814312467,11833,翠屋 渋谷駅前店,https://tabelog.com/tokyo/A1303/A130301/13129496/,居酒屋、ダイニングバー、居酒屋・ダイニングバー（その他）,バー・お酒,35.65973639,139.6993125,東京都渋谷区渋谷1-25-6渋谷パークサイド共同ビル4F
"0,1,0,1,0,0,0,0,1","0.0,2.0,0.0,3.0,0.0,0.0,0.0,3.0,0.0",0.043969838266954754,286.8090485199136,0.707106781187,0.7084725447589498,15002,パブリック スタンド 渋谷店,https://tabelog.com/tokyo/A1303/A130301/13213067/,バー・お酒（その他）,バー・お酒,35.65978167,139.6993022,東京都渋谷区渋谷1-25-6渋谷パークサイド共同ビル2F
"0,1,0,1,0,0,0,0,1","0.0,3.0,0.0,3.0,3.0,0.0,0.0,0.0,3.0",0.043911067456266245,286.8266797631201,0.707106781187,0.7084688997021314,13454,もつやき　婁熊東京,https://tabelog.com/tokyo/A1303/A130301/13058009/,ホルモン、もつ焼き、串焼き,焼肉・ホルモン・鍋,35.65589417,139.7034133,東京都渋谷区渋谷3-15-2住報渋谷ビル　２Ｆ
"0,1,0,1,0,0,0,0,1","0.0,3.0,0.0,3.0,3.0,0.0,0.0,0.0,3.0",0.04043696839167656,287.86890948249703,0.707106781187,0.7082620619606202,12769,和楽,https://tabelog.com/tokyo/A1303/A130301/13020690/,居酒屋、創作料理,創作料理・無国籍料理,35.65646611,139.6991031,東京都渋谷区桜丘町16-6サンライズ桜丘　Ｂ１Ｆ
"0,1,0,1,0,0,0,0,1","0.0,3.0,0.0,3.0,0.0,0.0,0.0,3.0,0.0",0.0284758294797651,291.45725115607047,0.707106781187,0.7076799226094808,12715,串木乃,https://tabelog.com/tokyo/A1303/A130301/13075199/,居酒屋,居酒屋,35.65989667,139.6993664,東京都渋谷区渋谷1-25-9
"0,1,0,1,0,0,0,0,1","0.0,3.0,0.0,3.0,0.0,0.0,0.0,3.0,0.0",0.02839542043205294,291.4813738703841,0.707106781187,0.707676691647756,10778,会津,https://tabelog.com/tokyo/A1303/A130301/13075058/,居酒屋,居酒屋,35.65989722,139.6993667,東京都渋谷区渋谷1-25-9
"0,1,0,1,0,0,0,0,1","0.0,3.0,0.0,3.0,0.0,0.0,0.0,3.0,0.0",0.025887090286698444,292.23387291399047,0.707106781187,0.7075804840747884,14585,えのき2,https://tabelog.com/tokyo/A1303/A130301/13210125/,居酒屋、割烹・小料理,高級和食,35.65988472,139.6993397,東京都渋谷区渋谷1-25-9のんべい横丁
"0,1,0,1,0,0,0,0,1","0.0,3.0,0.0,3.0,3.0,0.0,0.0,0.0,3.0",0.019553852954630125,294.13384411361096,0.707106781187,0.707377094034979,12796,87 fooding bar,https://tabelog.com/tokyo/A1303/A130301/13188176/,バー、ダイニングバー、バー・お酒（その他）,バー・お酒,35.66056639,139.7006753,東京都渋谷区渋谷1-15-17バイオレットビルB1F
"0,1,0,1,0,0,0,0,1","0.0,3.0,0.0,3.0,3.0,0.0,0.0,0.0,3.0",0.019105425205797624,294.2683724382607,0.707106781187,0.7073648402856155,14425,焚火家 渋谷店,https://tabelog.com/tokyo/A1303/A130301/13130110/,焼肉、居酒屋,焼肉・ホルモン・鍋,35.66050186,139.7004456,東京都渋谷区渋谷1-15-19東口二葉ビル1F
"0,1,0,1,0,0,0,0,1","0.0,3.0,0.0,3.0,0.0,0.0,0.0,3.0,0.0",0.018758142668995864,294.37255719930124,0.707106781187,0.7073555456178954,9481,まぐろ処,https://tabelog.com/tokyo/A1303/A130301/13051241/,魚介料理・海鮮料理、居酒屋,高級和食,35.65995944,139.6993994,東京都渋谷区渋谷1-25-10のんべい横丁
"0,1,0,1,0,0,0,0,1","0.0,3.0,0.0,3.0,0.0,3.0,0.0,0.0,3.0",0.018213093656307442,294.53607190310777,0.707106781187,0.707341301480787,13286,KICHIRI 渋谷宮益坂下,https://tabelog.com/tokyo/A1303/A130301/13145457/,居酒屋、ダイニングバー、パスタ,洋食・西洋料理,35.66050194,139.7004378,東京都渋谷区渋谷1-15-19ラコステ渋谷3・4F
"0,1,0,1,0,0,0,0,1","0.0,2.0,0.0,3.0,0.0,0.0,0.0,3.0,0.0",0.01568140385677831,295.2955788429665,0.707106781187,0.7072806419144522,11658,バンコク屋台 カオサン 渋谷宮益坂,https://tabelog.com/tokyo/A1303/A130301/13209312/,タイ料理、タイカレー、居酒屋,居酒屋,35.66027917,139.7033872,東京都渋谷区渋谷1-8-5小山ビル2F
"0,1,0,1,0,0,0,0,1","0.0,3.0,0.0,3.0,3.0,0.0,0.0,0.0,3.0",0.011661913111026176,296.50142606669215,0.707106781187,0.7072029413240652,14794,溶岩焼ダイニング bonbori 渋谷宮益坂店,https://tabelog.com/tokyo/A1303/A130301/13169810/,焼肉、ハンバーグ、ステーキ,洋食・西洋料理,35.66060361,139.7007369,東京都渋谷区渋谷1-15-16Ｍ1Ｆ
"0,1,0,1,0,0,0,0,1","0.0,3.0,0.0,3.0,3.0,0.0,0.0,0.0,3.0",0.007282517496296919,297.8152447511109,0.707106781187,0.7071442816434875,12969,時流家,https://tabelog.com/tokyo/A1303/A130301/13046496/,居酒屋、魚介料理・海鮮料理,高級和食,35.6605419,139.7028082,東京都渋谷区渋谷1丁目10-72F
"0,1,0,1,0,0,0,0,1","0.0,3.0,0.0,3.0,3.0,3.0,0.0,0.0,3.0",0.12725298199247695,261.8241054022569,0.57735026919,0.5912077932159817,10821,えん 渋谷店,https://tabelog.com/tokyo/A1303/A130301/13004725/,居酒屋、割烹・小料理、魚介料理・海鮮料理,高級和食,35.65985028,139.69979,東京都渋谷区渋谷1-24-12渋谷東映プラザ　１１Ｆ
"0,1,0,1,0,0,0,0,1","0.0,3.0,0.0,3.0,3.0,3.0,0.0,0.0,3.0",0.1266316268449096,262.0105119465271,0.57735026919,0.5910743627080451,12304,ホームパーティーレストラン 10th story 渋谷店,https://tabelog.com/tokyo/A1303/A130301/13170790/,居酒屋・ダイニングバー（その他）、焼肉、イタリアン,洋食・西洋料理,35.65579083,139.7007317,東京都渋谷区桜ヶ丘町8-6後上ビル1F
"0,1,0,1,0,0,0,0,1","0.0,3.0,0.0,3.0,3.0,3.0,0.0,0.0,3.0",0.11069898746960954,266.79030375911714,0.57735026919,0.5878669910448537,11425,チャイニーズファン よだれ鶏,https://tabelog.com/tokyo/A1303/A130301/13176432/,飲茶・点心、中華料理,アジア・エスニック、中華料理,35.6556775,139.70105,東京都渋谷区桜丘町4-2ジョイス渋谷3F
"0,1,0,1,0,0,0,0,1","0.0,3.0,0.0,3.0,3.0,3.0,0.0,0.0,3.0",0.10529419662949674,268.411741011151,0.57735026919,0.5868732411493852,14058,小割烹 おはし 渋谷,https://tabelog.com/tokyo/A1303/A130301/13009706/,割烹・小料理、居酒屋、和食（その他）,高級和食,35.66040528,139.7010492,東京都渋谷区渋谷1-12-1カレイド渋谷宮益坂　１Ｆ
"0,1,0,1,0,0,0,0,1","0.0,3.0,0.0,3.0,3.0,3.0,0.0,0.0,3.0",0.09811331681767683,270.56600495469695,0.57735026919,0.5856274893396819,14935,輝,https://tabelog.com/tokyo/A1303/A130301/13165401/,居酒屋、バル・バール、ダイニングバー,バー・お酒,35.65961639,139.6993625,東京都渋谷区渋谷1-25-6渋谷パークサイド共同ビル
"0,1,0,1,0,0,0,0,1","0.0,3.0,0.0,3.0,3.0,0.0,0.0,3.0,0.0",0.08321866553068769,275.0344003407937,0.57735026919,0.5833169632592916,9731,SHOT Bar Q,https://tabelog.com/tokyo/A1303/A130301/13091116/,バー,バー・お酒,35.65648769,139.6992621,東京都渋谷区桜丘町16-2曙ビル　Ｂ１Ｆ
"0,1,0,1,0,0,0,0,1","0.0,3.0,0.0,3.0,3.0,3.0,0.0,0.0,3.0",0.07568070847264778,277.29578745820567,0.57735026919,0.5822893636056348,9498,咲ラダイニング,https://tabelog.com/tokyo/A1303/A130301/13133227/,居酒屋、魚介料理・海鮮料理、日本酒バー,高級和食,35.65621917,139.6995306,東京都渋谷区桜丘町15-17渋谷グランベルホテル2F
"0,1,0,1,0,0,0,0,1","0.0,3.0,0.0,3.0,3.0,3.0,0.0,0.0,3.0",0.019820186642096664,294.053944007371,0.57735026919,0.5776903782579911,9306,渋谷 桜丘 肉寿司,https://tabelog.com/tokyo/A1303/A130301/13147644/,馬肉料理、その他肉料理、寿司,高級和食,35.65666222,139.6988575,東京都渋谷区桜丘町16-10
"0,1,0,1,0,0,0,0,1","0.0,3.0,0.0,3.0,3.0,0.0,0.0,3.0,0.0",0.01856599165295165,294.4302025041145,0.57735026919,0.5776487075891288,10356,五十亭,https://tabelog.com/tokyo/A1303/A130301/13089188/,焼鳥,Ｂ級和食,35.65605167,139.6994744,東京都渋谷区桜丘町15-15NKG東京第2ビルB1F
"0,1,0,1,0.5,0,0,1,0","0.0,3.0,0.0,3.0,0.0,0.0,0.0,3.0,0.0",0.7745043696044069,67.6486891186779,0.942809041582,1.2201417571025133,11495,すしざんまい 渋谷東口店,https://tabelog.com/tokyo/A1303/A130301/13055318/,寿司、魚介料理・海鮮料理、海鮮丼,高級和食,35.65843167,139.7010697,東京都渋谷区渋谷2-22-11渋谷フランセ奥野ビル
"0,1,0,1,0.5,0,0,1,0","0.0,3.0,0.0,3.0,0.0,0.0,0.0,3.0,0.0",0.7413080697045163,77.60757908864508,0.942809041582,1.1993442137676427,15318,居酒屋 赤頭巾,https://tabelog.com/tokyo/A1303/A130301/13121345/,居酒屋、焼鳥,居酒屋,35.65783244,139.7024567,東京都渋谷区渋谷3-7-3野口ビル1Ｆ
"0,1,0,1,0.5,0,0,1,0","0.0,3.0,0.0,3.0,3.0,0.0,0.0,3.0,0.0",0.6184993150709205,114.45020547872386,0.962250448649,1.143882567691773,15013,石の華,https://tabelog.com/tokyo/A1303/A130301/13004802/,バー,バー・お酒,35.65778583,139.7028628,東京都渋谷区渋谷3-6-2第二矢木ビル　Ｂ１Ｆ
"0,1,0,1,0.5,0,0,1,0","0.0,3.0,0.0,3.0,3.0,0.0,0.0,0.0,3.0",0.8695238436634698,39.142846900959036,0.707106781187,1.1207460527252793,13998,THE GRIFFON 渋谷店,https://tabelog.com/tokyo/A1303/A130301/13053765/,ビアホール・ビアレストラン、居酒屋・ダイニングバー（その他）,バー・お酒,35.65838611,139.7016628,東京都渋谷区渋谷2-22-6幸和ビルB1F
"0,1,0,1,0.5,0,0,1,0","0.0,2.0,0.0,3.0,0.0,0.0,3.0,3.0,0.0",0.7032515507468745,89.02453477593764,0.76980035892,1.0426674140014525,11283,並木倶楽部,https://tabelog.com/tokyo/A1303/A130301/13215252/,ハンバーグ、西洋各国料理（その他）、無国籍料理,創作料理・無国籍料理,35.65759911,139.7024622,東京都渋谷区渋谷3-7-5大石ビルB1F
"0,1,0,1,0.5,0,0,1,0","0.0,3.0,0.0,3.0,0.0,0.0,0.0,3.0,0.0",0.44217923241286333,167.346230276141,0.942809041582,1.0413507394082542,12648,chopstick cafe 汁ベゑ 渋谷店,https://tabelog.com/tokyo/A1303/A130301/13181978/,居酒屋,居酒屋,35.65736528,139.7032925,東京都渋谷区渋谷3-10-1渋谷MJビルB1Fこのお店は「渋谷区道玄坂1-21-6」から移転しています。※移転前の情報は最新のものとは異なります。移転前の店舗情報を見る
"0,1,0,1,0.5,0,0,1,0","0.0,3.0,0.0,3.0,0.0,0.0,0.0,3.0,0.0",0.4297962185416206,171.06113443751383,0.942809041582,1.0361533083292092,13690,全席個室 鮮や一夜 渋谷駅前店,https://tabelog.com/tokyo/A1303/A130301/13194073/,和食（その他）,Ｂ級和食,35.65888889,139.7000639,東京都渋谷区渋谷1-24-12渋谷東映プラザ6F
"0,1,0,1,0.5,0,0,1,0","0.0,3.0,0.0,3.0,0.0,0.0,0.0,0.0,3.0",0.777411239702209,66.77662808933731,0.666666666667,1.0241155599148808,11992,渋谷 燻し家もっくん,https://tabelog.com/tokyo/A1303/A130301/13168968/,焼鳥、居酒屋,居酒屋,35.65854861,139.7012536,東京都渋谷区渋谷2-22-14春日ビル2F
"0,1,0,1,0.5,0,0,1,0","0.0,3.0,0.0,3.0,3.0,0.0,0.0,0.0,3.0",0.7269767071639942,81.90698785080171,0.707106781187,1.014147490633884,9646,魚喰食堂　ときしらず,https://tabelog.com/tokyo/A1303/A130301/13182535/,魚介料理・海鮮料理,高級和食,35.65731194,139.7014478,東京都渋谷区渋谷3-18-5佐藤エステートビル２F
"0,1,0,1,0.5,0,0,1,0","0.0,3.0,0.0,3.0,3.0,0.0,0.0,0.0,3.0",0.7264398041572723,82.06805875281832,0.707106781187,1.0137626887314686,15277,ビターバレーグリル,https://tabelog.com/tokyo/A1303/A130301/13196959/,バー、ステーキ、ダイニングバー,洋食・西洋料理,35.65731056,139.7014472,東京都渋谷区渋谷3-18-5和田ビル2F
"0,1,0,1,0.5,0,0,1,0","0.0,3.0,0.0,3.0,3.0,0.0,0.0,0.0,3.0",0.7030594762760048,89.08215711719856,0.707106781187,0.9971422301665346,10367,焼肉バル Gyutto Batto,https://tabelog.com/tokyo/A1303/A130301/13167916/,焼肉、鉄板焼き、バル・バール,焼肉・ホルモン・鍋,35.65759639,139.7024608,東京都渋谷区渋谷3-7-5大石ビル2F
"0,1,0,1,0.5,0,0,1,0","0.0,3.0,0.0,3.0,3.0,0.0,0.0,0.0,3.0",0.6963130911827615,91.10607264517152,0.707106781187,0.9923970581135823,13580,風ぐるま,https://tabelog.com/tokyo/A1303/A130301/13043631/,居酒屋、魚介料理・海鮮料理、割烹・小料理,高級和食,35.65742806,139.702315,東京都渋谷区渋谷3-8-7B1F
"0,1,0,1,0.5,0,0,1,0","0.0,3.0,0.0,3.0,3.0,0.0,0.0,0.0,3.0",0.693956076846839,91.8131769459483,0.707106781187,0.9907446878952498,11716,M&W TOKYO,https://tabelog.com/tokyo/A1303/A130301/13096470/,バー、ピザ、ダイニングバー,バー・お酒,35.65755306,139.7024611,東京都渋谷区渋谷3-7-6第６矢木ビル　Ｂ１Ｆ
"0,1,0,1,0.5,0,0,1,0","0.0,3.0,0.0,3.0,3.0,0.0,0.0,0.0,3.0",0.6891557587684857,93.25327236945428,0.707106781187,0.9873883024645205,13920,ベルゴ,https://tabelog.com/tokyo/A1303/A130301/13007044/,ビアホール・ビアレストラン、ダイニングバー、居酒屋,バー・お酒,35.65719361,139.7016211,東京都渋谷区渋谷3-18-7渋谷第一号ビル　Ｂ１Ｆ
"0,1,0,1,0.5,0,0,1,0","0.0,3.0,0.0,3.0,0.0,0.0,0.0,3.0,0.0",0.27903755252526385,216.28873424242084,0.942809041582,0.9832348878107298,13865,赤から 渋谷宮益坂店,https://tabelog.com/tokyo/A1303/A130301/13185337/,鍋（その他）,焼肉・ホルモン・鍋,35.65986278,139.7008089,東京都渋谷区渋谷1-14-8宮益SKビルB1F
"0,1,0,1,0.5,0,0,1,0","0.0,3.0,0.0,3.0,0.0,0.0,0.0,3.0,0.0",0.27856407062734356,216.43077881179693,0.942809041582,0.9831006206555687,10036,アル・フォルノ,https://tabelog.com/tokyo/A1303/A130301/13045839/,ピザ、イタリアン,洋食・西洋料理,35.65696306,139.6996383,東京都渋谷区桜丘町2-3第二富士商事ビル1F
"0,1,0,1,0.5,0,0,1,0","0.0,2.0,0.0,3.0,0.0,0.0,0.0,3.0,0.0",0.2693875385971146,219.1837384208656,0.942809041582,0.9805399200646043,12732,BON GOUT KITCHEN 渋谷店,https://tabelog.com/tokyo/A1303/A130301/13193158/,ダイニングバー、ステーキ、ハンバーグ,洋食・西洋料理,35.65982861,139.7006242,東京都渋谷区渋谷1-14-11BCサロンB1F
"0,1,0,1,0.5,0,0,1,0","0.0,3.0,0.0,3.0,0.0,0.0,0.0,0.0,3.0",0.7141738892927325,85.74783321218023,0.666666666667,0.9769794207617438,10699,アチェーゾ,https://tabelog.com/tokyo/A1303/A130301/13120958/,イタリアン、バル・バール、ダイニングバー,洋食・西洋料理,35.65875269,139.7019842,東京都渋谷区渋谷2-22-3渋谷東口ビル2F
"0,1,0,1,0.5,0,0,1,0","0.0,3.0,0.0,3.0,3.0,0.0,0.0,0.0,3.0",0.6628974204432221,101.13077386703338,0.707106781187,0.9692435143091122,11678,KATL,https://tabelog.com/tokyo/A1303/A130301/13050396/,居酒屋、日本酒バー、バー,バー・お酒,35.65793861,139.7027467,東京都渋谷区渋谷3-6-2第二矢木ビルB2F
"0,1,0,1,0.5,0,0,1,0","0.0,3.0,0.0,3.0,3.0,0.0,0.0,0.0,3.0",0.66092126824028,101.72361952791601,0.707106781187,0.9678930327326156,11490,Ruelle,https://tabelog.com/tokyo/A1303/A130301/13172971/,バル・バール、ワインバー、ビストロ,バー・お酒,35.65770361,139.7026839,東京都渋谷区渋谷3-6-19第一矢木ビル1F
"0,1,0,1,0.5,0,0,1,0","0.0,3.0,0.0,3.0,0.0,0.0,0.0,3.0,0.0",0.21850785174139295,234.44764447758212,0.942809041582,0.9677988273197728,13636,洋食 富士屋本店,https://tabelog.com/tokyo/A1303/A130301/13190042/,洋食・欧風料理（その他）、ハンバーグ、ダイニングバー,洋食・西洋料理,35.65687267,139.699473,東京都渋谷区桜丘町2-3富士商事ビルB1F
"0,1,0,1,0.5,0,0,1,0","0.0,3.0,0.0,3.0,3.0,0.0,0.0,3.0,0.0",0.08321866553068769,275.0344003407937,0.962250448649,0.965842260526342,9731,SHOT Bar Q,https://tabelog.com/tokyo/A1303/A130301/13091116/,バー,バー・お酒,35.65648769,139.6992621,東京都渋谷区桜丘町16-2曙ビル　Ｂ１Ｆ
"0,1,0,1,0.5,0,0,1,0","0.0,3.0,0.0,3.0,0.0,0.0,0.0,3.0,0.0",0.20614518176626387,238.15644547012084,0.942809041582,0.9650827554434567,9835,カラオケBar ミルキーウェイ,https://tabelog.com/tokyo/A1303/A130301/13052211/,ダイニングバー,バー・お酒,35.65599139,139.7008278,東京都渋谷区桜丘町3-10渋谷山手ビルB館1F
"0,1,0,1,0.5,0,0,1,0","0.0,3.0,0.0,3.0,3.0,0.0,0.0,3.0,0.0",0.01856599165295165,294.4302025041145,0.962250448649,0.9624295413026261,10356,五十亭,https://tabelog.com/tokyo/A1303/A130301/13089188/,焼鳥,Ｂ級和食,35.65605167,139.6994744,東京都渋谷区桜丘町15-15NKG東京第2ビルB1F
"0,1,0,1,0.5,0,0,1,0","0.0,3.0,0.0,3.0,3.0,0.0,0.0,0.0,3.0",0.6468472696857661,105.94581909427019,0.707106781187,0.9583378268126175,9610,鳥田むら,https://tabelog.com/tokyo/A1303/A130301/13178183/,居酒屋、焼鳥,居酒屋,35.65708417,139.7017561,東京都渋谷区渋谷3-18-8大野ビルB1F
"0,1,0,1,0.5,0,0,1,0","0.0,3.0,0.0,3.0,0.0,0.0,0.0,0.0,3.0",0.6793918207061854,96.18245378814437,0.666666666667,0.9518496154786794,9625,凛花,https://tabelog.com/tokyo/A1303/A130301/13034721/,居酒屋、焼酎バー,バー・お酒,35.65737972,139.7023328,東京都渋谷区渋谷3-8-7第２窪島ビル　２Ｆ
"0,1,0,1,0.5,0,0,1,0","0.0,3.0,0.0,3.0,3.0,0.0,0.0,0.0,3.0",0.6323595888706043,110.29212333881873,0.707106781187,0.9486193386372638,15194,炭火焼酒場 ホルイチ,https://tabelog.com/tokyo/A1303/A130301/13125564/,焼肉、ホルモン、居酒屋,焼肉・ホルモン・鍋,35.65760222,139.7027331,東京都渋谷区渋谷3-6-18荻津ビル1F
"0,1,0,1,0.5,0,0,1,0","0.0,3.0,0.0,3.0,0.0,0.0,0.0,3.0,0.0",0.08513352169621195,274.4599434911364,0.942809041582,0.9466449204455112,12805,Js Bar,https://tabelog.com/tokyo/A1303/A130301/13007443/,ダイニングバー,バー・お酒,35.65969028,139.6993847,東京都渋谷区渋谷1-25-6渋谷パークサイド共同ビル10F
"0,1,0,1,0.5,0,0,1,0","0.0,3.0,0.0,3.0,0.0,0.0,0.0,0.0,3.0",0.6714473022921976,98.5658093123407,0.666666666667,0.9461954999892539,11672,招福門 渋谷ヒカリエ店,https://tabelog.com/tokyo/A1303/A130301/13140103/,広東料理、台湾料理、飲茶・点心,アジア・エスニック、中華料理,35.65892111,139.7015783,東京都渋谷区渋谷2-21-1渋谷ヒカリエ6F
"0,1,0,1,0.5,0,0,1,0","0.0,3.0,0.0,3.0,0.0,0.0,0.0,3.0,0.0",0.07433840482549518,277.69847855235145,0.942809041582,0.9457352099403342,10190,鬼亭,https://tabelog.com/tokyo/A1303/A130301/13003491/,焼鳥、焼肉,焼肉・ホルモン・鍋,35.66046611,139.70236,東京都渋谷区渋谷1-9-4
"0,1,0,1,0.5,0,0,1,0","0.0,3.0,0.0,3.0,0.0,0.0,0.0,3.0,0.0",0.060848467322040085,281.745459803388,0.942809041582,0.9447705673148006,12673,黒瀬,https://tabelog.com/tokyo/A1303/A130301/13076715/,居酒屋,居酒屋,35.65962778,139.7040583,東京都渋谷区渋谷2-14-4
"0,1,0,1,0.5,0,0,1,0","0.0,2.0,0.0,3.0,0.0,0.0,0.0,3.0,0.0",0.043969838266954754,286.8090485199136,0.942809041582,0.943833796579732,15002,パブリック スタンド 渋谷店,https://tabelog.com/tokyo/A1303/A130301/13213067/,バー・お酒（その他）,バー・お酒,35.65978167,139.6993022,東京都渋谷区渋谷1-25-6渋谷パークサイド共同ビル2F
"0,1,0,1,0.5,0,0,1,0","0.0,3.0,0.0,3.0,0.0,0.0,0.0,3.0,0.0",0.0284758294797651,291.45725115607047,0.942809041582,0.9432389738308365,12715,串木乃,https://tabelog.com/tokyo/A1303/A130301/13075199/,居酒屋,居酒屋,35.65989667,139.6993664,東京都渋谷区渋谷1-25-9
"0,1,0,1,0.5,0,0,1,0","0.0,3.0,0.0,3.0,0.0,0.0,0.0,3.0,0.0",0.02839542043205294,291.4813738703841,0.942809041582,0.9432365497532429,10778,会津,https://tabelog.com/tokyo/A1303/A130301/13075058/,居酒屋,居酒屋,35.65989722,139.6993667,東京都渋谷区渋谷1-25-9
"0,1,0,1,0.5,0,0,1,0","0.0,3.0,0.0,3.0,0.0,0.0,0.0,3.0,0.0",0.025887090286698444,292.23387291399047,0.942809041582,0.9431643707924937,14585,えのき2,https://tabelog.com/tokyo/A1303/A130301/13210125/,居酒屋、割烹・小料理,高級和食,35.65988472,139.6993397,東京都渋谷区渋谷1-25-9のんべい横丁
"0,1,0,1,0.5,0,0,1,0","0.0,3.0,0.0,3.0,0.0,0.0,0.0,3.0,0.0",0.018758142668995864,294.37255719930124,0.942809041582,0.9429956292609628,9481,まぐろ処,https://tabelog.com/tokyo/A1303/A130301/13051241/,魚介料理・海鮮料理、居酒屋,高級和食,35.65995944,139.6993994,東京都渋谷区渋谷1-25-10のんべい横丁
"0,1,0,1,0.5,0,0,1,0","0.0,2.0,0.0,3.0,0.0,0.0,0.0,3.0,0.0",0.01568140385677831,295.2955788429665,0.942809041582,0.9429394441404009,11658,バンコク屋台 カオサン 渋谷宮益坂,https://tabelog.com/tokyo/A1303/A130301/13209312/,タイ料理、タイカレー、居酒屋,居酒屋,35.66027917,139.7033872,東京都渋谷区渋谷1-8-5小山ビル2F
"0,1,0,1,0.5,0,0,1,0","0.0,3.0,0.0,3.0,0.0,0.0,0.0,0.0,3.0",0.6324290006196301,110.27129981411096,0.666666666667,0.9189183235027956,11943,博多漁家磯貝　 しらすくじら 渋谷ヒカリエ店,https://tabelog.com/tokyo/A1303/A130301/13140115/,居酒屋、魚介料理・海鮮料理、郷土料理（その他）,高級和食,35.659025,139.7017283,東京都渋谷区渋谷2-21-1渋谷ヒカリエ7F
"0,1,0,1,0.5,0,0,1,0","0.0,3.0,0.0,3.0,0.0,0.0,0.0,0.0,3.0",0.6146087320365614,115.61738038903158,0.666666666667,0.9067460162250696,13836,宮崎料理 万作 渋谷ヒカリエ店,https://tabelog.com/tokyo/A1303/A130301/13188242/,鳥料理、居酒屋、水炊き,焼肉・ホルモン・鍋,35.65904472,139.7013253,東京都渋谷区渋谷2-21-1渋谷ヒカリエ6F
"0,1,0,1,0.5,0,0,1,0","0.0,3.0,0.0,3.0,0.0,0.0,0.0,0.0,3.0",0.6023967867724538,119.28096396826388,0.666666666667,0.8985134017688449,12716,炭火串焼あられ,https://tabelog.com/tokyo/A1303/A130301/13059754/,串焼き、焼鳥、居酒屋,Ｂ級和食,35.65697278,139.7018467,東京都渋谷区渋谷3-18-9大野ビル2号館　2F
"0,1,0,1,0.5,0,0,1,0","0.0,3.0,0.0,3.0,3.0,0.0,0.0,0.0,3.0",0.5321862146115574,140.34413561653278,0.707106781187,0.8849983994463373,15189,渋谷三丁目酒場,https://tabelog.com/tokyo/A1303/A130301/13089932/,居酒屋、もつ焼き、定食・食堂,居酒屋,35.65681556,139.7020522,東京都渋谷区渋谷3-17-2清澤ビル2F
"0,1,0,1,0.5,0,0,1,0","0.0,3.0,0.0,3.0,3.0,0.0,0.0,0.0,3.0",0.5186742165599981,144.39773503200055,0.707106781187,0.8769395320796799,14842,ニュー信州,https://tabelog.com/tokyo/A1303/A130301/13014685/,居酒屋、魚介料理・海鮮料理、焼酎バー,高級和食,35.65673306,139.70168,東京都渋谷区渋谷3-22-11サンクスプライムビルB1このお店は「渋谷区渋谷3-20-16」から移転しています。※移転前の情報は最新のものとは異なります。移転前の店舗情報を見る
"0,1,0,1,0.5,0,0,1,0","0.0,3.0,0.0,3.0,3.0,0.0,0.0,0.0,3.0",0.49651744399882913,151.04476680035125,0.707106781187,0.8640194281352304,14088,IZAKAYA P/man,https://tabelog.com/tokyo/A1303/A130301/13188989/,居酒屋、ダイニングバー、バー,バー・お酒,35.6566811,139.7018215,東京都渋谷区渋谷3-22-111F・2Fこのお店は「渋谷区渋谷3-20-12」から移転しています。※移転前の情報は最新のものとは異なります。移転前の店舗情報を見る
"0,1,0,1,0.5,0,0,1,0","0.0,3.0,0.0,3.0,3.0,0.0,0.0,0.0,3.0",0.48207964051658964,155.3761078450231,0.707106781187,0.8558041714087425,13197,カトルセ,https://tabelog.com/tokyo/A1303/A130301/13120088/,スペイン料理、バル・バール、パスタ,洋食・西洋料理,35.65691472,139.7026672,東京都渋谷区渋谷3-10-14長崎堂ビルB１F
"0,1,0,1,0.5,0,0,1,0","0.0,3.0,0.0,3.0,3.0,0.0,0.0,0.0,3.0",0.4820712274291691,155.37863177124927,0.707106781187,0.8557994322941946,10786,ビストロ　イル・ド・レ,https://tabelog.com/tokyo/A1303/A130301/13179041/,ビストロ、ワインバー、居酒屋,洋食・西洋料理,35.65879583,139.7030758,東京都渋谷区渋谷2-15-1渋谷クロスタワー　1F
"0,1,0,1,0.5,0,0,1,0","0.0,3.0,0.0,3.0,0.0,0.0,0.0,0.0,3.0",0.5327543691016899,140.17368926949302,0.666666666667,0.8533883419882088,10961,かしわ 渋谷ヒカリエ店,https://tabelog.com/tokyo/A1303/A130301/13140093/,鳥料理、鉄板焼き、お好み焼き,洋食・西洋料理,35.65927583,139.7019206,東京都渋谷区渋谷2-21-1渋谷ヒカリエ7F
"0,1,0,1,0.5,0,0,1,0","0.0,3.0,0.0,3.0,3.0,0.0,0.0,0.0,3.0",0.4748228953249506,157.55313140251482,0.707106781187,0.8517375076423305,10509,浜ちゃん,https://tabelog.com/tokyo/A1303/A130301/13091442/,居酒屋、魚介料理・海鮮料理,高級和食,35.65690519,139.7026916,東京都渋谷区渋谷3-10-14長崎堂ビル1F
"0,1,0,1,0.5,0,0,1,0","0.0,3.0,0.0,3.0,0.0,0.0,0.0,0.0,3.0",0.5174461138491409,144.76616584525775,0.666666666667,0.8439164207325406,12536,餃子と牛たん 居酒屋おおとら 渋谷南口店,https://tabelog.com/tokyo/A1303/A130301/13189296/,居酒屋、餃子、牛タン,居酒屋,35.65673028,139.7016997,東京都渋谷区渋谷3-22-11サンクスプライムビル2F
"0,1,0,1,0.5,0,0,1,0","0.0,3.0,0.0,3.0,3.0,0.0,0.0,0.0,3.0",0.451446508369601,164.5660474891197,0.707106781187,0.8389302413902507,12859,慶家菜,https://tabelog.com/tokyo/A1303/A130301/13041450/,中華料理、餃子、飲茶・点心,アジア・エスニック、中華料理,35.65878333,139.7032044,東京都渋谷区渋谷2-15-1渋谷クロスタワー　１Ｆ
"0,1,0,1,0.5,0,0,1,0","0.0,3.0,0.0,3.0,3.0,0.0,0.0,0.0,3.0",0.442719995441855,167.1840013674435,0.707106781187,0.8342667405356852,11012,座空,https://tabelog.com/tokyo/A1303/A130301/13039316/,居酒屋、魚介料理・海鮮料理、日本酒バー,高級和食,35.65740389,139.7033131,東京都渋谷区渋谷3-10-19渋谷ＭＪ２ビル　Ｂ１Ｆ
"0,1,0,1,0.5,0,0,1,0","0.0,3.0,0.0,3.0,0.0,3.0,0.0,0.0,3.0",0.673331190535494,98.00064283935183,0.471404520791,0.8219471481611016,12483,渋谷ワヰン酒場,https://tabelog.com/tokyo/A1303/A130301/13163549/,イタリアン、ワインバー、バル・バール,バー・お酒,35.65715083,139.7016519,東京都渋谷区渋谷3-18-7渋谷一号館ビル6F
"0,1,0,1,0.5,0,0,1,0","0.0,3.0,0.0,3.0,3.0,0.0,0.0,0.0,3.0",0.410333970705965,176.8998087882105,0.707106781187,0.8175414163914412,14288,旬鮮酒場 天狗 宮益坂店,https://tabelog.com/tokyo/A1303/A130301/13085569/,居酒屋、魚介料理・海鮮料理、串焼き,高級和食,35.65947167,139.7007914,東京都渋谷区渋谷2-20-11
"0,1,0,1,0.5,0,0,1,0","0.0,3.0,0.0,3.0,0.0,3.0,0.0,0.0,3.0",0.6500141185458342,104.99576443624971,0.471404520791,0.8029573939700287,11576,ラ ボデガ 渋谷店,https://tabelog.com/tokyo/A1303/A130301/13140099/,スペイン料理、ワインバー、バル・バール,バー・お酒,35.65895361,139.7013625,東京都渋谷区渋谷2-21-1渋谷ヒカリエ7F
"0,1,0,1,0.5,0,0,1,0","0.0,3.0,0.0,3.0,3.0,0.0,0.0,0.0,3.0",0.33213637223804254,200.35908832858723,0.707106781187,0.7812263242898614,13319,ビストロ クー ハナレ,https://tabelog.com/tokyo/A1303/A130301/13115401/,ダイニングバー、イタリアン、ビストロ,洋食・西洋料理,35.65714595,139.6997094,東京都渋谷区桜丘町1-5大沼ビル５F
"0,1,0,1,0.5,0,0,1,0","0.0,3.0,0.0,3.0,3.0,0.0,0.0,0.0,3.0",0.33152339603818526,200.54298118854442,0.707106781187,0.7809659161069012,12588,まる-HIKARIEN- 渋谷本店,https://tabelog.com/tokyo/A1303/A130301/13181951/,居酒屋、和食（その他）、ダイニングバー,Ｂ級和食,35.65714417,139.6997083,東京都渋谷区桜丘町1-5大沼ビルB1F
"0,1,0,1,0.5,0,0,1,0","0.0,3.0,0.0,3.0,3.0,0.0,0.0,0.0,3.0",0.32364454185940983,202.90663744217704,0.707106781187,0.7776540294214307,12318,創作鉄板料理とワインを楽しむ店 ～渋谷 居酒屋 花花～,https://tabelog.com/tokyo/A1303/A130301/13024521/,居酒屋、鉄板焼き、もつ鍋,居酒屋,35.6571475,139.6996761,東京都渋谷区桜丘町1-5大沼ビル　２Ｆ
"0,1,0,1,0.5,0,0,1,0","0.0,3.0,0.0,3.0,3.0,0.0,0.0,0.0,3.0",0.32086721485326336,203.739835544021,0.707106781187,0.7765022662991334,10582,新寮,https://tabelog.com/tokyo/A1303/A130301/13191552/,居酒屋、郷土料理（その他）、鳥料理,高級和食,35.659765,139.7023869,東京都渋谷区渋谷2-19-20岡ビル3F
"0,1,0,1,0.5,0,0,1,0","0.0,3.0,0.0,3.0,3.0,0.0,0.0,0.0,3.0",0.30245192532642884,209.26442240207135,0.707106781187,0.769075527587287,10805,アンカラ 宮益坂店,https://tabelog.com/tokyo/A1303/A130301/13089864/,トルコ料理、アジア・エスニック料理（その他）、ダイニングバー,アジア・エスニック、中華料理,35.65978944,139.7024811,東京都渋谷区渋谷2-19-20宮益坂岡ビルB1
"0,1,0,1,0.5,0,0,1,0","0.0,3.0,0.0,3.0,3.0,0.0,0.0,0.0,3.0",0.27522330529159783,217.43300841252065,0.707106781187,0.7587805135713701,9884,ビストロバークー,https://tabelog.com/tokyo/A1303/A130301/13019301/,ダイニングバー、イタリアン、バル・バール,洋食・西洋料理,35.65712694,139.6995075,東京都渋谷区桜丘町2-2
"0,1,0,1,0.5,0,0,1,0","0.0,3.0,0.0,3.0,0.0,0.0,0.0,0.0,3.0",0.353551193841338,193.9346418475986,0.666666666667,0.7546143989555725,9860,米家,https://tabelog.com/tokyo/A1303/A130301/13140974/,居酒屋,居酒屋,35.65644179,139.7025196,東京都渋谷区渋谷3-17-5鈴屋ビルＢ1Ｆこのお店は「渋谷区渋谷1-8-10」から移転しています。※移転前の情報は最新のものとは異なります。移転前の店舗情報を見る
"0,1,0,1,0.5,0,0,1,0","0.0,3.0,0.0,3.0,0.0,3.0,0.0,0.0,3.0",0.5882081774661834,123.537546760145,0.471404520791,0.7537977727881074,15124,THE THEATRE TABLE,https://tabelog.com/tokyo/A1303/A130301/13137242/,イタリアン、ワインバー、ダイニングバー,バー・お酒,35.65914,139.7017933,東京都渋谷区渋谷2-21-1渋谷ヒカリエ11F
"0,1,0,1,0.5,0,0,1,0","0.0,3.0,0.0,3.0,3.0,0.0,0.0,0.0,3.0",0.2549520736157642,223.51437791527073,0.707106781187,0.7516651913192324,14390,九州酒場だんだん． 渋谷桜ヶ丘店,https://tabelog.com/tokyo/A1303/A130301/13141174/,居酒屋、もつ鍋、焼鳥,居酒屋,35.65727028,139.6993519,東京都渋谷区桜丘町2-12渋谷亀八ビル2F
"0,1,0,1,0.5,0,0,1,0","0.0,3.0,0.0,3.0,3.0,0.0,0.0,0.0,3.0",0.25481767251297366,223.5546982461079,0.707106781187,0.751619615380632,10426,四十八漁場 渋谷桜丘店,https://tabelog.com/tokyo/A1303/A130301/13148416/,魚介料理・海鮮料理、居酒屋、日本酒バー,高級和食,35.65726972,139.6993517,東京都渋谷区桜丘町2-12亀八ビル3F
"0,1,0,1,0.5,0,0,1,0","0.0,3.0,0.0,3.0,0.0,3.0,0.0,0.0,3.0",0.5825560503486562,125.23318489540313,0.471404520791,0.7493956058184811,14779,ビストロ＆バー タコニョッキ,https://tabelog.com/tokyo/A1303/A130301/13140097/,ビストロ、バー、カフェ,洋食・西洋料理,35.65916167,139.7015767,東京都渋谷区渋谷2-21-1渋谷ヒカリエ7F
"0,1,0,1,0.5,0,0,1,0","0.0,3.0,0.0,3.0,3.0,0.0,0.0,0.0,3.0",0.22901773690716556,231.29467892785033,0.707106781187,0.7432692135546042,10858,宮崎県日南市　塚田農場 渋谷宮益坂店,https://tabelog.com/tokyo/A1303/A130301/13153961/,居酒屋、鳥料理、水炊き,焼肉・ホルモン・鍋,35.65996639,139.7006778,東京都渋谷区渋谷1-14-6平野屋ビル１Ｆ
"0,1,0,1,0.5,0,0,1,0","0.0,3.0,0.0,3.0,3.0,0.0,0.0,0.0,3.0",0.22180177572547952,233.45946728235614,0.707106781187,0.7410776124772466,10761,花咲かじいさん 桜丘店,https://tabelog.com/tokyo/A1303/A130301/13014669/,居酒屋、日本酒バー、創作料理,バー・お酒,35.65661583,139.6997314,東京都渋谷区桜丘町3-22サクラヤビル　Ｂ１Ｆ
"0,1,0,1,0.5,0,0,1,0","0.0,3.0,0.0,3.0,3.0,0.0,0.0,0.0,3.0",0.20984256398971504,237.04723080308548,0.707106781187,0.737586538422291,11776,A muse,https://tabelog.com/tokyo/A1303/A130301/13182182/,バル・バール、和食（その他）、居酒屋,Ｂ級和食,35.65663472,139.6996578,東京都渋谷区桜丘町3-22
"0,1,0,1,0.5,0,0,1,0","0.0,3.0,0.0,3.0,3.0,0.0,0.0,0.0,3.0",0.20967427380185902,237.0977178594423,0.707106781187,0.7375386776938123,10486,バルハッテンハチ,https://tabelog.com/tokyo/A1303/A130301/13091658/,バー,バー・お酒,35.65697083,139.6993647,東京都渋谷区桜丘町2-8志水ビル3F
"0,1,0,1,0.5,0,0,1,0","0.0,3.0,0.0,3.0,3.0,0.0,0.0,0.0,3.0",0.20442347435032568,238.6729576949023,0.707106781187,0.7360631473355111,12347,サンカイ,https://tabelog.com/tokyo/A1303/A130301/13026304/,居酒屋、創作料理、ダイニングバー,創作料理・無国籍料理,35.6601175,139.7009803,東京都渋谷区渋谷1-12-24707渋谷ビル3F
"0,1,0,1,0.5,0,0,1,0","0.0,2.0,0.0,3.0,3.0,0.0,0.0,0.0,3.0",0.20371734809856443,238.88479557043067,0.707106781187,0.7358673507612032,9651,金の蔵 渋谷東口店,https://tabelog.com/tokyo/A1303/A130301/13119477/,居酒屋、ちゃんこ鍋、ピザ,居酒屋,35.66000333,139.7005697,東京都渋谷区渋谷1-14平野屋ビル
"0,1,0,1,0.5,0,0,1,0","0.0,3.0,0.0,3.0,3.0,0.0,0.0,0.0,3.0",0.19946258489120794,240.16122453263762,0.707106781187,0.7347008389620107,11675,餃子と牛たん 居酒屋おおとら 宮益坂本店,https://tabelog.com/tokyo/A1303/A130301/13138935/,居酒屋、餃子、牛タン,居酒屋,35.6601525,139.7010919,東京都渋谷区渋谷1-12-22イセビル1F
"0,1,0,1,0.5,0,0,1,0","0.0,3.0,0.0,3.0,3.0,0.0,0.0,0.0,3.0",0.19227904539029889,242.31628638291033,0.707106781187,0.7327832089344056,12585,LAND Seafood,https://tabelog.com/tokyo/A1303/A130301/13215057/,地中海料理、イタリアン,洋食・西洋料理,35.65598254,139.7025539,東京都渋谷区渋谷3-27-1100BANCH1F
"0,1,0,1,0.5,0,0,1,0","0.0,3.0,0.0,3.0,3.0,0.0,0.0,0.0,3.0",0.18105678773974718,245.68296367807585,0.707106781187,0.7299188724691504,14950,炉端と天ぷら屋台 さくら亭,https://tabelog.com/tokyo/A1303/A130301/13200091/,居酒屋、天ぷら、魚介料理・海鮮料理,高級和食,35.65652194,139.6996539,東京都渋谷区桜丘町3丁目22
"0,1,0,1,0.5,0,0,1,0","0.0,3.0,0.0,3.0,3.0,0.0,0.0,0.0,3.0",0.16871195070426778,249.38641478871966,0.707106781187,0.7269551033663905,9557,かぶ金とん 渋谷桜丘店,https://tabelog.com/tokyo/A1303/A130301/13162939/,居酒屋、鳥料理、もつ鍋,Ｂ級和食,35.65588578,139.7008258,東京都渋谷区桜丘町3-121F
"0,1,0,1,0.5,0,0,1,0","0.0,3.0,0.0,3.0,0.0,0.0,0.0,0.0,3.0",0.2817597276692163,215.4720816992351,0.666666666667,0.7237630748944542,9821,鳥ぎん 渋谷店,https://tabelog.com/tokyo/A1303/A130301/13002030/,釜飯、焼鳥、居酒屋,Ｂ級和食,35.65992611,139.7011,東京都渋谷区渋谷1-13-9たくぎんビル　Ｂ１Ｆ
"0,1,0,1,0.5,0,0,1,0","0.0,3.0,0.0,3.0,3.0,0.0,0.0,0.0,3.0",0.15307324821230017,254.07802553630995,0.707106781187,0.7234856040850188,9802,今も昔や,https://tabelog.com/tokyo/A1303/A130301/13004733/,居酒屋、ダイニングバー、創作料理,創作料理・無国籍料理,35.66026278,139.7009917,東京都渋谷区渋谷1-12-24７０７渋谷ビル　２Ｆ
"0,1,0,1,0.5,0,0,1,0","0.0,3.0,0.0,3.0,3.0,0.0,0.0,0.0,3.0",0.14407462759521594,256.7776117214352,0.707106781187,0.7216352945336725,14924,沖縄料理 あしびな～,https://tabelog.com/tokyo/A1303/A130301/13018951/,沖縄料理、居酒屋、ダイニングバー,バー・お酒,35.65671611,139.699305,東京都渋谷区桜丘町16-15カーサ渋谷　Ｂ１Ｆ
"0,1,0,1,0.5,0,0,1,0","0.0,3.0,0.0,3.0,3.0,0.0,0.0,0.0,3.0",0.14191157144079378,257.42652856776186,0.707106781187,0.7212065543994978,9611,だしや 渋谷宮益坂,https://tabelog.com/tokyo/A1303/A130301/13123846/,和食（その他）、居酒屋、水炊き,Ｂ級和食,35.66014167,139.7004475,東京都渋谷区渋谷1-14-15森ビルB1
"0,1,0,1,0.5,0,0,1,0","0.0,3.0,0.0,3.0,0.0,3.0,0.0,0.0,3.0",0.5441779560430325,136.74661318709025,0.471404520791,0.719966575658478,9693,ごっつ食べなはれ 渋谷店,https://tabelog.com/tokyo/A1303/A130301/13211361/,しゃぶしゃぶ、和食（その他）、バイキング,Ｂ級和食,35.65915972,139.7022508,東京都渋谷区渋谷2-17-5シオノギ渋谷ビル2・3F
"0,1,0,1,0.5,0,0,1,0","0.0,3.0,0.0,3.0,3.0,0.0,0.0,0.0,3.0",0.12230083310128483,263.30975006961455,0.707106781187,0.7176053886205624,9943,土間土間 渋谷宮益坂店,https://tabelog.com/tokyo/A1303/A130301/13051969/,居酒屋、創作料理、ダイニングバー,創作料理・無国籍料理,35.66036028,139.7010608,東京都渋谷区渋谷1-12-1カレイド渋谷宮益坂　６Ｆ
"0,1,0,1,0.5,0,0,1,0","0.0,3.0,0.0,3.0,3.0,0.0,0.0,0.0,3.0",0.12190583903201532,263.4282482903954,0.707106781187,0.7175381757022408,13912,Bane BAGUS 渋谷宮益坂店,https://tabelog.com/tokyo/A1303/A130301/13026938/,バー,バー・お酒,35.66035944,139.7010492,東京都渋谷区渋谷1-12-1カレイド渋谷宮益坂B1F
"0,1,0,1,0.5,0,0,1,0","0.0,3.0,0.0,3.0,3.0,0.0,0.0,0.0,3.0",0.11649584643421179,265.05124606973646,0.707106781187,0.7166388785409452,10181,やきとり家すみれ 渋谷宮益坂店,https://tabelog.com/tokyo/A1303/A130301/13183034/,居酒屋、焼鳥、バル・バール,Ｂ級和食,35.66020556,139.7028558,東京都渋谷区渋谷1-8-8
