user_vec,shop_vec,dist_score,distance [m],cosθ,oaiso_score,id,shop_name,URL,genre,oaiso_genre,lat,lng,address
"0,1,0,1,0,0,0,1,0","0.0,3.0,0.0,3.0,0.0,0.0,0.0,3.0,0.0",0.9145100867486678,34.19596530053285,1.0,1.3551120613311123,28338,京のおもてなし,https://tabelog.com/tokyo/A1304/A130401/13185331/,和食（その他）,Ｂ級和食,35.68956806,139.6999839,東京都新宿区新宿4-1-13田園新宿ビル6F
"0,1,0,1,0,0,0,1,0","0.0,3.0,0.0,3.0,0.0,0.0,0.0,3.0,0.0",0.8937193193720375,42.51227225118501,1.0,1.3411689758635257,27623,魚真 新宿店,https://tabelog.com/tokyo/A1304/A130401/13115198/,居酒屋、魚介料理・海鮮料理,高級和食,35.68978667,139.7002428,東京都新宿区新宿3-35-52F
"0,1,0,1,0,0,0,1,0","0.0,3.0,0.0,3.0,0.0,0.0,0.0,3.0,0.0",0.8057180066093885,77.71279735624461,1.0,1.2842046200565573,15015,オイスターバー ワーフ,https://tabelog.com/tokyo/A1304/A130401/13193551/,オイスターバー,創作料理・無国籍料理,35.68885167,139.6997828,東京都渋谷区千駄ヶ谷5-24-55NEWoManSHINJUKU2F
"0,1,0,1,0,0,0,1,0","0.0,3.0,0.0,3.0,0.0,0.0,0.0,3.0,0.0",0.742129551264255,103.14817949429798,1.0,1.2452936484458934,27076,扇寿司 中央口店,https://tabelog.com/tokyo/A1304/A130401/13048468/,寿司、海鮮丼、魚介料理・海鮮料理,高級和食,35.69028776,139.6999413,東京都新宿区新宿3丁目36-14三平酒寮中央口店
"0,1,0,1,0,0,0,1,0","0.0,3.0,0.0,3.0,0.0,0.0,0.0,3.0,0.0",0.6614539307516673,135.4184276993331,1.0,1.1989667645547275,26138,手作り料理とワインと地酒 なかなか,https://tabelog.com/tokyo/A1304/A130401/13017287/,居酒屋、創作料理,創作料理・無国籍料理,35.69058944,139.7006767,東京都新宿区新宿3-34-11ピースビル6Ｆ
"0,1,0,1,0,0,0,1,0","0.0,3.0,0.0,3.0,0.0,0.0,0.0,0.0,3.0",0.9354903970073859,25.803841197045617,0.707106781187,1.1726646080158796,28065,新宿牡蠣入レ時,https://tabelog.com/tokyo/A1304/A130401/13174670/,居酒屋、魚介料理・海鮮料理、シーフード,創作料理・無国籍料理,35.68931534,139.700568,東京都新宿区新宿4-2-8菊ビル1F
"0,1,0,1,0,0,0,1,0","0.0,3.0,0.0,3.0,0.0,0.0,0.0,3.0,0.0",0.568787054830686,172.4851780677256,1.0,1.1504428337570562,14786,焼肉トラジ 新宿タカシマヤ タイムズスクエア店,https://tabelog.com/tokyo/A1304/A130403/13189379/,焼肉,焼肉・ホルモン・鍋,35.6878625,139.7000894,東京都渋谷区千駄ヶ谷5-24-2新宿タカシマヤアビル14F
"0,1,0,1,0,0,0,1,0","0.0,3.0,0.0,3.0,0.0,0.0,0.0,3.0,0.0",0.5219301025961011,191.22795896155958,1.0,1.1280119822040795,30445,陶玄房,https://tabelog.com/tokyo/A1304/A130401/13006817/,和食（その他）、居酒屋、ダイニングバー,Ｂ級和食,35.69075222,139.7016267,東京都新宿区新宿3-31-5新宿ペガサス館B1F
"0,1,0,1,0,0,0,1,0","0.0,3.0,0.0,3.0,0.0,0.0,0.0,0.0,3.0",0.8692656456930125,52.29374172279499,0.707106781187,1.1205457432796262,26086,ビストロ 熟肉,https://tabelog.com/tokyo/A1304/A130401/13156456/,ビストロ、ステーキ,洋食・西洋料理,35.6889404,139.7003875,東京都新宿区新宿4-1-9新宿ユースビル7Ｆ
"0,1,0,1,0,0,0,1,0","0.0,3.0,0.0,3.0,0.0,0.0,0.0,3.0,0.0",0.5054325076526343,197.82699693894628,1.0,1.1204740156701674,28661,炭火焼肉 美龍,https://tabelog.com/tokyo/A1304/A130401/13047258/,焼肉,焼肉・ホルモン・鍋,35.69071806,139.7017872,東京都新宿区新宿3丁目31-6
"0,1,0,1,0,0,0,1,0","0.0,3.0,0.0,3.0,0.0,0.0,0.0,0.0,3.0",0.8685902024674544,52.563919013018214,0.707106781187,1.1200218479219293,29947,老辺餃子館 新宿別館,https://tabelog.com/tokyo/A1304/A130401/13059482/,餃子、中華料理、刀削麺,アジア・エスニック、中華料理,35.68893778,139.7003861,東京都新宿区新宿4-1-9PAXビル4F
"0,1,0,1,0,0,0,1,0","0.0,3.0,0.0,3.0,0.0,0.0,0.0,3.0,0.0",0.4833172002333572,206.67311990665712,1.0,1.1106734515785506,12680,赤坂 ふきぬき 新宿タカシマヤタイムズスクエア店,https://tabelog.com/tokyo/A1304/A130401/13035273/,うなぎ,高級和食,35.68754722,139.7001781,東京都渋谷区千駄ヶ谷5-24-2新宿タカシマヤ14F
"0,1,0,1,0,0,0,1,0","0.0,3.0,0.0,3.0,0.0,0.0,0.0,3.0,0.0",0.48316107286763776,206.7355708529449,1.0,1.1106055205763237,15181,鼎泰豐 新宿店,https://tabelog.com/tokyo/A1304/A130401/13004268/,飲茶・点心、中華料理,アジア・エスニック、中華料理,35.68754667,139.7001778,東京都渋谷区千駄ヶ谷5-24-2新宿タカシマヤ12F
"0,1,0,1,0,0,0,1,0","0.0,3.0,0.0,3.0,0.0,0.0,0.0,0.0,3.0",0.8548940697573816,58.04237209704734,0.707106781187,1.1094340316153721,26572,PIZZERIA　CAPOLI,https://tabelog.com/tokyo/A1304/A130401/13123990/,ピザ、イタリアン、パスタ,洋食・西洋料理,35.68888778,139.7002278,東京都新宿区新宿4-1-9Ｂ１Ｆ
"0,1,0,1,0,0,0,1,0","0.0,3.0,0.0,3.0,0.0,0.0,0.0,3.0,0.0",0.47727978147653066,209.08808740938773,1.0,1.1080595605861108,9287,サロン ブッチャー アンド ビア,https://tabelog.com/tokyo/A1304/A130401/13194452/,ビストロ、ワインバー、ビアバー,バー・お酒,35.68844722,139.6983181,東京都渋谷区千駄ヶ谷5-24-55NEWoManSHINJUKU2F
"0,1,0,1,0,0,0,1,0","0.0,3.0,0.0,3.0,0.0,0.0,0.0,0.0,3.0",0.8309389241107703,67.62443035569189,0.707106781187,1.091081800600837,27796,完全個室居酒屋 星夜の宴 新宿東南口店,https://tabelog.com/tokyo/A1304/A130401/13154071/,居酒屋、ダイニングバー、居酒屋・ダイニングバー（その他）,居酒屋,35.68990111,139.6998686,東京都新宿区新宿3-36-2新宿キリンビル3Ｆ
"0,1,0,1,0,0,0,1,0","0.0,3.0,0.0,3.0,0.0,0.0,0.0,0.0,3.0",0.8137249081095024,74.51003675619901,0.707106781187,1.0780297890493649,30834,エロうま野菜と肉バル カンビーフ 新宿東南口店,https://tabelog.com/tokyo/A1304/A130401/13195205/,バル・バール、イタリアン、焼肉,洋食・西洋料理,35.68993167,139.6997922,東京都新宿区新宿3-36-2新宿キリンビルB2F
"0,1,0,1,0,0,0,1,0","0.0,3.0,0.0,3.0,3.0,0.0,0.0,0.0,3.0",0.9542229184230072,18.310832630797105,0.5,1.0772842605569437,29122,串の蔵 新宿南口店,https://tabelog.com/tokyo/A1304/A130401/13099008/,串焼き、郷土料理（その他）、居酒屋,高級和食,35.68924199,139.7003027,東京都新宿区新宿4-1-13田園新宿ビル　３F
"0,1,0,1,0,0,0,1,0","0.0,3.0,0.0,3.0,3.0,0.0,0.0,0.0,3.0",0.9463301328878287,21.46794684486848,0.5,1.070299360184568,29409,宮崎県日南市 塚田農場 新宿南口店,https://tabelog.com/tokyo/A1304/A130401/13161509/,居酒屋、もつ鍋、鳥料理,Ｂ級和食,35.68921722,139.7003522,東京都新宿区新宿4-1-13田園新宿ビル8F
"0,1,0,1,0,0,0,1,0","0.0,3.0,0.0,3.0,3.0,0.0,0.0,0.0,3.0",0.9452142801797909,21.914287928083624,0.5,1.069312880057002,27859,沖縄ダイニング がじゅまる 新宿南口店,https://tabelog.com/tokyo/A1304/A130401/13183744/,沖縄料理、居酒屋、しゃぶしゃぶ,焼肉・ホルモン・鍋,35.68921278,139.70035,東京都新宿区新宿4-1-13田園新宿ビル7F
"0,1,0,1,0,0,0,1,0","0.0,3.0,0.0,3.0,3.0,0.0,0.0,0.0,3.0",0.9441894111627057,22.324235534917698,0.5,1.068407059201584,26583,新宿ワイン酒場,https://tabelog.com/tokyo/A1304/A130401/13113583/,バル・バール、イタリアン、バー,洋食・西洋料理,35.689365,139.7005472,東京都新宿区新宿4-2-92F
"0,1,0,1,0,0,0,1,0","0.0,3.0,0.0,3.0,0.0,0.0,0.0,0.0,3.0",0.7829366545278569,86.82533818885724,0.707106781187,1.054983319774902,31461,はちすか小六 新宿東口本店,https://tabelog.com/tokyo/A1304/A130401/13152098/,居酒屋,居酒屋,35.69018056,139.7001611,東京都新宿区新宿3-35-10ローヤルプリンスビル5F
"0,1,0,1,0,0,0,1,0","0.0,3.0,0.0,3.0,0.0,0.0,0.0,3.0,0.0",0.28459706028865084,286.16117588453966,1.0,1.0397093279974658,31511,マーケットレストランAGIO 新宿店,https://tabelog.com/tokyo/A1304/A130401/13000916/,イタリアン、ダイニングバー、居酒屋,洋食・西洋料理,35.69116583,139.7026183,東京都新宿区新宿3-14-1伊勢丹新宿店7F
"0,1,0,1,0,0,0,1,0","0.0,3.0,0.0,3.0,3.0,3.0,0.0,0.0,3.0",0.955194065652829,17.922373738868355,0.408248290464,1.0387792690100472,26703,うまかばる,https://tabelog.com/tokyo/A1304/A130401/13166792/,居酒屋、ダイニングバー、しゃぶしゃぶ,焼肉・ホルモン・鍋,35.68924833,139.7003431,東京都新宿区新宿4-1-13田園新宿ビル4F
"0,1,0,1,0,0,0,1,0","0.0,3.0,0.0,3.0,3.0,0.0,0.0,0.0,3.0",0.9078884771368027,36.84460914527893,0.5,1.0364658638458784,30261,NAKAYAMAYA,https://tabelog.com/tokyo/A1304/A130401/13092038/,イタリアン、ワインバー,バー・お酒,35.68920333,139.7006275,東京都新宿区新宿4-2-7中山ビル　１Ｆ
"0,1,0,1,0,0,0,1,0","0.0,3.0,0.0,3.0,3.0,3.0,0.0,0.0,3.0",0.9466053327539832,21.357866898406716,0.408248290464,1.0308871532155912,30847,恋咲くら 新宿東南口店,https://tabelog.com/tokyo/A1304/A130401/13167274/,居酒屋、ダイニングバー、魚介料理・海鮮料理,高級和食,35.68921833,139.7003528,東京都新宿区新宿4-1-13田園新宿ビル4Ｆ
"0,1,0,1,0,0,0,1,0","0.0,2.0,0.0,3.0,0.0,0.0,0.0,3.0,0.0",0.2352938574356496,305.88245702574017,1.0,1.0273087166703823,30668,うしや 新宿三丁目店,https://tabelog.com/tokyo/A1304/A130401/13131824/,焼肉、ホルモン、もつ鍋,焼肉・ホルモン・鍋,35.69090139,139.7031458,東京都新宿区新宿3-4-8京王フレンテ新宿三丁目F
"0,1,0,1,0,0,0,1,0","0.0,3.0,0.0,3.0,0.0,0.0,0.0,3.0,0.0",0.22859651897075636,308.56139241169745,1.0,1.0257954808272198,32084,得 新宿Ⅱ,https://tabelog.com/tokyo/A1304/A130401/13017837/,居酒屋、無国籍料理、焼酎バー,創作料理・無国籍料理,35.69212583,139.7010228,東京都新宿区新宿3-17-5新宿ニュー富士ビル　７Ｆ
"0,1,0,1,0,0,0,1,0","0.0,2.0,0.0,3.0,0.0,0.0,0.0,3.0,0.0",0.22302207884021272,310.7911684639149,1.0,1.024567639372926,27184,妻家房 京王新宿店,https://tabelog.com/tokyo/A1304/A130401/13183750/,韓国料理,アジア・エスニック、中華料理,35.69015111,139.6969958,東京都新宿区西新宿1-1-4京王百貨店新宿店B1F
"0,1,0,1,0,0,0,1,0","0.0,3.0,0.0,3.0,0.0,0.0,0.0,0.0,3.0",0.7383091711139025,104.67633155443897,0.707106781187,1.0223015368035488,32009,宮崎県日南市 塚田農場 新宿東南口店,https://tabelog.com/tokyo/A1304/A130401/13124346/,居酒屋、もつ鍋、鳥料理,Ｂ級和食,35.69028444,139.6998811,東京都新宿区新宿3-36-15新宿内野ビル２Ｆ
"0,1,0,1,0,0,0,1,0","0.0,3.0,0.0,3.0,0.0,0.0,0.0,3.0,0.0",0.17579158652071855,329.6833653917126,1.0,1.0153337785632226,28772,すしざんまい 新宿東口店,https://tabelog.com/tokyo/A1304/A130401/13185643/,寿司、魚介料理・海鮮料理、海鮮丼,高級和食,35.69237806,139.7002533,東京都新宿区新宿3-18-4セノビル3F
"0,1,0,1,0,0,0,1,0","0.0,3.0,0.0,3.0,0.0,0.0,0.0,3.0,0.0",0.17429906499407963,330.28037400236815,1.0,1.0150764326186528,26108,新宿 立吉,https://tabelog.com/tokyo/A1304/A130401/13011911/,串揚げ・串かつ,Ｂ級和食,35.69118861,139.7032292,東京都新宿区新宿3-5-3高山ランド会館9F
"0,1,0,1,0,0,0,1,0","0.0,3.0,0.0,3.0,0.0,0.0,0.0,3.0,0.0",0.1715539333795425,331.378426648183,1.0,1.0146086694179153,27571,うなぎ双葉 京王モール店,https://tabelog.com/tokyo/A1304/A130401/13024032/,うなぎ,高級和食,35.6898608,139.6966875,東京都新宿区西新宿1京王モール
"0,1,0,1,0,0,0,1,0","0.0,3.0,0.0,3.0,0.0,0.0,0.0,3.0,0.0",0.1101402889479553,355.9438844208179,1.0,1.0060471575674468,28902,鮨処 銀座福助 新宿小田急店,https://tabelog.com/tokyo/A1304/A130401/13019038/,寿司,高級和食,35.69124667,139.6970844,東京都新宿区西新宿1-1-3小田急百貨店新宿店マンハッタンヒルズ　12Ｆ
"0,1,0,1,0,0,0,1,0","0.0,3.0,0.0,3.0,0.0,0.0,0.0,3.0,0.0",0.10724351815910055,357.1025927363598,1.0,1.0057341458790894,30043,セットオフ・ミュー,https://tabelog.com/tokyo/A1304/A130401/13036052/,バー,バー・お酒,35.69067222,139.7039336,東京都新宿区新宿3-3-7三慶ビル1F
"0,1,0,1,0,0,0,1,0","0.0,2.0,0.0,3.0,3.0,0.0,0.0,3.0,0.0",0.5819583467035697,167.2166613185721,0.816496580928,1.002667534113187,26286,樽一 新宿三丁目店,https://tabelog.com/tokyo/A1304/A130401/13212763/,居酒屋、郷土料理（その他）、くじら料理,Ｂ級和食,35.69082833,139.7009203,東京都新宿区新宿3-28-2フクモトビル4F
"0,1,0,1,0,0,0,1,0","0.0,3.0,0.0,3.0,3.0,0.0,0.0,0.0,3.0",0.8690140805951287,52.39436776194848,0.5,1.0025893836823712,31238,韓花,https://tabelog.com/tokyo/A1304/A130401/13023141/,韓国料理、韓国鍋、冷麺,アジア・エスニック、中華料理,35.68895528,139.7004747,東京都新宿区新宿4-1-9新宿ユースビルＰＡＸ　２Ｆ
"0,1,0,1,0,0,0,1,0","0.0,3.0,0.0,3.0,0.0,0.0,0.0,3.0,0.0",0.054984264070593696,378.0062943717625,1.0,1.0015104938518542,31945,ペイン,https://tabelog.com/tokyo/A1304/A130401/13054947/,バー,バー・お酒,35.69088333,139.7040697,東京都新宿区新宿3-7-5
"0,1,0,1,0,0,0,1,0","0.0,3.0,0.0,3.0,0.0,0.0,0.0,3.0,0.0",0.054681514360955676,378.12739425561773,1.0,1.001493918110743,31342,小ばやし,https://tabelog.com/tokyo/A1304/A130401/13041681/,うなぎ、すき焼き、ふぐ,高級和食,35.69279323,139.6998347,東京都新宿区新宿3-25-6
"0,1,0,1,0,0,0,1,0","0.0,3.0,0.0,3.0,0.0,0.0,0.0,3.0,0.0",0.054526240140666,378.1895039437336,1.0,1.0014854521478969,31248,チャコールバル デコ,https://tabelog.com/tokyo/A1304/A130401/13046044/,ダイニングバー、西洋各国料理（その他）、炭火焼き,創作料理・無国籍料理,35.69129806,139.7037822,東京都新宿区新宿3-16-18第一玉屋ビル　Ｂ１Ｆ
"0,1,0,1,0,0,0,1,0","0.0,3.0,0.0,3.0,0.0,0.0,0.0,3.0,0.0",0.04951964545598102,380.1921418176076,1.0,1.0012253469055237,25915,串の坊 新宿伊勢丹会館店,https://tabelog.com/tokyo/A1304/A130401/13000957/,串揚げ・串かつ,Ｂ級和食,35.69252972,139.7020353,東京都新宿区新宿3-15-17伊勢丹会館８Ｆ・３Ｆ（禁煙室）
"0,1,0,1,0,0,0,1,0","0.0,3.0,0.0,3.0,0.0,0.0,0.0,3.0,0.0",0.012270513474779818,395.0917946100881,1.0,1.0000752799169346,31451,戦国英雄伝,https://tabelog.com/tokyo/A1304/A130401/13158781/,居酒屋,居酒屋,35.69296139,139.7000425,東京都新宿区新宿3-21-17東新ビルB1F
"0,1,0,1,0,0,0,1,0","0.0,3.0,0.0,3.0,0.0,0.0,0.0,3.0,0.0",0.006580901706333435,397.3676393174666,1.0,1.0000216538991886,26282,STING,https://tabelog.com/tokyo/A1304/A130401/13111409/,バー,バー・お酒,35.6907075,139.7043964,東京都新宿区新宿3-8-2クロスビル3F
"0,1,0,1,0,0,0,1,0","0.0,3.0,0.0,3.0,0.0,0.0,0.0,0.0,3.0",0.7035288175012583,118.58847299949666,0.707106781187,0.9974732061838647,30508,鳥良商店 新宿東南口店,https://tabelog.com/tokyo/A1304/A130401/13027917/,鳥料理、焼鳥、居酒屋,Ｂ級和食,35.69030389,139.7010186,東京都新宿区新宿3-34-16池田プラザビル5F
"0,1,0,1,0,0,0,1,0","0.0,3.0,0.0,3.0,3.0,0.0,0.0,0.0,3.0",0.8567476814352389,57.300927425904455,0.5,0.9919761033637139,28705,かこいや 新宿ユースビル店,https://tabelog.com/tokyo/A1304/A130401/13027116/,居酒屋、創作料理,創作料理・無国籍料理,35.68889056,139.7003078,東京都新宿区新宿4-1-9新宿ユースビル5F
"0,1,0,1,0,0,0,1,0","0.0,3.0,0.0,3.0,0.0,0.0,0.0,0.0,3.0",0.6863303331691663,125.46786673233353,0.707106781187,0.9854183508683501,31246,串の蔵 新宿東口店,https://tabelog.com/tokyo/A1304/A130401/13141960/,居酒屋、焼鳥、郷土料理（その他）,高級和食,35.690405,139.7009578,東京都新宿区新宿3-34-16池田プラザビルB1F
"0,1,0,1,0,0,0,1,0","0.0,3.0,0.0,3.0,3.0,0.0,0.0,0.0,3.0",0.8405045318883668,63.79818724465326,0.5,0.9779815274967533,26677,台湾料理　味王,https://tabelog.com/tokyo/A1304/A130401/13006785/,中華料理、台湾料理、飲茶・点心,アジア・エスニック、中華料理,35.68986472,139.6998794,東京都新宿区新宿3-36-18三協ビル3Ｆ
"0,1,0,1,0,0,0,1,0","0.0,3.0,0.0,3.0,0.0,0.0,0.0,0.0,3.0",0.6707420193411968,131.70319226352126,0.707106781187,0.9746254955160502,29117,悠,https://tabelog.com/tokyo/A1304/A130401/13131319/,居酒屋、創作料理、ダイニングバー,創作料理・無国籍料理,35.69056333,139.7006347,東京都新宿区新宿3-34-11ピースビル3F
"0,1,0,1,0,0,0,1,0","0.0,3.0,0.0,3.0,3.0,0.0,0.0,0.0,3.0",0.8290783784852297,68.36864860590812,0.5,0.9681791970868294,28276,美豚 by マルハチ,https://tabelog.com/tokyo/A1304/A130401/13037532/,韓国料理、豚料理、焼肉,焼肉・ホルモン・鍋,35.68990111,139.6998547,東京都新宿区新宿3-36-2キリンビル　Ｂ１Ｆ
"0,1,0,1,0,0,0,1,0","0.0,3.0,0.0,3.0,0.0,0.0,0.0,0.0,3.0",0.6505889466630618,139.76442133477528,0.707106781187,0.9608673048450301,28930,KICHIRI 新宿店,https://tabelog.com/tokyo/A1304/A130401/13121919/,居酒屋、和食（その他）、創作料理,Ｂ級和食,35.69053722,139.6996242,東京都新宿区新宿3-36-10ミラザ新宿4F
"0,1,0,1,0,0,0,1,0","0.0,3.0,0.0,3.0,3.0,0.0,0.0,0.0,3.0",0.8093997811202002,76.24008755191991,0.5,0.9513821554335712,28012,ウスキュダル,https://tabelog.com/tokyo/A1304/A130401/13000928/,トルコ料理、西洋各国料理（その他）、アジア・エスニック料理（その他）,洋食・西洋料理,35.68989417,139.7009,東京都新宿区新宿3-35-1小宮ビル　２Ｆ
"0,1,0,1,0,0,0,1,0","0.0,3.0,0.0,3.0,0.0,3.0,0.0,0.0,3.0",0.7948407165235875,82.06371339056497,0.5,0.9390270308376271,31777,新宿やさい 心菜,https://tabelog.com/tokyo/A1304/A130401/13173241/,ダイニングバー、イタリアン、野菜料理,洋食・西洋料理,35.69014611,139.7002722,東京都新宿区新宿3-35-11タイムスビル2F
"0,1,0,1,0,0,0,1,0","0.0,3.0,0.0,3.0,0.0,0.0,0.0,0.0,3.0",0.6171735077880472,153.1305968847811,0.707106781187,0.9385644030728008,29361,鮮や一夜 新宿東口駅前店,https://tabelog.com/tokyo/A1304/A130401/13121888/,居酒屋、魚介料理・海鮮料理、鍋（その他）,高級和食,35.69064838,139.6995667,東京都新宿区新宿3-36-10ミラザ新宿　5F
"0,1,0,1,0,0,0,1,0","0.0,3.0,0.0,3.0,0.0,0.0,0.0,0.0,3.0",0.6165209892790436,153.39160428838255,0.707106781187,0.9381354540905117,27130,夢や京町しずく 新宿東口駅前店,https://tabelog.com/tokyo/A1304/A130401/13121889/,居酒屋、創作料理、鍋（その他）,焼肉・ホルモン・鍋,35.69064833,139.69956,東京都新宿区新宿3-36-10ミラザ新宿　5F
"0,1,0,1,0,0,0,1,0","0.0,3.0,0.0,3.0,3.0,0.0,0.0,0.0,3.0",0.7865250611995519,85.38997552017925,0.5,0.9319987510157719,31219,とさか,https://tabelog.com/tokyo/A1304/A130401/13040635/,鳥料理、居酒屋、焼鳥,Ｂ級和食,35.69016306,139.7004822,東京都新宿区新宿3-35-13裕永ビル２F
"0,1,0,1,0,0,0,1,0","0.0,3.0,0.0,3.0,3.0,0.0,0.0,0.0,3.0",0.786010572806681,85.59577087732758,0.5,0.9315646089047644,31262,魚米 新宿店,https://tabelog.com/tokyo/A1304/A130401/13035698/,魚介料理・海鮮料理、居酒屋、日本酒バー,高級和食,35.69016583,139.7001356,東京都新宿区新宿3-35-10ローヤルプリンスビルB1F
"0,1,0,1,0,0,0,1,0","0.0,2.0,0.0,3.0,3.0,0.0,0.0,0.0,3.0",0.785402361402504,85.8390554389984,0.5,0.9310514858463143,30769,もつ鍋きむら屋 新宿南口,https://tabelog.com/tokyo/A1304/A130401/13050490/,居酒屋、もつ鍋、郷土料理（その他）,高級和食,35.69017972,139.7003525,東京都新宿区新宿3-35-12新東ビル　１Ｆ
"0,1,0,1,0,0,0,1,0","0.0,3.0,0.0,3.0,3.0,0.0,0.0,0.0,3.0",0.7801152159624237,87.95391361503047,0.5,0.9265957857534746,29451,あそばれ 〜阿蘇晴れ〜 新宿東口店,https://tabelog.com/tokyo/A1304/A130401/13176633/,居酒屋、馬肉料理、もつ鍋,創作料理・無国籍料理,35.6901875,139.7001361,東京都新宿区新宿3-35-10ローヤルプリンスビル5F
"0,1,0,1,0,0,0,1,0","0.0,3.0,0.0,3.0,3.0,0.0,0.0,0.0,3.0",0.7796165929243826,88.15336283024699,0.5,0.9261760264458492,31639,ライムイタリアン 新宿三丁目店,https://tabelog.com/tokyo/A1304/A130401/13164809/,イタリアン、ダイニングバー、ワインバー,洋食・西洋料理,35.68876056,139.7008722,東京都新宿区新宿4-2-23新四curumuB1F
"0,1,0,1,0,0,0,1,0","0.0,3.0,0.0,3.0,3.0,0.0,0.0,0.0,3.0",0.7774649222621508,89.01403109513966,0.5,0.9243655691056932,29848,ろくもんや 本店,https://tabelog.com/tokyo/A1304/A130401/13006819/,お好み焼き、その他肉料理、日本酒バー,創作料理・無国籍料理,35.69019916,139.7004616,東京都新宿区新宿3-35-13裕永ビル　B1F
"0,1,0,1,0,0,0,1,0","0.0,3.0,0.0,3.0,0.0,0.0,0.0,0.0,3.0",0.5776303977805649,168.94784088777405,0.707106781187,0.9130481238358324,26765,花炎 新宿店,https://tabelog.com/tokyo/A1304/A130401/13025475/,焼肉、居酒屋、ホルモン,焼肉・ホルモン・鍋,35.69092946,139.7002733,東京都新宿区新宿3-28-7キーストン4F
"0,1,0,1,0,0,0,1,0","0.0,3.0,0.0,3.0,0.0,0.0,0.0,0.0,3.0",0.5611259041774644,175.54963832901421,0.707106781187,0.902697225175184,31960,天ぷら新宿つな八 総本店,https://tabelog.com/tokyo/A1304/A130401/13000859/,天ぷら,高級和食,35.69078556,139.7012578,東京都新宿区新宿3-31-8
"0,1,0,1,0,0,0,1,0","0.0,3.0,0.0,3.0,0.0,0.0,0.0,0.0,3.0",0.5487853783096677,180.48584867613292,0.707106781187,0.8950784275394447,29899,波津馬 新宿店,https://tabelog.com/tokyo/A1304/A130401/13033453/,馬肉料理、居酒屋,創作料理・無国籍料理,35.69072167,139.7014803,東京都新宿区新宿3-31-5新宿ペガサス館5F
"0,1,0,1,0,0,0,1,0","0.0,3.0,0.0,3.0,3.0,0.0,0.0,0.0,3.0",0.7410009558308451,103.59961766766199,0.5,0.8939140990845966,27207,御酒印船,https://tabelog.com/tokyo/A1304/A130401/13028952/,居酒屋、日本酒バー、魚介料理・海鮮料理,高級和食,35.69016631,139.7009721,東京都新宿区新宿3-35-16ＪＵＲＡＫＵ　ＴＷＩＮ　Ａビル　Ｂ１Ｆ
"0,1,0,1,0,0,0,1,0","0.0,3.0,0.0,3.0,0.0,0.0,0.0,0.0,3.0",0.5439553639918363,182.4178544032655,0.707106781187,0.8921252367327644,27051,黄金屋 新宿店,https://tabelog.com/tokyo/A1304/A130401/13029481/,ホルモン、居酒屋、焼肉,焼肉・ホルモン・鍋,35.69091833,139.7010994,東京都新宿区新宿3-28-15TRN新宿ビル5Ｆ・6Ｆ
"0,1,0,1,0,0,0,1,0","0.0,3.0,0.0,3.0,0.0,0.0,0.0,0.0,3.0",0.5428793655529158,182.84825377883368,0.707106781187,0.8914695763418605,27254,エラワン 新宿東口店,https://tabelog.com/tokyo/A1304/A130401/13166597/,タイ料理、タイカレー、タイスキ,焼肉・ホルモン・鍋,35.69104972,139.7004672,東京都新宿区新宿3-28-10ヒューマックスパビリオン　4F
"0,1,0,1,0,0,0,1,0","0.0,3.0,0.0,3.0,0.0,0.0,0.0,0.0,3.0",0.5425616042298012,182.97535830807954,0.707106781187,0.8912761044616956,30691,YONA YONA BEER WORKS 新宿東口店,https://tabelog.com/tokyo/A1304/A130401/13205198/,ビアホール・ビアレストラン、ビアバー、バー,バー・お酒,35.69105083,139.7004678,東京都新宿区新宿3-28-10ヒューマックスパビリオン新宿東口B1F
"0,1,0,1,0,0,0,1,0","0.0,3.0,0.0,3.0,3.0,0.0,0.0,0.0,3.0",0.7373424673987289,105.06301304050844,0.5,0.8908837826729397,31287,しゃぶしゃぶ 温野菜 新宿東口駅前店,https://tabelog.com/tokyo/A1304/A130401/13125562/,しゃぶしゃぶ、バイキング、居酒屋,焼肉・ホルモン・鍋,35.69028889,139.6998833,東京都新宿区新宿3-36-15新宿内野ビル3F
"0,1,0,1,0,0,0,1,0","0.0,3.0,0.0,3.0,0.0,0.0,0.0,0.0,3.0",0.5411192230323418,183.55231078706328,0.707106781187,0.8903987946617657,27581,鍋ぞう 新宿東口店,https://tabelog.com/tokyo/A1304/A130401/13027260/,しゃぶしゃぶ、すき焼き、鍋（その他）,焼肉・ホルモン・鍋,35.691055,139.7004831,東京都新宿区新宿3-28-10ヒューマックスパビリオン新宿東口３Ｆ
"0,1,0,1,0,0,0,1,0","0.0,3.0,0.0,3.0,3.0,0.0,0.0,0.0,3.0",0.7329723457749318,106.8110616900273,0.5,0.8872702292260268,30569,南九州産黒毛和牛 焼肉ホルモン 島津,https://tabelog.com/tokyo/A1304/A130401/13168434/,焼肉、ホルモン、居酒屋,焼肉・ホルモン・鍋,35.69029806,139.6998594,東京都新宿区新宿3-36-15新宿内野ビル5F
"0,1,0,1,0,0,0,1,0","0.0,3.0,0.0,3.0,3.0,0.0,0.0,0.0,3.0",0.7219494242326846,111.22023030692615,0.5,0.8781861825090992,26319,ヴィーニャ ヴァン ヴィーノ,https://tabelog.com/tokyo/A1304/A130401/13153944/,イタリアン、スペイン料理、ビストロ,洋食・西洋料理,35.69030083,139.7008622,東京都新宿区新宿3丁目34-1ＪＵＲＡＫＵ　ＴＷＩＮ　ＢビルＢ１Ｆ
"0,1,0,1,0,0,0,1,0","0.0,3.0,0.0,3.0,3.0,0.0,0.0,0.0,3.0",0.7208077451614714,111.67690193541142,0.5,0.8772478586378907,27288,麹丸屋,https://tabelog.com/tokyo/A1304/A130401/13192684/,居酒屋、しゃぶしゃぶ、もつ鍋,焼肉・ホルモン・鍋,35.69038278,139.7006086,東京都新宿区新宿3-34-3第31東京ビルB2F
"0,1,0,1,0,0,0,1,0","0.0,3.0,0.0,3.0,0.0,0.0,0.0,0.0,3.0",0.5190777139709799,192.36891441160802,0.707106781187,0.8771782447948298,31001,ワイン食堂 ブルマーレ 新宿店,https://tabelog.com/tokyo/A1304/A130401/13020585/,イタリアン、ダイニングバー,洋食・西洋料理,35.69114028,139.7003572,東京都新宿区新宿3-28-9新宿ライオン会館3F
"0,1,0,1,0,0,0,1,0","0.0,3.0,0.0,3.0,3.0,3.0,0.0,0.0,3.0",0.7752613160510573,89.89547357957707,0.408248290464,0.8761830715277966,27362,香家 新宿本店,https://tabelog.com/tokyo/A1304/A130401/13025698/,居酒屋、和食（その他）、ダイニングバー,Ｂ級和食,35.69018379,139.7005883,東京都新宿区新宿3-35-13SHOWAKAN-BLDB1F
"0,1,0,1,0,0,0,1,0","0.0,3.0,0.0,3.0,0.0,0.0,0.0,0.0,3.0",0.5147956797468062,194.08172810127755,0.707106781187,0.8746511258130159,27178,asian bistro PalaPa,https://tabelog.com/tokyo/A1304/A130401/13201675/,ダイニングバー、バル・バール、アジア・エスニック料理（その他）,バー・お酒,35.69113028,139.6999381,東京都新宿区新宿3-27-10新宿武蔵野ビル5F
"0,1,0,1,0,0,0,1,0","0.0,3.0,0.0,3.0,0.0,0.0,0.0,0.0,3.0",0.4902269140497124,203.90923438011504,0.707106781187,0.860419913332266,12093,水たき玄海 新宿高島屋店,https://tabelog.com/tokyo/A1304/A130403/13039352/,水炊き,焼肉・ホルモン・鍋,35.68758,139.7000622,東京都渋谷区千駄ヶ谷5-24-2新宿タカシマヤ14F
"0,1,0,1,0,0,0,1,0","0.0,3.0,0.0,3.0,0.0,0.0,0.0,0.0,3.0",0.4833947455202565,206.6421017918974,0.707106781187,0.8565456671985407,12704,木挽町 天國,https://tabelog.com/tokyo/A1304/A130401/13030108/,天ぷら,高級和食,35.6875475,139.7001781,東京都渋谷区千駄ヶ谷5-24-2新宿タカシマヤ14F
"0,1,0,1,0,0,0,1,0","0.0,3.0,0.0,3.0,0.0,0.0,0.0,0.0,3.0",0.48300216927204737,206.79913229118105,0.707106781187,0.8563241766536219,11047,サイアム セラドン 新宿タカシマヤ店,https://tabelog.com/tokyo/A1304/A130401/13039534/,タイ料理,アジア・エスニック、中華料理,35.68754611,139.7001775,東京都渋谷区千駄ヶ谷5-24-2新宿タカシマヤタイムズスクエア12F
"0,1,0,1,0,0,0,1,0","0.0,3.0,0.0,3.0,0.0,0.0,0.0,0.0,3.0",0.48247866053700134,207.00853578519946,0.707106781187,0.8560290052758603,14912,tavern on S <es>,https://tabelog.com/tokyo/A1304/A130401/13193552/,アメリカ料理、イタリアン、バー,洋食・西洋料理,35.68850361,139.698305,東京都渋谷区千駄ヶ谷5-24-55NEWoManSHINJUKU2F
"0,1,0,1,0,0,0,1,0","0.0,3.0,0.0,3.0,0.0,0.0,0.0,0.0,3.0",0.47187180683893554,211.2512772644258,0.707106781187,0.8500958781745983,29030,美酒美食 蔵良 KURAYOSHI 新宿駅前店,https://tabelog.com/tokyo/A1304/A130401/13195716/,居酒屋、しゃぶしゃぶ,焼肉・ホルモン・鍋,35.69123639,139.6996592,東京都新宿区新宿3-27-5Kスリービル8F
"0,1,0,1,0,0,0,1,0","0.0,3.0,0.0,3.0,3.0,0.0,0.0,0.0,3.0",0.6754058957905299,129.83764168378804,0.5,0.8403410760331832,31715,海峡 新宿中央口店,https://tabelog.com/tokyo/A1304/A130401/13028606/,居酒屋、洋食,洋食・西洋料理,35.69054111,139.6999525,東京都新宿区新宿3-36-13Ｍビル5F
"0,1,0,1,0,0,0,1,0","0.0,3.0,0.0,3.0,3.0,0.0,0.0,0.0,3.0",0.6740037543291783,130.39849826832872,0.5,0.8392145499512191,30159,みつえもん 新宿中央口店,https://tabelog.com/tokyo/A1304/A130401/13128619/,居酒屋,居酒屋,35.69054333,139.6999383,東京都新宿区新宿3-36-13Mビル3F
"0,1,0,1,0,0,0,1,0","0.0,3.0,0.0,3.0,3.0,0.0,0.0,0.0,3.0",0.6692581840275267,132.2967263889893,0.5,0.8354079942685626,30101,元祖 新宿三丁目ホルモン,https://tabelog.com/tokyo/A1304/A130401/13100732/,ホルモン、もつ鍋、居酒屋,焼肉・ホルモン・鍋,35.69056167,139.7006706,東京都新宿区新宿3-34-11ピースビル3F
"0,1,0,1,0,0,0,1,0","0.0,3.0,0.0,3.0,0.0,0.0,0.0,0.0,3.0",0.440986289705008,223.60548411799678,0.707106781187,0.8333480111620769,10931,韓国料理 水刺齋 高島屋タイムズスクエア店,https://tabelog.com/tokyo/A1304/A130401/13109377/,韓国料理、韓国鍋、もつ鍋,アジア・エスニック、中華料理,35.68739806,139.7001097,東京都渋谷区千駄ヶ谷5-24-2新宿タカシマヤ13F
"0,1,0,1,0,0,0,1,0","0.0,3.0,0.0,3.0,3.0,0.0,0.0,0.0,3.0",0.6664400827890757,133.4239668843697,0.5,0.833152077323168,28897,九州桜,https://tabelog.com/tokyo/A1304/A130401/13165805/,居酒屋、もつ鍋、しゃぶしゃぶ,焼肉・ホルモン・鍋,35.69058219,139.7006185,東京都新宿区新宿3-34-11ピースビル3F
"0,1,0,1,0,0,0,1,0","0.0,3.0,0.0,3.0,0.0,0.0,0.0,0.0,3.0",0.43676925964400065,225.29229614239975,0.707106781187,0.8311241701274055,28282,楽蔵 新宿東口店,https://tabelog.com/tokyo/A1304/A130401/13043063/,居酒屋、焼鳥、鍋（その他）,焼肉・ホルモン・鍋,35.69141194,139.6999122,東京都新宿区新宿3-26-2新宿第二ビル
"0,1,0,1,0,0,0,1,0","0.0,3.0,0.0,3.0,0.0,3.0,0.0,0.0,3.0",0.6632019677819962,134.71921288720145,0.5,0.8305641757684423,28221,米助 新宿総本店,https://tabelog.com/tokyo/A1304/A130401/13210067/,居酒屋、鳥料理、魚介料理・海鮮料理,高級和食,35.69057917,139.6999178,東京都新宿区新宿3-36-13Mビル7F
"0,1,0,1,0,0,0,1,0","0.0,3.0,0.0,3.0,3.0,0.0,0.0,0.0,3.0",0.6601307671531376,135.94769313874494,0.5,0.82811389901522,28994,完全個室和食Dining 円舞‐ENBU‐ 新宿東口店,https://tabelog.com/tokyo/A1304/A130401/13202565/,居酒屋、鍋（その他）、魚介料理・海鮮料理,高級和食,35.69060611,139.7006147,東京都新宿区新宿3-34-11新宿ピースビル3F
"0,1,0,1,0,0,0,1,0","0.0,3.0,0.0,3.0,3.0,0.0,0.0,0.0,3.0",0.6601307671531376,135.94769313874494,0.5,0.82811389901522,31912,うまかもん畑 新宿本店,https://tabelog.com/tokyo/A1304/A130401/13164435/,居酒屋、もつ鍋、しゃぶしゃぶ,焼肉・ホルモン・鍋,35.69060611,139.7006147,東京都新宿区新宿3-34-11ピースビル3F
"0,1,0,1,0,0,0,1,0","0.0,3.0,0.0,3.0,3.0,0.0,0.0,3.0,0.0",0.13227693437922994,347.089226248308,0.816496580928,0.8271419793695842,27438,ブラーリ,https://tabelog.com/tokyo/A1304/A130401/13099935/,居酒屋、洋食・欧風料理（その他）、焼肉,焼肉・ホルモン・鍋,35.6910225,139.7035897,東京都新宿区新宿3-6-14
"0,1,0,1,0,0,0,1,0","0.0,3.0,0.0,3.0,3.0,0.0,0.0,3.0,0.0",0.12657386619851252,349.370453520595,0.816496580928,0.8262491211923347,29820,バー アールピーエム,https://tabelog.com/tokyo/A1304/A130401/13173570/,バー、バー・お酒（その他）,バー・お酒,35.69116722,139.7035064,東京都新宿区新宿3-6-3ISビル2F
"0,1,0,1,0,0,0,1,0","0.0,3.0,0.0,3.0,3.0,0.0,0.0,3.0,0.0",0.09552034449720737,361.79186220111706,0.816496580928,0.8220649626881879,28023,ル・パラン,https://tabelog.com/tokyo/A1304/A130401/13000988/,バー,バー・お酒,35.69113583,139.703695,東京都新宿区新宿3-6-13石井ビル　３Ｆ
"0,1,0,1,0,0,0,1,0","0.0,3.0,0.0,3.0,0.0,3.0,0.0,0.0,3.0",0.6514984256461216,139.4006297415514,0.5,0.8212491696308588,28823,房's 新宿,https://tabelog.com/tokyo/A1304/A130401/13012115/,ダイニングバー、洋食・欧風料理（その他）、ワインバー,バー・お酒,35.69063635,139.6999882,東京都新宿区新宿3-36-12杉忠ビル　３Ｆ
"0,1,0,1,0,0,0,1,0","0.0,2.0,0.0,3.0,0.0,0.0,3.0,3.0,0.0",0.05277208158750156,378.8911673649994,0.816496580928,0.8182001951000406,11774,築地玉寿司 新宿高島屋店,https://tabelog.com/tokyo/A1304/A130403/13183860/,寿司、居酒屋、和食（その他）,高級和食,35.68599222,139.7003369,東京都渋谷区千駄ヶ谷5-24-2新宿タカシマヤ13F
"0,1,0,1,0,0,0,1,0","0.0,3.0,0.0,3.0,3.0,0.0,0.0,3.0,0.0",0.024901269422945092,390.03949223082196,0.816496580928,0.8168762084217783,31653,イーグル,https://tabelog.com/tokyo/A1304/A130401/13000922/,バー、ダイニングバー,バー・お酒,35.69286333,139.6995197,東京都新宿区新宿3-24-11セキネビル　Ｂ１Ｆ・Ｂ２Ｆ
"0,1,0,1,0,0,0,1,0","0.0,3.0,0.0,3.0,3.0,0.0,0.0,3.0,0.0",0.008904631365738708,396.4381474537045,0.816496580928,0.816545136000715,29370,鳥田むら 支店,https://tabelog.com/tokyo/A1304/A130401/13061508/,焼鳥,Ｂ級和食,35.69105611,139.7041914,東京都新宿区新宿3丁目7-7十字屋ビル1F
"0,1,0,1,0,0,0,1,0","0.0,3.0,0.0,3.0,3.0,0.0,0.0,3.0,0.0",0.0018513196899510832,399.25947212401957,0.816496580928,0.8164986797608805,31398,まつん処,https://tabelog.com/tokyo/A1304/A130401/13133447/,居酒屋、和食（その他）、魚介料理・海鮮料理,Ｂ級和食,35.69083194,139.7043564,東京都新宿区新宿3-8-5イオヤビルB1
"0,1,0,1,0,0,0,1,0","0.0,3.0,0.0,3.0,3.0,0.0,0.0,0.0,3.0",0.6407178140999644,143.71287436001418,0.5,0.81272339532281,30311,黒豚 島津 新宿本店,https://tabelog.com/tokyo/A1304/A130401/13024082/,しゃぶしゃぶ、居酒屋、和食（その他）,Ｂ級和食,35.68943639,139.7018933,東京都新宿区新宿4-3-22安藤ビル　Ｂ１Ｆ
"0,1,0,1,0,0,0,1,0","0.0,3.0,0.0,3.0,0.0,0.0,0.0,0.0,3.0",0.3821994488858516,247.12022044565936,0.707106781187,0.8037887898749575,31636,みつえもん 新宿アルタ裏店,https://tabelog.com/tokyo/A1304/A130401/13141927/,居酒屋,居酒屋,35.69119361,139.6986758,東京都新宿区新宿3-22-4モア新宿サンパークビルB1F
"0,1,0,1,0,0,0,1,0","0.0,3.0,0.0,3.0,0.0,3.0,0.0,0.0,3.0",0.620331419452622,151.86743221895117,0.5,0.7967503184562306,26739,アクアリウムダイニング 新宿ライム,https://tabelog.com/tokyo/A1304/A130401/13121011/,ダイニングバー、居酒屋、アジア・エスニック料理（その他）,バー・お酒,35.6906475,139.6995969,東京都新宿区新宿3-36-10ミラザ新宿3F
"0,1,0,1,0,0,0,1,0","0.0,3.0,0.0,3.0,0.0,3.0,0.0,0.0,3.0",0.6154265739338042,153.82937042647833,0.5,0.7929374930622842,30109,ダンシング クラブ 東京,https://tabelog.com/tokyo/A1304/A130401/13173226/,シーフード、アメリカ料理、ダイニングバー,創作料理・無国籍料理,35.69043139,139.6991608,東京都新宿区新宿3-37-12新宿NOWAビル　2F
"0,1,0,1,0,0,0,1,0","0.0,3.0,0.0,3.0,0.0,3.0,0.0,0.0,3.0",0.6134565286283818,154.61738854864726,0.5,0.7914094468205347,31028,橙家 新宿店,https://tabelog.com/tokyo/A1304/A130401/13004281/,居酒屋、懐石・会席料理、創作料理,高級和食,35.69047833,139.6992136,東京都新宿区新宿3-37-12新宿NOWAビル　３Ｆ
"0,1,0,1,0,0,0,1,0","0.0,3.0,0.0,3.0,3.0,0.0,0.0,0.0,3.0",0.6024736433569469,159.01054265722127,0.5,0.7829268745801191,27860,御八 新宿中央口店,https://tabelog.com/tokyo/A1304/A130401/13029293/,居酒屋、しゃぶしゃぶ、もつ鍋,焼肉・ホルモン・鍋,35.690825,139.7000514,東京都新宿区新宿3-27-1新宿第一ビル　Ｂ１Ｆ
"0,1,0,1,0,0,0,1,0","0.0,3.0,0.0,3.0,3.0,3.0,0.0,0.0,3.0",0.6672861536062882,133.0855385574847,0.408248290464,0.7822643271051938,31362,地酒と創作和食の個室居酒屋　九平次 新宿店,https://tabelog.com/tokyo/A1304/A130401/13182484/,居酒屋、ダイニングバー、バル・バール,居酒屋,35.69057944,139.7006164,東京都新宿区新宿3-34-11新宿ピースビル7F
"0,1,0,1,0,0,0,1,0","0.0,3.0,0.0,3.0,3.0,3.0,0.0,0.0,3.0",0.6599647942470892,136.0140823011643,0.408248290464,0.7760284764828347,27788,錦亭 新宿店,https://tabelog.com/tokyo/A1304/A130401/13180148/,居酒屋、ダイニングバー、鍋（その他）,焼肉・ホルモン・鍋,35.69060667,139.700615,東京都新宿区新宿3-34-11ピースビル7F
"0,1,0,1,0,0,0,1,0","0.0,3.0,0.0,3.0,3.0,0.0,0.0,0.0,3.0",0.5893567908555606,164.25728365777576,0.5,0.7728786624869165,27269,牛タン圭助 新宿三丁目,https://tabelog.com/tokyo/A1304/A130401/13132569/,もつ鍋、牛タン、すき焼き,焼肉・ホルモン・鍋,35.69080139,139.7009156,東京都新宿区新宿3-28-2リキビルB1・1F
"0,1,0,1,0,0,0,1,0","0.0,3.0,0.0,3.0,0.0,0.0,0.0,0.0,3.0",0.3074097740775581,277.0360903689768,0.707106781187,0.7710387598547918,29032,ウメ子の家 新宿東口店,https://tabelog.com/tokyo/A1304/A130401/13055542/,居酒屋、洋食、オムライス,洋食・西洋料理,35.691825,139.7010692,東京都新宿区新宿3-17-5新宿ニュー富士ビル　８Ｆ・９Ｆ
"0,1,0,1,0,0,0,1,0","0.0,2.0,0.0,3.0,0.0,0.0,0.0,0.0,3.0",0.30426236800778983,278.2950527968841,0.707106781187,0.7697893144138256,10225,香り屋,https://tabelog.com/tokyo/A1304/A130401/13161302/,もつ鍋、もつ料理、居酒屋・ダイニングバー（その他）,バー・お酒,35.68717659,139.7017124,東京都渋谷区千駄ヶ谷5-33-1コープインフィールド1F
"0,1,0,1,0,0,0,1,0","0.0,3.0,0.0,3.0,3.0,0.0,0.0,0.0,3.0",0.5838381923391193,166.4647230643523,0.5,0.7686787591925579,30264,シャトーカルム,https://tabelog.com/tokyo/A1304/A130401/13090519/,バー,バー・お酒,35.69079589,139.7010015,東京都新宿区新宿3-28-1新宿コルネ坂詰ビル５F
"0,1,0,1,0,0,0,1,0","0.0,3.0,0.0,3.0,0.0,3.0,0.0,0.0,3.0",0.5821247994134631,167.1500802346148,0.5,0.76737818713602,27565,上海小籠包　厨房 阿杏 新宿店,https://tabelog.com/tokyo/A1304/A130401/13103626/,飲茶・点心、上海料理、中華料理,アジア・エスニック、中華料理,35.69082778,139.70092,東京都新宿区新宿3-28-2ルナージュビル5F
"0,1,0,1,0,0,0,1,0","0.0,3.0,0.0,3.0,3.0,0.0,0.0,0.0,3.0",0.5816587934967758,167.33648260128967,0.5,0.7670247401825608,29383,チャイナムーン 新宿店,https://tabelog.com/tokyo/A1304/A130401/13011096/,中華料理、飲茶・点心、餃子,アジア・エスニック、中華料理,35.69091472,139.7002608,東京都新宿区新宿3-28-7キーストン　３Ｆ
"0,1,0,1,0,0,0,1,0","0.0,3.0,0.0,3.0,3.0,0.0,0.0,0.0,3.0",0.5786419180094202,168.54323279623193,0.5,0.7647394780430918,28123,鶏の素揚げ hoshino,https://tabelog.com/tokyo/A1304/A130401/13095860/,居酒屋、もつ鍋、鳥料理,Ｂ級和食,35.69079167,139.7010717,東京都新宿区新宿3-28-1新宿コルネ坂詰ビル4F
"0,1,0,1,0,0,0,1,0","0.0,3.0,0.0,3.0,0.0,0.0,0.0,0.0,3.0",0.2900033229674102,283.9986708130359,0.707106781187,0.7642656130771159,27527,マンゴツリーカフェ ルミネ新宿,https://tabelog.com/tokyo/A1304/A130401/13030311/,タイ料理、タイカレー、ダイニングバー,バー・お酒,35.68927222,139.6971728,東京都新宿区西新宿1-1-5ルミネ新宿1-7F
"0,1,0,1,0,0,0,1,0","0.0,3.0,0.0,3.0,0.0,0.0,0.0,0.0,3.0",0.2843897101114219,286.24411595543125,0.707106781187,0.7621532045574948,26602,Roof Top Beer Garden 東京小空,https://tabelog.com/tokyo/A1304/A130401/13171517/,ビアガーデン、バイキング、ビアホール・ビアレストラン,創作料理・無国籍料理,35.68922639,139.6971514,東京都新宿区西新宿1-1-5ルミネ1屋上
"0,1,0,1,0,0,0,1,0","0.0,3.0,0.0,3.0,3.0,0.0,0.0,0.0,3.0",0.5731917563699973,170.72329745200108,0.5,0.7606239475394674,29479,ＤＥＮ　アクアルーム　新宿,https://tabelog.com/tokyo/A1304/A130401/13004303/,ダイニングバー、イタリアン、居酒屋,洋食・西洋料理,35.69006528,139.7020108,東京都新宿区新宿3-32-10新宿Ｔ＆Ｔビル　Ｂ１Ｆ・Ｂ２Ｆ
"0,1,0,1,0,0,0,1,0","0.0,3.0,0.0,3.0,0.0,0.0,0.0,0.0,3.0",0.27677577995122093,289.28968801951163,0.707106781187,0.7593450022009801,31441,庵 新宿東口駅前店,https://tabelog.com/tokyo/A1304/A130401/13126982/,ダイニングバー,バー・お酒,35.69190114,139.7012374,東京都新宿区新宿3-17-4新宿レミナビル
"0,1,0,1,0,0,0,1,0","0.0,3.0,0.0,3.0,3.0,3.0,0.0,0.0,3.0",0.6330890059657489,146.76439761370045,0.408248290464,0.753304955606537,29148,銀波 新宿東口店,https://tabelog.com/tokyo/A1304/A130401/13147282/,居酒屋、鳥料理、魚介料理・海鮮料理,高級和食,35.69040056,139.6992356,東京都新宿区新宿3-37-12新宿NOWAビル4F
"0,1,0,1,0,0,0,1,0","0.0,3.0,0.0,3.0,0.0,3.0,0.0,0.0,3.0",0.5535829476203826,178.56682095184695,0.5,0.7459584974353944,28078,フレンチーナ 新宿店,https://tabelog.com/tokyo/A1304/A130401/13094809/,フレンチ、シーフード、ビストロ,洋食・西洋料理,35.69020111,139.7020219,東京都新宿区新宿3-32-10T&Tビル　6F
"0,1,0,1,0,0,0,1,0","0.0,3.0,0.0,3.0,3.0,0.0,0.0,0.0,3.0",0.5528099998196672,178.87600007213314,0.5,0.7453850655202453,29203,ＴＯＫＹＯ　ＫＩＴＣＨＥＮ,https://tabelog.com/tokyo/A1304/A130401/13190067/,ステーキ、洋食・欧風料理（その他）、ダイニングバー,洋食・西洋料理,35.69020431,139.7020236,東京都新宿区新宿3-32-10Ｔ＆Ｔビル７階
"0,1,0,1,0,0,0,1,0","0.0,3.0,0.0,3.0,3.0,0.0,0.0,0.0,3.0",0.5510410637614874,179.58357449540503,0.5,0.7440740917082059,26199,ザオールドステーション 新宿店,https://tabelog.com/tokyo/A1304/A130401/13197378/,ステーキ、ピザ、ビアバー,洋食・西洋料理,35.6909725,139.6998022,東京都新宿区新宿3-27-4新宿御幸ビルB1F
"0,1,0,1,0,0,0,1,0","0.0,3.0,0.0,3.0,3.0,0.0,0.0,0.0,3.0",0.5487853783096677,180.48584867613292,0.5,0.7424051396956282,29716,彩心,https://tabelog.com/tokyo/A1304/A130401/13029171/,ダイニングバー、焼酎バー,バー・お酒,35.69072167,139.7014803,東京都新宿区新宿3-31-5新宿ペガサス館2F
"0,1,0,1,0,0,0,1,0","0.0,3.0,0.0,3.0,0.0,0.0,0.0,0.0,3.0",0.2234035434657828,310.6385826136869,0.707106781187,0.7415585905598208,28955,ル・ビストロ・資生堂,https://tabelog.com/tokyo/A1304/A130401/13110891/,フレンチ、ビストロ,洋食・西洋料理,35.69015333,139.6969983,東京都新宿区西新宿1-1-4京王百貨店新宿店8Ｆ　グルメパーク
"0,1,0,1,0,0,0,1,0","0.0,3.0,0.0,3.0,0.0,0.0,0.0,0.0,3.0",0.22294985708732568,310.8200571650697,0.707106781187,0.7414220382314373,31750,南国酒家 京王新宿店,https://tabelog.com/tokyo/A1304/A130401/13191984/,中華料理、広東料理、飲茶・点心,アジア・エスニック、中華料理,35.69014972,139.696995,東京都新宿区西新宿1-1-4京王百貨店新宿店8F
"0,1,0,1,0,0,0,1,0","0.0,3.0,0.0,3.0,0.0,0.0,0.0,0.0,3.0",0.22085561502150355,311.6577539913986,0.707106781187,0.7407949801979806,29001,居酒屋 NIJYU-MARU 新宿伊勢丹前店,https://tabelog.com/tokyo/A1304/A130401/13109654/,居酒屋、無国籍料理、アジア・エスニック料理（その他）,居酒屋,35.69095833,139.7031764,東京都新宿区新宿3-4-8京王フレンテ新宿三丁目５Ｆ
"0,1,0,1,0,0,0,1,0","0.0,3.0,0.0,3.0,0.0,0.0,0.0,0.0,3.0",0.21881958502950127,312.4721659881995,0.707106781187,0.7401905233063194,27783,畑の厨 膳丸 新宿店,https://tabelog.com/tokyo/A1304/A130401/13000199/,ダイニングバー、創作料理、バイキング,創作料理・無国籍料理,35.69095,139.7031939,東京都新宿区新宿3-4-8京王フレンテ新宿三丁目7Ｆ
"0,1,0,1,0,0,0,1,0","0.0,3.0,0.0,3.0,0.0,0.0,0.0,0.0,3.0",0.218273883462508,312.6904466149968,0.707106781187,0.7400293833367729,29061,クレッソニエール,https://tabelog.com/tokyo/A1304/A130401/13020679/,フレンチ、洋食・欧風料理（その他）、ビストロ,洋食・西洋料理,35.69095222,139.703195,東京都新宿区新宿3-4-8京王フレンテ新宿三丁目B1F
"0,1,0,1,0,0,0,1,0","0.0,3.0,0.0,3.0,0.0,0.0,0.0,0.0,3.0",0.20958615265899852,316.1655389364006,0.707106781187,0.737513630644479,11414,味屋,https://tabelog.com/tokyo/A1304/A130401/13006873/,台湾料理、アジア・エスニック料理（その他）,アジア・エスニック、中華料理,35.68791111,139.6973331,東京都渋谷区代々木2-7-6ＧＳハイム佐藤ビル3Ｆ
"0,1,0,1,0,0,0,1,0","0.0,3.0,0.0,3.0,3.0,0.0,0.0,0.0,3.0",0.5414563854987283,183.41744580050866,0.5,0.7370040823478168,30320,肉バル FORST 新宿3丁目店,https://tabelog.com/tokyo/A1304/A130401/13092110/,居酒屋、バル・バール、ワインバー,バー・お酒,35.69093222,139.7010875,東京都新宿区新宿3-28-15TRNBLDG7F
"0,1,0,1,0,0,0,1,0","0.0,3.0,0.0,3.0,0.0,0.0,0.0,0.0,3.0",0.20591730890544327,317.6330764378227,0.707106781187,0.7364794213736455,31565,SKY PARADISE BEER GARDEN,https://tabelog.com/tokyo/A1304/A130401/13194881/,ビアガーデン、イタリアン,洋食・西洋料理,35.69166083,139.7024697,東京都新宿区新宿3-14-1伊勢丹新宿店本館屋上
"0,1,0,1,0,0,0,1,0","0.0,3.0,0.0,3.0,3.0,0.0,0.0,0.0,3.0",0.5407048933263193,183.71804266947225,0.5,0.7364521584373463,28547,SHINJUKU Mar Mare,https://tabelog.com/tokyo/A1304/A130401/13205824/,バル・バール、スペイン料理、イタリアン,洋食・西洋料理,35.69093917,139.7010756,東京都新宿区新宿3-28-15TRNShinjukuビル3・4F
"0,1,0,1,0,0,0,1,0","0.0,3.0,0.0,3.0,0.0,0.0,0.0,0.0,3.0",0.20545176979745264,317.81929208101894,0.707106781187,0.7363493937750647,28804,雛鮨 新宿マルイ店,https://tabelog.com/tokyo/A1304/A130401/13038029/,寿司、魚介料理・海鮮料理、和食（その他）,高級和食,35.69008278,139.7037181,東京都新宿区新宿3-1-26新宿マルイ　アネックス8Ｆ
"0,1,0,1,0,0,0,1,0","0.0,3.0,0.0,3.0,3.0,0.0,0.0,0.0,3.0",0.5392105484532465,184.31578061870144,0.5,0.7353557068271456,29616,七色てまりうた,https://tabelog.com/tokyo/A1304/A130401/13022043/,居酒屋、寿司、魚介料理・海鮮料理,高級和食,35.69106,139.7005081,東京都新宿区新宿3-28-10ヒューマックスパビリオン新宿東口　５Ｆ
"0,1,0,1,0,0,0,1,0","0.0,3.0,0.0,3.0,3.0,0.0,0.0,0.0,3.0",0.5378298994420875,184.86804022316502,0.5,0.7343439253741301,25635,いくら丼 旨い魚と肴 北の幸 釧路港 新宿店,https://tabelog.com/tokyo/A1304/A130401/13132709/,居酒屋、魚介料理・海鮮料理、鍋（その他）,高級和食,35.69094611,139.7010883,東京都新宿区新宿3-28-15TRN新宿ビルB2F
"0,1,0,1,0,0,0,1,0","0.0,3.0,0.0,3.0,0.0,0.0,0.0,0.0,3.0",0.19534852372042877,321.8605905118285,0.707106781187,0.7335946058415034,31681,Bee 新宿店,https://tabelog.com/tokyo/A1304/A130401/13036299/,ダイニングバー、居酒屋,バー・お酒,35.69230519,139.7001533,東京都新宿区新宿3-18-4セノビル　Ｂ１Ｆ
"0,1,0,1,0,0,0,1,0","0.0,3.0,0.0,3.0,0.0,0.0,0.0,0.0,3.0",0.189409940467754,324.2360238128984,0.707106781187,0.7320356040166339,29816,ライブハウス・ケントス 新宿店,https://tabelog.com/tokyo/A1304/A130401/13012129/,バー・お酒（その他）、レストラン（その他）,創作料理・無国籍料理,35.69232917,139.7002756,東京都新宿区新宿3-18-4セノビル　６Ｆ
"0,1,0,1,0,0,0,1,0","0.0,3.0,0.0,3.0,0.0,0.0,0.0,0.0,3.0",0.18485628273429555,326.0574869062818,0.707106781187,0.7308706077455446,25757,農家の台所 新宿三丁目店,https://tabelog.com/tokyo/A1304/A130401/13094046/,野菜料理、バイキング,創作料理・無国籍料理,35.69116389,139.7031936,東京都新宿区新宿3-5-3高山ランド会館4F
"0,1,0,1,0,0,0,1,0","0.0,3.0,0.0,3.0,3.0,0.0,0.0,0.0,3.0",0.528649141216423,188.5403435134308,0.5,0.727646833641748,25932,Le Ｔｅｍｐｓ,https://tabelog.com/tokyo/A1304/A130401/13095705/,ダイニングバー、バー、ビストロ,洋食・西洋料理,35.69076806,139.7015531,東京都新宿区新宿3-31-5新宿ペガサス館B1F
"0,1,0,1,0,0,0,1,0","0.0,3.0,0.0,3.0,0.0,0.0,0.0,0.0,3.0",0.15495224436552207,338.0191022537912,0.707106781187,0.7238854868236497,31630,いちゃりば 新宿三丁目店,https://tabelog.com/tokyo/A1304/A130401/13177886/,沖縄料理、定食・食堂、居酒屋,居酒屋,35.69066543,139.7037069,東京都新宿区新宿3-3-2B1F
"0,1,0,1,0,0,0,1,0","0.0,3.0,0.0,3.0,3.0,0.0,0.0,0.0,3.0",0.5205684949912142,191.77260200351432,0.5,0.7217974494118262,29347,京町恋しぐれ 新宿 本館,https://tabelog.com/tokyo/A1304/A130401/13000842/,居酒屋、和食（その他）、その他肉料理,Ｂ級和食,35.69112083,139.7000314,東京都新宿区新宿3-27-10武蔵野ビル　６Ｆ
"0,1,0,1,0,0,0,1,0","0.0,3.0,0.0,3.0,0.0,0.0,0.0,0.0,3.0",0.11855274667204455,352.5789013311822,0.707106781187,0.7169761179728973,30259,肉バル ワインラボ 新宿三丁目店,https://tabelog.com/tokyo/A1304/A130401/13199695/,バル・バール、居酒屋、ステーキ,洋食・西洋料理,35.69071222,139.7038575,東京都新宿区新宿3-3-7三慶ビル5F
"0,1,0,1,0,0,0,1,0","0.0,3.0,0.0,3.0,0.0,0.0,0.0,0.0,3.0",0.11743173876325656,353.0273044946974,0.707106781187,0.7167916107691005,29908,老辺餃子館 新宿本店,https://tabelog.com/tokyo/A1304/A130401/13012005/,餃子、中華料理、飲茶・点心,アジア・エスニック、中華料理,35.68893389,139.6964492,東京都新宿区西新宿1-18-1小川ビル3F
"0,1,0,1,0,0,0,1,0","0.0,3.0,0.0,3.0,0.0,0.0,0.0,0.0,3.0",0.10716340360115396,357.1346385595384,0.707106781187,0.7151810925013214,27050,洞爺ッ子,https://tabelog.com/tokyo/A1304/A130401/13082746/,割烹・小料理,高級和食,35.68900278,139.6963917,東京都新宿区西新宿1-18-16
"0,1,0,1,0,0,0,1,0","0.0,3.0,0.0,3.0,3.0,0.0,0.0,0.0,3.0",0.5104677625600235,195.81289497599062,0.5,0.7145469450029414,30426,馬鹿とけむり,https://tabelog.com/tokyo/A1304/A130401/13030345/,居酒屋、ダイニングバー、魚介料理・海鮮料理,高級和食,35.69065,139.7018417,東京都新宿区新宿3-31-3プラザ中央ビル　５Ｆ
"0,1,0,1,0,0,0,1,0","0.0,3.0,0.0,3.0,0.0,0.0,0.0,0.0,3.0",0.09579868238219091,361.68052704712363,0.707106781187,0.7135666665043735,31992,とときち 新宿三丁目店,https://tabelog.com/tokyo/A1304/A130401/13023849/,居酒屋、魚介料理・海鮮料理、日本酒バー,高級和食,35.69113472,139.7036944,東京都新宿区新宿3-6-13石井ビル　１Ｆ
"0,1,0,1,0,0,0,1,0","0.0,3.0,0.0,3.0,0.0,0.0,0.0,0.0,3.0",0.09160733663492707,363.3570653460292,0.707106781187,0.713016061618071,27363,北の味紀行と地酒 北海道 新宿西口店,https://tabelog.com/tokyo/A1304/A130401/13156023/,居酒屋、魚介料理・海鮮料理、ジンギスカン,高級和食,35.68976972,139.6963164,東京都新宿区西新宿1-10-2110ビル9F
"0,1,0,1,0,0,0,1,0","0.0,3.0,0.0,3.0,0.0,3.0,0.0,0.0,3.0",0.5055374254822244,197.78502980711025,0.5,0.7110331135490072,25756,かくれが個室ダイニング れんま 新宿東口駅前店,https://tabelog.com/tokyo/A1304/A130401/13017291/,居酒屋、焼肉、創作料理,創作料理・無国籍料理,35.69110111,139.6996261,東京都新宿区新宿3-27-5ケースリービル5Ｆ
"0,1,0,1,0,0,0,1,0","0.0,3.0,0.0,3.0,0.0,0.0,0.0,0.0,3.0",0.07367570412748137,370.52971834900745,0.707106781187,0.7109346730738909,13632,美禄亭,https://tabelog.com/tokyo/A1304/A130401/13033320/,居酒屋,居酒屋,35.68816222,139.6965075,東京都渋谷区代々木2-9-2久保ビルＢ１Ｆ
"0,1,0,1,0,0,0,1,0","0.0,3.0,0.0,3.0,0.0,0.0,0.0,0.0,3.0",0.07031613125782926,371.8735474968683,0.707106781187,0.7105943697462485,28428,じとっこ組合 新宿三丁目店,https://tabelog.com/tokyo/A1304/A130401/13132481/,鳥料理、手羽先、もつ鍋,Ｂ級和食,35.69064082,139.7041259,東京都新宿区新宿3-7-3丸中ビル3F
"0,1,0,1,0,0,0,1,0","0.0,3.0,0.0,3.0,0.0,0.0,0.0,0.0,3.0",0.0683934772450776,372.64260910196896,0.707106781187,0.710406691782723,14490,ヴィッラ ビアンキ 新宿店,https://tabelog.com/tokyo/A1304/A130401/13191303/,イタリアン、ダイニングバー、バル・バール,洋食・西洋料理,35.68653376,139.6981743,東京都渋谷区代々木2-2-1小田急ホテルセンチュリーサザンタワー　３Ｆ
"0,1,0,1,0,0,0,1,0","0.0,3.0,0.0,3.0,0.0,0.0,0.0,0.0,3.0",0.0586196433126554,376.55214267493784,0.707106781187,0.7095324253211426,28476,煌 新宿店,https://tabelog.com/tokyo/A1304/A130401/13123118/,居酒屋、ダイニングバー、創作料理,創作料理・無国籍料理,35.69279611,139.7005244,東京都新宿区新宿3-19-4シティバンク新宿ビルディング8F
"0,1,0,1,0,0,0,1,0","0.0,3.0,0.0,3.0,0.0,0.0,0.0,0.0,3.0",0.05304012340976442,378.78395063609423,0.707106781187,0.7090932623367133,11616,隨園別館 新宿高島屋店,https://tabelog.com/tokyo/A1304/A130403/13189495/,中華料理,アジア・エスニック、中華料理,35.68599319,139.7003375,東京都渋谷区千駄ヶ谷5-24-2新宿タカシマヤタイムズスクエア14F
"0,1,0,1,0,0,0,1,0","0.0,3.0,0.0,3.0,0.0,0.0,0.0,0.0,3.0",0.05002311200047572,379.9907551998097,0.707106781187,0.7088739745076074,28180,あえん 伊勢丹会館店,https://tabelog.com/tokyo/A1304/A130401/13006107/,居酒屋、和食（その他）、野菜料理,Ｂ級和食,35.69252806,139.7020344,東京都新宿区新宿3-15-17伊勢丹会館4F
"0,1,0,1,0,0,0,1,0","0.0,3.0,0.0,3.0,0.0,0.0,0.0,0.0,3.0",0.049350138049137515,380.259944780345,0.707106781187,0.7088268026291534,25746,チャンパー 伊勢丹会館店,https://tabelog.com/tokyo/A1304/A130401/13009099/,タイ料理,アジア・エスニック、中華料理,35.69253028,139.7020356,東京都新宿区新宿3-15-17伊勢丹会館4F
"0,1,0,1,0,0,0,1,0","0.0,3.0,0.0,3.0,0.0,0.0,0.0,0.0,3.0",0.037580695694043556,384.9677217223826,0.707106781187,0.7081047300285801,25747,まき串 串タロー 新宿東口2号店,https://tabelog.com/tokyo/A1304/A130401/13193133/,焼鳥、焼きとん,Ｂ級和食,35.69286306,139.7006819,東京都新宿区新宿3-20-2富士一ビル
"0,1,0,1,0,0,0,1,0","0.0,3.0,0.0,3.0,0.0,0.0,0.0,0.0,3.0",0.03265739747761856,386.9370410089526,0.707106781187,0.7078605128201538,26750,北国酒場 んだんだ,https://tabelog.com/tokyo/A1304/A130401/13100419/,郷土料理（その他）、居酒屋、鍋（その他）,焼肉・ホルモン・鍋,35.69136389,139.7038444,東京都新宿区新宿3-6-11庄助ビル2F・3F
"0,1,0,1,0,0,0,1,0","0.0,3.0,0.0,3.0,0.0,0.0,0.0,0.0,3.0",0.028381964124138362,388.64721435034465,0.707106781187,0.7076761518431604,28755,三界,https://tabelog.com/tokyo/A1304/A130401/13148499/,居酒屋、日本酒バー、焼酎バー,バー・お酒,35.69072556,139.7042839,東京都新宿区新宿3-8-4第五明石ビル3F
"0,1,0,1,0,0,0,1,0","0.0,3.0,0.0,3.0,0.0,0.0,0.0,0.0,3.0",0.027397103572634477,389.0411585709462,0.707106781187,0.7076373374011363,14253,完全個室居酒屋 星夜の宴 新宿本店,https://tabelog.com/tokyo/A1304/A130403/13140391/,居酒屋、ダイニングバー、居酒屋・ダイニングバー（その他）,居酒屋,35.68810111,139.6963172,東京都渋谷区代々木2-10-1サンセイビル2F
"0,1,0,1,0,0,0,1,0","0.0,3.0,0.0,3.0,0.0,0.0,0.0,0.0,3.0",0.022558877108008205,390.9764491567967,0.707106781187,0.7074665383863565,26311,マルゴ ファイブ,https://tabelog.com/tokyo/A1304/A130401/13112243/,バル・バール、ワインバー、イタリアン,バー・お酒,35.6929,139.7008758,東京都新宿区新宿3-20-8トップスハウス1F/2F
"0,1,0,1,0,0,0,1,0","0.0,3.0,0.0,3.0,0.0,0.0,0.0,0.0,3.0",0.01963712459697149,392.1451501612114,0.707106781187,0.707379400790295,30464,薩摩八郎 新宿店,https://tabelog.com/tokyo/A1304/A130401/13057909/,居酒屋、郷土料理（その他）,高級和食,35.69293698,139.7005208,東京都新宿区新宿3-20-3ニューサンパークビル別館
"0,1,0,1,0,0,0,1,0","0.0,3.0,0.0,3.0,0.0,0.0,0.0,0.0,3.0",0.019364746246190237,392.2541015015239,0.707106781187,0.7073718918625331,28436,サロン ド シマジ,https://tabelog.com/tokyo/A1304/A130401/13196766/,バー,バー・お酒,35.692412,139.7025889,東京都新宿区新宿3-14-1伊勢丹新宿店メンズ館8F
"0,1,0,1,0,0,0,1,0","0.0,3.0,0.0,3.0,0.0,0.0,0.0,0.0,3.0",0.011842836716095349,395.26286531356186,0.707106781187,0.7072059479256972,30330,牛角 新宿東口店,https://tabelog.com/tokyo/A1304/A130401/13124213/,焼肉、居酒屋、居酒屋・ダイニングバー（その他）,焼肉・ホルモン・鍋,35.69293944,139.7008714,東京都新宿区新宿3-20-8WaMall8F
"0,1,0,1,0,0,0,1,0","0.0,3.0,0.0,3.0,0.0,0.0,0.0,0.0,3.0",0.003292509069573839,398.68299637217046,0.707106781187,0.7071144466180656,26819,鳥焼亭 三平,https://tabelog.com/tokyo/A1304/A130401/13055466/,焼鳥、居酒屋、焼酎バー,バー・お酒,35.69297722,139.6998081,東京都新宿区新宿3-22-1２Ｆ
"0,1,0,1,0,0,0,1,0","0.0,3.0,0.0,3.0,3.0,0.0,0.0,0.0,3.0",0.49209884828297024,203.16046068681192,0.5,0.701542070357456,27461,プレゴプレゴ,https://tabelog.com/tokyo/A1304/A130401/13000927/,イタリアン、パスタ、西洋各国料理（その他）,洋食・西洋料理,35.6906069,139.7020014,東京都新宿区新宿3-31-3ＮＳプラザ中央　４Ｆ
"0,1,0,1,0,0,0,1,0","0.0,3.0,0.0,3.0,3.0,0.0,0.0,0.0,3.0",0.49092087838482024,203.6316486460719,0.5,0.7007162826951601,26215,和食Dining 黒田,https://tabelog.com/tokyo/A1304/A130401/13029489/,居酒屋、もつ鍋、もつ料理,居酒屋,35.69058667,139.7020294,東京都新宿区新宿3-31-3プラザ中央ビル　６Ｆ・７Ｆ
"0,1,0,1,0,0,0,1,0","0.0,3.0,0.0,3.0,0.0,3.0,0.0,0.0,3.0",0.47918580878809186,208.32567648476325,0.5,0.692545333782488,28398,焼肉ダイニング GYUBEI 新宿ミロード店,https://tabelog.com/tokyo/A1304/A130401/13184034/,焼肉、ホルモン、バル・バール,焼肉・ホルモン・鍋,35.68961111,139.6980181,東京都新宿区西新宿1-1-3小田急新宿ミロード9F
"0,1,0,1,0,0,0,1,0","0.0,3.0,0.0,3.0,0.0,3.0,0.0,0.0,3.0",0.4762664247242387,209.49343011030453,0.5,0.6905285709654663,31189,権 新宿本店,https://tabelog.com/tokyo/A1304/A130401/13142978/,居酒屋、魚介料理・海鮮料理、創作料理,高級和食,35.691225,139.6996811,東京都新宿区新宿3-27-5ケースリービル5F
"0,1,0,1,0,0,0,1,0","0.0,3.0,0.0,3.0,3.0,3.0,0.0,0.0,3.0",0.5561722632559509,177.53109469761964,0.408248290464,0.689923367543029,26049,NIKKO KANAYA HOTEL CRAFT GRILL,https://tabelog.com/tokyo/A1304/A130401/13194052/,ビストロ、ビアバー、洋食,洋食・西洋料理,35.69037639,139.7018664,東京都新宿区新宿3-32-6B1F
"0,1,0,1,0,0,0,1,0","0.0,3.0,0.0,3.0,3.0,0.0,0.0,0.0,3.0",0.47317703528049004,210.729185887804,0.5,0.6884014139416291,31464,Ｋｕ.ｋｕ.ｒｕ,https://tabelog.com/tokyo/A1304/A130401/13174098/,居酒屋、もつ鍋、バル・バール,バー・お酒,35.69123083,139.6996564,東京都新宿区新宿3-27-5ケースリービル
"0,1,0,1,0,0,0,1,0","0.0,3.0,0.0,3.0,3.0,0.0,0.0,0.0,3.0",0.47226035190962756,211.09585923614898,0.5,0.6877716481404313,30471,夢ごこち 新宿店,https://tabelog.com/tokyo/A1304/A130401/13195715/,居酒屋、バル・バール、ダイニングバー,バー・お酒,35.69123472,139.6996583,東京都新宿区新宿3-27-5ケースリービル8F
"0,1,0,1,0,0,0,1,0","0.0,3.0,0.0,3.0,3.0,0.0,0.0,0.0,3.0",0.43284547364248027,226.8618105430079,0.5,0.6613283632604783,31552,茶茶白雨,https://tabelog.com/tokyo/A1304/A130401/13021121/,京料理、和食（その他）、居酒屋,高級和食,35.69145,139.700205,東京都新宿区新宿3-26-18カワノビル6F
"0,1,0,1,0,0,0,1,0","0.0,3.0,0.0,3.0,3.0,0.0,0.0,0.0,3.0",0.4277814518784025,228.887419248639,0.5,0.6580250531485818,32110,えん 新宿店,https://tabelog.com/tokyo/A1304/A130401/13025626/,居酒屋、創作料理、懐石・会席料理,高級和食,35.69114611,139.7016661,東京都新宿区新宿3-30-11新宿高野第2ビル7F
"0,1,0,1,0,0,0,1,0","0.0,3.0,0.0,3.0,0.0,3.0,0.0,0.0,3.0",0.4191593997308341,232.33624010766636,0.5,0.6524527587363802,25646,美食 個室・炭火焼・ワイン 縁 新宿店,https://tabelog.com/tokyo/A1304/A130401/13141175/,居酒屋、鍋（その他）、ダイニングバー,焼肉・ホルモン・鍋,35.69149833,139.7001764,東京都新宿区新宿3-26-18カワノビル5F
"0,1,0,1,0,0,0,1,0","0.0,3.0,0.0,3.0,3.0,0.0,0.0,0.0,3.0",0.40000972673112356,239.99610930755057,0.5,0.6403185000290934,28326,天地旬鮮　八吉 新宿東口店,https://tabelog.com/tokyo/A1304/A130401/13114812/,魚介料理・海鮮料理、日本酒バー、居酒屋,高級和食,35.69150861,139.6996786,東京都新宿区新宿3-26-6新宿FFビル8F
"0,1,0,1,0,0,0,1,0","0.0,3.0,0.0,3.0,3.0,0.0,0.0,0.0,3.0",0.39955785913405173,240.1768563463793,0.5,0.6400363136539885,31187,咲くら 新宿東口店,https://tabelog.com/tokyo/A1304/A130401/13012021/,居酒屋、魚介料理・海鮮料理、鍋（その他）,高級和食,35.69151833,139.6997206,東京都新宿区新宿3-26-6新宿ＦＦビル　６Ｆ
"0,1,0,1,0,0,0,1,0","0.0,3.0,0.0,3.0,3.0,3.0,0.0,0.0,3.0",0.4831895762438257,206.72416950246972,0.408248290464,0.6325652798386538,29521,ワインカフェ新宿 アネックス,https://tabelog.com/tokyo/A1304/A130401/13159149/,イタリアン、ビストロ、ワインバー,バー・お酒,35.6905375,139.7021214,東京都新宿区新宿3-31-1大伸第２ビル5Ｆ
"0,1,0,1,0,0,0,1,0","0.0,3.0,0.0,3.0,3.0,3.0,0.0,0.0,3.0",0.48316107286763776,206.7355708529449,0.408248290464,0.6325435075955435,12632,美先 新宿店,https://tabelog.com/tokyo/A1304/A130401/13034864/,京料理、懐石・会席料理、割烹・小料理,高級和食,35.68754667,139.7001778,東京都渋谷区千駄ヶ谷5-24-2新宿タカシマヤイムズスクエア本館14F
"0,1,0,1,0,0,0,1,0","0.0,3.0,0.0,3.0,0.0,3.0,0.0,0.0,3.0",0.38260241332068345,246.9590346717266,0.5,0.6295908248051357,28794,いろはにほへと 新宿東口店,https://tabelog.com/tokyo/A1304/A130401/13024739/,居酒屋、和食（その他）、魚介料理・海鮮料理,Ｂ級和食,35.69157944,139.6997122,東京都新宿区新宿3-26-6新宿ＦＦビル7Ｆ
"0,1,0,1,0,0,0,1,0","0.0,3.0,0.0,3.0,3.0,0.0,0.0,0.0,3.0",0.3523043881701525,259.078244731939,0.5,0.6116521739714047,31037,くいもの屋 わん 新宿東口店,https://tabelog.com/tokyo/A1304/A130401/13051219/,居酒屋、居酒屋・ダイニングバー（その他）、創作料理,創作料理・無国籍料理,35.69172389,139.69995,東京都新宿区新宿3-26-2三平中央口ビル　Ｂ１Ｆ・Ｂ２Ｆ
"0,1,0,1,0,0,0,1,0","0.0,3.0,0.0,3.0,3.0,0.0,0.0,0.0,3.0",0.34551362059336654,261.7945517626534,0.5,0.6077661244389464,30403,個室居酒屋 番屋 新宿東口店,https://tabelog.com/tokyo/A1304/A130401/13030041/,居酒屋、焼鳥、魚介料理・海鮮料理,居酒屋,35.69152639,139.7015772,東京都新宿区新宿3-17-1いさみやビル　５Ｆ
"0,1,0,1,0,0,0,1,0","0.0,3.0,0.0,3.0,0.0,3.0,0.0,0.0,3.0",0.318457620390493,272.6169518438028,0.5,0.5928028812217223,13064,ペッシェドーロ 新宿店,https://tabelog.com/tokyo/A1304/A130401/13006895/,イタリアン、パスタ、ピザ,洋食・西洋料理,35.68760667,139.6982564,東京都渋谷区代々木2-2-1新宿サザンテラス内
"0,1,0,1,0,0,0,1,0","0.0,3.0,0.0,3.0,3.0,0.0,0.0,0.0,3.0",0.3139821310756274,274.40714756974904,0.5,0.5904106864164913,32071,北の味紀行と地酒 北海道 新宿東口店,https://tabelog.com/tokyo/A1304/A130401/13022420/,居酒屋、かに、魚介料理・海鮮料理,高級和食,35.69163611,139.7016192,東京都新宿区新宿3-17-1いさみやビル　４Ｆ
"0,1,0,1,0,0,0,1,0","0.0,3.0,0.0,3.0,0.0,3.0,0.0,0.0,3.0",0.3007217506275428,279.71129974898287,0.5,0.5834668553572636,29611,KICHIRI　MOLLIS,https://tabelog.com/tokyo/A1304/A130401/13174169/,ダイニングバー、居酒屋、居酒屋・ダイニングバー（その他）,バー・お酒,35.69192365,139.7001249,東京都新宿区新宿3-26-13新宿中村屋ビル　6F
"0,1,0,1,0,0,0,1,0","0.0,3.0,0.0,3.0,3.0,0.0,0.0,0.0,3.0",0.3004176323310295,279.8329470675882,0.5,0.5833101694770816,31696,RAMBUTAN,https://tabelog.com/tokyo/A1304/A130401/13174577/,タイ料理、鍋（その他）、ダイニングバー,焼肉・ホルモン・鍋,35.69192167,139.7000692,東京都新宿区新宿3-26-13新宿中村屋ビル7F
"0,1,0,1,0,0,0,1,0","0.0,3.0,0.0,3.0,3.0,0.0,0.0,0.0,3.0",0.2899556427794039,284.01774288823844,0.5,0.5779915871183743,26711,ガルニ　タルティーヌ,https://tabelog.com/tokyo/A1304/A130401/13165311/,イタリアン、ビストロ、バル・バール,洋食・西洋料理,35.69189556,139.7010411,東京都新宿区新宿3-17-5新宿ニュー富士ビル　7F
"0,1,0,1,0,0,0,1,0","0.0,3.0,0.0,3.0,3.0,0.0,0.0,0.0,3.0",0.27719790964489877,289.1208361420405,0.5,0.5716980681369331,28665,くいもの屋 わん 新宿通り店,https://tabelog.com/tokyo/A1304/A130401/13051222/,居酒屋、居酒屋・ダイニングバー（その他）、創作料理,創作料理・無国籍料理,35.69190111,139.7012311,東京都新宿区新宿3-17-4新宿レミナビル　９Ｆ
"0,1,0,1,0,0,0,1,0","0.0,3.0,0.0,3.0,3.0,0.0,0.0,0.0,3.0",0.24588587746901155,301.6456490123954,0.5,0.5571892539691571,27931,八吉 新宿三丁目店,https://tabelog.com/tokyo/A1304/A130401/13050111/,魚介料理・海鮮料理、日本酒バー、居酒屋,高級和食,35.6919043,139.7016232,東京都新宿区新宿3-17-22
"0,1,0,1,0,0,0,1,0","0.0,3.0,0.0,3.0,0.0,3.0,0.0,0.0,3.0",0.23850368938167166,304.59852424733134,0.5,0.5539711272698866,29247,色 iro 新宿,https://tabelog.com/tokyo/A1304/A130401/13146716/,居酒屋、ダイニングバー,バー・お酒,35.69215222,139.7003294,東京都新宿区新宿3-18-1新宿一色ビル8F
"0,1,0,1,0,0,0,1,0","0.0,3.0,0.0,3.0,3.0,0.0,0.0,0.0,3.0",0.22389933460250902,310.4402661589964,0.5,0.5478420502621593,28275,北海道シントク町 塚田農場 京王フレンテ新宿三丁目店,https://tabelog.com/tokyo/A1304/A130401/13129807/,居酒屋、鳥料理、創作料理,創作料理・無国籍料理,35.69096778,139.7031525,東京都新宿区新宿3-4-8京王フレンテ新宿三丁目7F
"0,1,0,1,0,0,0,1,0","0.0,3.0,0.0,3.0,3.0,0.0,0.0,0.0,3.0",0.22353398245938594,310.58640701624563,0.5,0.5476928348208995,30906,スペイン魚介バル 新宿三丁目店,https://tabelog.com/tokyo/A1304/A130401/13117815/,スペイン料理、ワインバー、バル・バール,バー・お酒,35.69096917,139.7031533,東京都新宿区新宿3丁目4-8京王フレンテ新宿三丁目3F
"0,1,0,1,0,0,0,1,0","0.0,3.0,0.0,3.0,3.0,0.0,0.0,0.0,3.0",0.2232928305731123,310.6828677707551,0.5,0.5475944559483347,31178,八吉 新宿明治通り店,https://tabelog.com/tokyo/A1304/A130401/13118116/,居酒屋、日本酒バー、魚介料理・海鮮料理,高級和食,35.69097,139.7031539,東京都新宿区新宿3-4-8京王フレンテ新宿三丁目8F
"0,1,0,1,0,0,0,1,0","0.0,3.0,0.0,3.0,0.0,3.0,0.0,0.0,3.0",0.22295286281796364,310.81885487281454,0.5,0.5474559151554814,31485,ITALIAN RESTAURANT & BAR GOHAN 新宿三丁目店,https://tabelog.com/tokyo/A1304/A130401/13117939/,バル・バール、イタリアン、居酒屋,洋食・西洋料理,35.69091167,139.7032025,東京都新宿区新宿3-4-8京王フレンテ新宿三丁目8F
"0,1,0,1,0,0,0,1,0","0.0,3.0,0.0,3.0,3.0,0.0,0.0,0.0,3.0",0.2195545801528634,312.17816793885464,0.5,0.54608077577049,31381,虎連坊 新宿店,https://tabelog.com/tokyo/A1304/A130401/13021796/,居酒屋、魚介料理・海鮮料理、日本酒バー,高級和食,35.69076157,139.7033289,東京都新宿区新宿3-4-1東新宿ビルディング　６Ｆ
"0,1,0,1,0,0,0,1,0","0.0,3.0,0.0,3.0,3.0,0.0,0.0,0.0,3.0",0.2098440645382459,316.06237418470164,0.5,0.5422495103012371,10160,バー アイス,https://tabelog.com/tokyo/A1304/A130401/13011664/,バー、バー・お酒（その他）、ダイニングバー,バー・お酒,35.68791222,139.6973336,東京都渋谷区代々木2-7-6ＧＳハイム佐藤ビル　２Ｆ
"0,1,0,1,0,0,0,1,0","0.0,3.0,0.0,3.0,3.0,0.0,0.0,0.0,3.0",0.19017828511343665,323.92868595462534,0.5,0.5349465208118356,25692,鳥良 新宿3号店,https://tabelog.com/tokyo/A1304/A130401/13012118/,和食（その他）、居酒屋、鍋（その他）,Ｂ級和食,35.69232639,139.7002742,東京都新宿区新宿3-18-4セノビル　４Ｆ
"0,1,0,1,0,0,0,1,0","0.0,3.0,0.0,3.0,0.0,3.0,0.0,0.0,3.0",0.18803276958889525,324.7868921644419,0.5,0.534187534896941,25669,新宿 はかた地どり個室居酒屋 博多鶏,https://tabelog.com/tokyo/A1304/A130401/13171287/,居酒屋、ダイニングバー、バル・バール,居酒屋,35.69229801,139.6997432,東京都新宿区新宿3-19-4MLJ新宿ビル9F-B
"0,1,0,1,0,0,0,1,0","0.0,3.0,0.0,3.0,3.0,0.0,0.0,0.0,3.0",0.18391778590153707,326.4328856393852,0.5,0.5327529933946159,31877,中国茶房８ 新宿店,https://tabelog.com/tokyo/A1304/A130401/13094360/,中華料理、飲茶・点心、居酒屋,アジア・エスニック、中華料理,35.69116747,139.7031955,東京都新宿区新宿3-5-3高山ランド会館6階
"0,1,0,1,0,0,0,1,0","0.0,3.0,0.0,3.0,0.0,3.0,0.0,0.0,3.0",0.1837090474103009,326.51638103587965,0.5,0.5326809684045416,30244,さがみ 小田急本館店,https://tabelog.com/tokyo/A1304/A130401/13033875/,懐石・会席料理、しゃぶしゃぶ、ステーキ,高級和食,35.69132889,139.6975742,東京都新宿区西新宿1-1-3小田急百貨店新宿店本館13F
"0,1,0,1,0,0,0,1,0","0.0,3.0,0.0,3.0,0.0,3.0,0.0,0.0,3.0",0.1823786861260463,327.0485255495815,0.5,0.5322236232572385,26767,ヒズギント 新宿三丁目,https://tabelog.com/tokyo/A1304/A130401/13041898/,イタリアン、ダイニングバー、炭火焼き,創作料理・無国籍料理,35.69081083,139.7034831,東京都新宿区新宿3-4-1東新宿ビル　７Ｆ
"0,1,0,1,0,0,0,1,0","0.0,3.0,0.0,3.0,3.0,0.0,0.0,0.0,3.0",0.1811126083616668,327.5549566553333,0.5,0.5317911026968827,31335,松尾ジンギスカン 新宿三丁目店,https://tabelog.com/tokyo/A1304/A130401/13193340/,ジンギスカン、鍋（その他）、焼肉,焼肉・ホルモン・鍋,35.69117944,139.7032,東京都新宿区新宿3-5-3高山ランド会館5F
"0,1,0,1,0,0,0,1,0","0.0,3.0,0.0,3.0,3.0,0.0,0.0,0.0,3.0",0.17770802923138973,328.9167883074441,0.5,0.5306412570214499,30759,京町恋しぐれ 新宿 新館,https://tabelog.com/tokyo/A1304/A130401/13160467/,居酒屋、和食（その他）、その他肉料理,Ｂ級和食,35.69237111,139.70025,東京都新宿区新宿3-18-4セノビル5F
"0,1,0,1,0,0,0,1,0","0.0,3.0,0.0,3.0,3.0,3.0,0.0,0.0,3.0",0.3328791964483443,266.8483214206623,0.408248290464,0.526759172767558,28785,個室バル 囲 新宿本店,https://tabelog.com/tokyo/A1304/A130401/13031619/,居酒屋、ダイニングバー、もつ鍋,バー・お酒,35.69160889,139.7014919,東京都新宿区新宿3-17-3アカネビル5・6F
"0,1,0,1,0,0,0,1,0","0.0,3.0,0.0,3.0,3.0,0.0,0.0,0.0,3.0",0.14911278442002796,340.3548862319888,0.5,0.521761077963366,11091,お菜家,https://tabelog.com/tokyo/A1304/A130403/13030983/,居酒屋、魚介料理・海鮮料理、日本酒バー,高級和食,35.68644882,139.7013011,東京都渋谷区千駄ヶ谷5-32-7NOF南新宿ビル1F
"0,1,0,1,0,0,0,1,0","0.0,3.0,0.0,3.0,0.0,3.0,0.0,0.0,3.0",0.14908741517370744,340.36503393051703,0.5,0.5217538283167431,28516,オストレア 新宿三丁目店,https://tabelog.com/tokyo/A1304/A130401/13170910/,オイスターバー、魚介料理・海鮮料理、バル・バール,高級和食,35.69076778,139.7036761,東京都新宿区新宿3-3-51F・2F・3F
"0,1,0,1,0,0,0,1,0","0.0,3.0,0.0,3.0,3.0,0.0,0.0,0.0,3.0",0.135851272026311,345.6594911894756,0.5,0.518126980682503,31341,BAR LIVET,https://tabelog.com/tokyo/A1304/A130401/13165681/,バー、ワインバー、バー・お酒（その他）,バー・お酒,35.69112778,139.7034894,東京都新宿区新宿3-6-3ISビル4F
"0,1,0,1,0,0,0,1,0","0.0,3.0,0.0,3.0,3.0,0.0,0.0,0.0,3.0",0.13552509404993515,345.78996238002594,0.5,0.5180415534657851,27871,肉焼屋 はなれ,https://tabelog.com/tokyo/A1304/A130401/13201587/,居酒屋、もつ焼き、焼鳥,居酒屋,35.69112917,139.70349,東京都新宿区新宿3-6-3ISビル1F
"0,1,0,1,0,0,0,1,0","0.0,3.0,0.0,3.0,3.0,0.0,0.0,0.0,3.0",0.13269614252410789,346.92154299035684,0.5,0.5173086759767116,27884,SALON DE BOU'S,https://tabelog.com/tokyo/A1304/A130401/13058976/,洋食、ダイニングバー、バー・お酒（その他）,洋食・西洋料理,35.68896893,139.6965111,東京都新宿区西新宿1-18-1小川ビル5F
"0,1,0,1,0,0,0,1,0","0.0,3.0,0.0,3.0,0.0,3.0,0.0,0.0,3.0",0.13253720350548506,346.985118597806,0.5,0.5172679289430714,31415,房's 西新宿,https://tabelog.com/tokyo/A1304/A130401/13011983/,ダイニングバー、創作料理、ワインバー,バー・お酒,35.68896715,139.6965107,東京都新宿区西新宿1-18-1小川ビル　４Ｆ・５Ｆ
"0,1,0,1,0,0,0,1,0","0.0,3.0,0.0,3.0,3.0,0.0,0.0,0.0,3.0",0.1320690555082993,347.1723777966803,0.5,0.5171481754998796,25653,豚や三八,https://tabelog.com/tokyo/A1304/A130401/13099693/,ホルモン、居酒屋、焼肉,焼肉・ホルモン・鍋,35.69102341,139.7035901,東京都新宿区新宿3-6-14
"0,1,0,1,0,0,0,1,0","0.0,3.0,0.0,3.0,3.0,0.0,0.0,0.0,3.0",0.12757766585136424,348.9689336594543,0.5,0.5160194384168898,11559,和牛焼肉　慶,https://tabelog.com/tokyo/A1304/A130401/13066663/,焼肉、ホルモン,焼肉・ホルモン・鍋,35.68783556,139.6969664,東京都渋谷区代々木2-6-8中島ビルB1F
"0,1,0,1,0,0,0,1,0","0.0,3.0,0.0,3.0,3.0,0.0,0.0,0.0,3.0",0.12730153173627343,349.0793873054906,0.5,0.5159512379890191,26091,マルゴーグランデ,https://tabelog.com/tokyo/A1304/A130401/13085280/,イタリアン、バル・バール、ワインバー,バー・お酒,35.69100194,139.7036303,東京都新宿区新宿3-6-14新世界ビル　１Ｆ
"0,1,0,1,0,0,0,1,0","0.0,3.0,0.0,3.0,3.0,0.0,0.0,0.0,3.0",0.12352813663932821,350.5887453442687,0.5,0.5150332033389542,26737,炭火串焼 やき龍 禅,https://tabelog.com/tokyo/A1304/A130401/13028213/,串焼き,Ｂ級和食,35.69255278,139.6999417,東京都新宿区新宿3-25-10當山ビル　Ｂ１Ｆ
"0,1,0,1,0,0,0,1,0","0.0,3.0,0.0,3.0,3.0,0.0,0.0,0.0,3.0",0.12182563911649026,351.2697443534039,0.5,0.5146275219478077,12326,肉バル ウーズチャーム 新宿南口,https://tabelog.com/tokyo/A1304/A130401/13037868/,イタリアン、バル・バール、居酒屋,洋食・西洋料理,35.68783056,139.6969406,東京都渋谷区代々木2-6-8新宿ｅｘビル　１Ｆ・Ｂ１Ｆ
"0,1,0,1,0,0,0,1,0","0.0,3.0,0.0,3.0,3.0,0.0,0.0,0.0,3.0",0.1175893674898974,352.96425300404104,0.5,0.5136411776198186,26877,紀州屋,https://tabelog.com/tokyo/A1304/A130401/13021657/,居酒屋、魚介料理・海鮮料理、豚しゃぶ,焼肉・ホルモン・鍋,35.688935,139.6964497,東京都新宿区西新宿1-18-1小川ビル　２Ｆ
"0,1,0,1,0,0,0,1,0","0.0,3.0,0.0,3.0,3.0,0.0,0.0,0.0,3.0",0.11635954753545803,353.4561809858168,0.5,0.5133610272533907,30025,墨国世界,https://tabelog.com/tokyo/A1304/A130401/13198499/,メキシコ料理、バル・バール、スペイン料理,洋食・西洋料理,35.69255694,139.7008889,東京都新宿区新宿3-17-13KEIビルB1F
"0,1,0,1,0,0,0,1,0","0.0,3.0,0.0,3.0,3.0,0.0,0.0,0.0,3.0",0.11216756034170018,355.1329758633199,0.5,0.5124271280806755,28068,旬鮮酒場 天狗 新宿南口店,https://tabelog.com/tokyo/A1304/A130401/13051515/,居酒屋、魚介料理・海鮮料理、串焼き,高級和食,35.68882583,139.6964478,東京都新宿区西新宿1-18-2第10大京ビルB1・B2F
"0,1,0,1,0,0,0,1,0","0.0,3.0,0.0,3.0,3.0,0.0,0.0,0.0,3.0",0.10739095686606703,357.0436172535732,0.5,0.5114027939077078,27971,CHIRARI,https://tabelog.com/tokyo/A1304/A130401/13162754/,イタリアン、バル・バール、日本酒バー,バー・お酒,35.69124599,139.703543,東京都新宿区新宿3-6-4楽屋ビル1F
"0,1,0,1,0,0,0,1,0","0.0,3.0,0.0,3.0,3.0,0.0,0.0,0.0,3.0",0.10638866430074131,357.4445342797035,0.5,0.5111932588480562,26422,ヴァンアドン,https://tabelog.com/tokyo/A1304/A130401/13144187/,ワインバー、バー,バー・お酒,35.69124833,139.7035464,東京都新宿区新宿3-6-4楽屋ビルB1F
"0,1,0,1,0,0,0,1,0","0.0,3.0,0.0,3.0,3.0,0.0,0.0,0.0,3.0",0.10550300954002267,357.79879618399093,0.5,0.5110096721413423,29110,バー ブラン,https://tabelog.com/tokyo/A1304/A130401/13188112/,バー、バー・お酒（その他）,バー・お酒,35.68978667,139.7042314,東京都新宿区新宿3-1-32新宿一号ビルB1F
"0,1,0,1,0,0,0,1,0","0.0,3.0,0.0,3.0,3.0,0.0,0.0,0.0,3.0",0.10024780116693037,359.90087953322785,0.5,0.509950607057982,31475,呑者家 西口店,https://tabelog.com/tokyo/A1304/A130401/13029932/,居酒屋、魚介料理・海鮮料理,高級和食,35.68869167,139.6964278,東京都新宿区西新宿1-18-4共新ビル　Ｂ１Ｆ
"0,1,0,1,0,0,0,1,0","0.0,3.0,0.0,3.0,3.0,0.0,0.0,0.0,3.0",0.09985255235332773,360.0589790586689,0.5,0.5098730549965099,27991,ビストロ ブルー,https://tabelog.com/tokyo/A1304/A130401/13161497/,ビストロ、フレンチ、ダイニングバー,洋食・西洋料理,35.69059778,139.7040064,東京都新宿区新宿3-3-9
"0,1,0,1,0,0,0,1,0","0.0,3.0,0.0,3.0,3.0,0.0,0.0,0.0,3.0",0.09537814541656686,361.84874183337325,0.5,0.5090157076388742,30444,がむしゃら,https://tabelog.com/tokyo/A1304/A130401/13032793/,ダイニングバー、居酒屋、創作料理,創作料理・無国籍料理,35.69084444,139.7038944,東京都新宿区新宿3-7-2中川ビル　Ｂ１Ｆ
"0,1,0,1,0,0,0,1,0","0.0,3.0,0.0,3.0,3.0,0.0,0.0,0.0,3.0",0.09469401714566046,362.1223931417358,0.5,0.5088879610318785,26647,九州 熱中屋 新宿三丁目LIVE,https://tabelog.com/tokyo/A1304/A130401/13135875/,居酒屋、もつ鍋、餃子,居酒屋,35.6909575,139.7038264,東京都新宿区新宿3-7-4一兆ビルB1F・B2F
"0,1,0,1,0,0,0,1,0","0.0,3.0,0.0,3.0,3.0,0.0,0.0,0.0,3.0",0.09204750125057913,363.18099949976835,0.5,0.508402146421979,14237,DINING 彩 新宿店,https://tabelog.com/tokyo/A1304/A130401/13021120/,居酒屋、魚介料理・海鮮料理、鍋（その他）,高級和食,35.68822083,139.6965664,東京都渋谷区代々木2-9-2久保ビル　Ｂ２Ｆ
"0,1,0,1,0,0,0,1,0","0.0,3.0,0.0,3.0,3.0,0.0,0.0,0.0,3.0",0.09183644545174971,363.2654218193001,0.5,0.5083639766085046,26411,芋蔵 新宿西口店,https://tabelog.com/tokyo/A1304/A130401/13156743/,居酒屋、もつ鍋、しゃぶしゃぶ,焼肉・ホルモン・鍋,35.6897725,139.6963178,東京都新宿区西新宿1-10-2110ビル7F
"0,1,0,1,0,0,0,1,0","0.0,3.0,0.0,3.0,0.0,3.0,0.0,0.0,3.0",0.09178630634422831,363.2854774623087,0.5,0.5083549213220194,29818,がんこ 新宿西口店,https://tabelog.com/tokyo/A1304/A130401/13156390/,寿司、懐石・会席料理、しゃぶしゃぶ,高級和食,35.68977194,139.6963175,東京都新宿区西新宿1-10-2110ビル　10F
"0,1,0,1,0,0,0,1,0","0.0,3.0,0.0,3.0,3.0,0.0,0.0,0.0,3.0",0.08879520592607278,364.4819176295709,0.5,0.5078233832696695,25688,マルゴー,https://tabelog.com/tokyo/A1304/A130401/13019866/,バル・バール、ワインバー,バー・お酒,35.69097083,139.7038472,東京都新宿区新宿3-7-5
"0,1,0,1,0,0,0,1,0","0.0,3.0,0.0,3.0,3.0,0.0,0.0,0.0,3.0",0.08852921279546479,364.5883148818141,0.5,0.5077769407113567,30337,なんじゃもんじゃ,https://tabelog.com/tokyo/A1304/A130401/13006103/,お好み焼き、居酒屋、鉄板焼き,洋食・西洋料理,35.69097194,139.7038478,東京都新宿区新宿3-7-5一兆ビル　３Ｆ・４Ｆ
"0,1,0,1,0,0,0,1,0","0.0,3.0,0.0,3.0,3.0,0.0,0.0,0.0,3.0",0.08015680154863247,367.937279380547,0.5,0.5063843528729012,28858,Bar STirage,https://tabelog.com/tokyo/A1304/A130401/13052860/,バル・バール、ダイニングバー、バー,バー・お酒,35.688761,139.696319,東京都新宿区西新宿1-18-5中沖ビル7F
"0,1,0,1,0,0,0,1,0","0.0,2.0,0.0,3.0,3.0,0.0,0.0,0.0,3.0",0.07995352441326986,368.01859023469206,0.5,0.506352215425294,26456,どうらく・Qui,https://tabelog.com/tokyo/A1304/A130401/13080513/,居酒屋、和食（その他）,Ｂ級和食,35.69039278,139.7041881,東京都新宿区新宿3-2-2紺野ビル1F
"0,1,0,1,0,0,0,1,0","0.0,3.0,0.0,3.0,3.0,0.0,0.0,0.0,3.0",0.07303644097934495,370.785423608262,0.5,0.5053061663100198,25902,北の国バル 新宿西口店,https://tabelog.com/tokyo/A1304/A130401/13175217/,バル・バール、イタリアン、居酒屋,洋食・西洋料理,35.68877028,139.6962847,東京都新宿区西新宿1-18-52F
"0,1,0,1,0,0,0,1,0","0.0,3.0,0.0,3.0,0.0,3.0,0.0,0.0,3.0",0.07295499563989338,370.81800174404265,0.5,0.5052944007099395,28365,大吉 新宿西口店,https://tabelog.com/tokyo/A1304/A130401/13194009/,居酒屋、魚介料理・海鮮料理、鳥料理,高級和食,35.68877,139.6962844,東京都新宿区西新宿1-18-5甲新ビル5F
"0,1,0,1,0,0,0,1,0","0.0,3.0,0.0,3.0,0.0,3.0,0.0,0.0,3.0",0.06257222191090421,374.9711112356383,0.5,0.5039000723902185,14352,韓豚屋 新宿サザンテラス店,https://tabelog.com/tokyo/A1304/A130401/13103592/,居酒屋、韓国料理、焼肉,焼肉・ホルモン・鍋,35.6864663,139.6982646,東京都渋谷区代々木2-2-1新宿サザンテラス小田急サザンタワー3F
"0,1,0,1,0,0,0,1,0","0.0,3.0,0.0,3.0,3.0,0.0,0.0,0.0,3.0",0.05263702501804886,378.94518999278046,0.5,0.5027630221115618,31524,呑者家 末広通り店,https://tabelog.com/tokyo/A1304/A130401/13029933/,居酒屋,居酒屋,35.69130556,139.7037861,東京都新宿区新宿3-6-12藤堂ビル　２Ｆ
"0,1,0,1,0,0,0,1,0","0.0,3.0,0.0,3.0,3.0,0.0,0.0,0.0,3.0",0.05256545025498667,378.97381989800533,0.5,0.5027555335951157,27388,燻製専門店 燻煙SmokeDining 新宿三丁目店,https://tabelog.com/tokyo/A1304/A130401/13158019/,ダイニングバー、ワインバー、イタリアン,バー・お酒,35.69130639,139.7037858,東京都新宿区新宿3-6-12藤堂ビル3F
"0,1,0,1,0,0,0,1,0","0.0,3.0,0.0,3.0,3.0,0.0,0.0,0.0,3.0",0.04919247440800831,380.3230102367967,0.5,0.5024140717957475,25898,安芸路 酔心 新宿店,https://tabelog.com/tokyo/A1304/A130401/13006784/,郷土料理（その他）、魚介料理・海鮮料理,高級和食,35.69253083,139.7020358,東京都新宿区新宿3-15-17伊勢丹会館B1F
"0,1,0,1,0,0,0,1,0","0.0,3.0,0.0,3.0,3.0,0.0,0.0,0.0,3.0",0.04732543438681972,381.0698262452721,0.5,0.5022347028431042,27459,ワインの酒場。ディプント 新宿三丁目店,https://tabelog.com/tokyo/A1304/A130401/13161965/,ダイニングバー、ワインバー、創作料理,バー・お酒,35.69048833,139.7043019,東京都新宿区新宿3-2-72F
"0,1,0,1,0,0,0,1,0","0.0,3.0,0.0,3.0,3.0,0.0,0.0,0.0,3.0",0.04660793957156031,381.3568241713759,0.5,0.5021676015346931,26433,リットバー,https://tabelog.com/tokyo/A1304/A130401/13000909/,バー,バー・お酒,35.69282306,139.7007714,東京都新宿区新宿3-20-1嶋田ビル　２Ｆ
"0,1,0,1,0,0,0,1,0","0.0,3.0,0.0,3.0,0.0,3.0,0.0,0.0,3.0",0.04339698284795261,382.64120686081895,0.5,0.501879764605334,30559,つくし 新宿西口店,https://tabelog.com/tokyo/A1304/A130401/13176081/,和食（その他）、郷土料理（その他）、もつ鍋,Ｂ級和食,35.68929,139.6960811,東京都新宿区西新宿1-17-1宍戸ビル4F
"0,1,0,1,0,0,0,1,0","0.0,3.0,0.0,3.0,3.0,0.0,0.0,0.0,3.0",0.04073228725267256,383.707085098931,0.5,0.5016563756445583,27418,しゃぶしゃぶ温野菜 新宿店,https://tabelog.com/tokyo/A1304/A130401/13116587/,しゃぶしゃぶ、バイキング、居酒屋,焼肉・ホルモン・鍋,35.69283417,139.7008733,東京都新宿区新宿3-20-8WaMall6F
"0,1,0,1,0,0,0,1,0","0.0,3.0,0.0,3.0,3.0,0.0,0.0,0.0,3.0",0.04029643439923021,383.8814262403079,0.5,0.5016211744187953,31233,居酒屋割烹　三三五五,https://tabelog.com/tokyo/A1304/A130401/13181195/,割烹・小料理、日本酒バー、居酒屋,居酒屋,35.6908283,139.7041727,東京都新宿区新宿3-7-12F
"0,1,0,1,0,0,0,1,0","0.0,3.0,0.0,3.0,3.0,0.0,0.0,0.0,3.0",0.036290343210924475,385.4838627156302,0.5,0.5013152591038564,29950,九州屋 新宿,https://tabelog.com/tokyo/A1304/A130401/13100966/,居酒屋、もつ鍋、餃子,居酒屋,35.69137056,139.7038194,東京都新宿区新宿3-6-11第一玉屋ビルB1
"0,1,0,1,0,0,0,1,0","0.0,3.0,0.0,3.0,3.0,0.0,0.0,0.0,3.0",0.03511005086695775,385.9559796532169,0.5,0.5012311998188863,28891,Pentolino 092,https://tabelog.com/tokyo/A1304/A130401/13174071/,イタリアン、バル・バール,洋食・西洋料理,35.69052056,139.7043456,東京都新宿区新宿3-2-7PLAZAEST新宿3丁目1F
"0,1,0,1,0,0,0,1,0","0.0,3.0,0.0,3.0,3.0,0.0,0.0,0.0,3.0",0.03125208648833364,387.49916540466654,0.5,0.5009757408396881,25754,バル リフレイン,https://tabelog.com/tokyo/A1304/A130401/13006802/,バル・バール、スペイン料理、ダイニングバー,洋食・西洋料理,35.69288111,139.7007442,東京都新宿区新宿3-20-1嶋田ビル　Ｂ１Ｆ
"0,1,0,1,0,0,0,1,0","0.0,3.0,0.0,3.0,3.0,0.0,0.0,0.0,3.0",0.026755844821333027,389.2976620714668,0.5,0.5007153634871845,29703,ビゴーテ,https://tabelog.com/tokyo/A1304/A130401/13075577/,イタリアン、バル・バール、バー・お酒（その他）,洋食・西洋料理,35.69107972,139.7040867,東京都新宿区新宿3-7-7十字屋ビル2F
"0,1,0,1,0,0,0,1,0","0.0,3.0,0.0,3.0,3.0,0.0,0.0,0.0,3.0",0.02650958154884478,389.3961673804621,0.5,0.5007022647381324,26802,盛岡五郎,https://tabelog.com/tokyo/A1304/A130401/13039903/,もつ鍋、居酒屋、ホルモン,焼肉・ホルモン・鍋,35.69108083,139.7040872,東京都新宿区新宿3-7-7十字屋ビル　２Ｆ
"0,1,0,1,0,0,0,1,0","0.0,3.0,0.0,3.0,3.0,0.0,0.0,0.0,3.0",0.02513967491685321,389.9441300332587,0.5,0.5006316043308943,27916,ハヌリ 新宿,https://tabelog.com/tokyo/A1304/A130401/13112353/,韓国料理、焼肉、居酒屋・ダイニングバー（その他）,焼肉・ホルモン・鍋,35.69288833,139.7008964,東京都新宿区新宿3-20-8ワモール3F
"0,1,0,1,0,0,0,1,0","0.0,3.0,0.0,3.0,3.0,0.0,0.0,0.0,3.0",0.024161903922723695,390.3352384309105,0.5,0.5005834571788913,26206,磯丸水産 西新宿1丁目3号店,https://tabelog.com/tokyo/A1304/A130401/13164327/,居酒屋、魚介料理・海鮮料理,高級和食,35.68888833,139.6960408,東京都新宿区西新宿1-18-15岡本ビル1F・2F
"0,1,0,1,0,0,0,1,0","0.0,3.0,0.0,3.0,3.0,0.0,0.0,0.0,3.0",0.024110079988120675,390.35596800475173,0.5,0.5005809584443196,29091,じとっこ組合 新宿東口店,https://tabelog.com/tokyo/A1304/A130401/13115152/,焼鳥、鳥料理、居酒屋,Ｂ級和食,35.69289167,139.7009,東京都新宿区新宿3-20-8トップスハウス　Ｂ１Ｆ
"0,1,0,1,0,0,0,1,0","0.0,3.0,0.0,3.0,3.0,0.0,0.0,0.0,3.0",0.02345949896629435,390.61620041348226,0.5,0.5005500455416517,32087,旬家,https://tabelog.com/tokyo/A1304/A130401/13144620/,居酒屋、しゃぶしゃぶ、魚介料理・海鮮料理,焼肉・ホルモン・鍋,35.69156657,139.7037142,東京都新宿区新宿3-6-7第6三和ビル3Ｆ
"0,1,0,1,0,0,0,1,0","0.0,3.0,0.0,3.0,3.0,0.0,0.0,0.0,3.0",0.02205969721575741,391.17612111369704,0.5,0.5004863936624561,26994,伊太利亜市場BAR,https://tabelog.com/tokyo/A1304/A130401/13012140/,ピザ、イタリアン、ダイニングバー,洋食・西洋料理,35.69220278,139.7029389,東京都新宿区新宿3-14-25パークシティー伊勢丹2F
"0,1,0,1,0,0,0,1,0","0.0,3.0,0.0,3.0,3.0,0.0,0.0,0.0,3.0",0.020689695736381707,391.7241217054473,0.5,0.5004278804280033,28681,イーズ,https://tabelog.com/tokyo/A1304/A130401/13030250/,ダイニングバー、イタリアン、バー,洋食・西洋料理,35.69106993,139.7041236,東京都新宿区新宿3-7-7十字屋ビル　B1F
"0,1,0,1,0,0,0,1,0","0.0,3.0,0.0,3.0,3.0,0.0,0.0,0.0,3.0",0.020622063275431514,391.7511746898274,0.5,0.5004250887932538,27552,珍味家,https://tabelog.com/tokyo/A1304/A130401/13212491/,魚介料理・海鮮料理、和食（その他）、居酒屋,Ｂ級和食,35.69142694,139.7038558,東京都新宿区新宿3-6-1第一玉屋ビル3F
"0,1,0,1,0,0,0,1,0","0.0,3.0,0.0,3.0,3.0,0.0,0.0,0.0,3.0",0.01969161157611978,392.1233553695521,0.5,0.5003876093254755,30643,ちょちょぎれ 広島お好み焼き,https://tabelog.com/tokyo/A1304/A130401/13199583/,お好み焼き、もんじゃ焼き、居酒屋,Ｂ級和食,35.69066024,139.7043566,東京都新宿区新宿3-8-2クロスビル1F
"0,1,0,1,0,0,0,1,0","0.0,3.0,0.0,3.0,3.0,0.0,0.0,0.0,3.0",0.017655838316074295,392.9376646735703,0.5,0.5003116315124438,30733,ボスボラス ハサン 新宿店,https://tabelog.com/tokyo/A1304/A130401/13000925/,トルコ料理、居酒屋、地中海料理,洋食・西洋料理,35.69143417,139.7038656,東京都新宿区新宿3-6-11第一玉屋ビル　２Ｆ
"0,1,0,1,0,0,0,1,0","0.0,3.0,0.0,3.0,3.0,0.0,0.0,0.0,3.0",0.017640253016960514,392.9438987932158,0.5,0.5003110817546443,29738,新宿・のみや 新宿三丁目,https://tabelog.com/tokyo/A1304/A130401/13012080/,居酒屋、その他肉料理,創作料理・無国籍料理,35.69079,139.7043025,東京都新宿区新宿3-8-41F・B1Ｆ
"0,1,0,1,0,0,0,1,0","0.0,3.0,0.0,3.0,3.0,0.0,0.0,0.0,3.0",0.01363477284177833,394.54609086328867,0.5,0.5001858724818674,14836,いかの墨 新宿南口店,https://tabelog.com/tokyo/A1304/A130401/13203013/,居酒屋、鍋（その他）、かに,高級和食,35.68780028,139.6964175,東京都渋谷区代々木2-6-3景雲荘ビル2F
"0,1,0,1,0,0,0,1,0","0.0,3.0,0.0,3.0,3.0,0.0,0.0,0.0,3.0",0.012857995167409087,394.85680193303637,0.5,0.5001653007153987,28291,ワイン厨房 晩酌邸,https://tabelog.com/tokyo/A1304/A130401/13052868/,イタリアン、ダイニングバー、バル・バール,洋食・西洋料理,35.69099361,139.7042108,東京都新宿区新宿3-7-9新宿土地建物第6ビル4F
"0,1,0,1,0,0,0,1,0","0.0,3.0,0.0,3.0,0.0,3.0,0.0,0.0,3.0",0.01043541646862508,395.82583341254997,0.5,0.5001088860606994,31313,然,https://tabelog.com/tokyo/A1304/A130401/13029975/,ダイニングバー、イタリアン、パスタ,洋食・西洋料理,35.69099944,139.7042192,東京都新宿区新宿3-7-9
"0,1,0,1,0,0,0,1,0","0.0,3.0,0.0,3.0,3.0,0.0,0.0,0.0,3.0",0.009077814242203601,396.36887430311856,0.5,0.5000823999216689,28273,バーカササギ,https://tabelog.com/tokyo/A1304/A130401/13199666/,バー,バー・お酒,35.6910225,139.7042117,東京都新宿区新宿3丁目7-7十字屋ビルB1F
"0,1,0,1,0,0,0,1,0","0.0,3.0,0.0,3.0,3.0,0.0,0.0,0.0,3.0",0.008908746397083292,396.4365014411667,0.5,0.5000793594644429,26505,バー ブリューダー,https://tabelog.com/tokyo/A1304/A130401/13099495/,バー,バー・お酒,35.69104046,139.7042013,東京都新宿区新宿3-7-7十字屋ビル　３Ｆ
"0,1,0,1,0,0,0,1,0","0.0,3.0,0.0,3.0,3.0,0.0,0.0,0.0,3.0",0.007167585845081419,397.13296566196743,0.5,0.5000513716478004,32045,九州 熱中屋 新宿 LIVE,https://tabelog.com/tokyo/A1304/A130401/13128649/,居酒屋、もつ鍋、餃子,居酒屋,35.69295667,139.7008692,東京都新宿区新宿3-20-6エフエスビル　７Ｆ
"0,1,0,1,0,0,0,1,0","0.0,3.0,0.0,3.0,3.0,0.0,0.0,0.0,3.0",0.006366519732153364,397.45339210713865,0.5,0.5000405309307435,28093,オサカナバル BLEU,https://tabelog.com/tokyo/A1304/A130401/13200536/,ダイニングバー、イタリアン、魚介料理・海鮮料理,高級和食,35.69068917,139.7044061,東京都新宿区新宿3-8-2クロスビルB1
"0,1,0,1,0,0,0,1,0","0.0,3.0,0.0,3.0,3.0,0.0,0.0,0.0,3.0",0.005383874006834048,397.8464503972664,0.5,0.5000289852591762,30754,バールージュ,https://tabelog.com/tokyo/A1304/A130401/13000921/,バー,バー・お酒,35.692965,139.7008514,東京都新宿区新宿3-20-6ＦＳビル　Ｂ１Ｆ
"0,1,0,1,0,0,0,1,0","0.0,3.0,0.0,3.0,3.0,0.0,0.0,0.0,3.0",0.005180923544888429,397.9276305820446,0.5,0.5000268412483254,27848,ぞんぶん 新宿三丁目店,https://tabelog.com/tokyo/A1304/A130401/13170006/,居酒屋、しゃぶしゃぶ、鍋（その他）,焼肉・ホルモン・鍋,35.69151333,139.7038642,東京都新宿区新宿3-6-10ニューゴールドビルB1Ｆ
"0,1,0,1,0,0,0,1,0","0.0,3.0,0.0,3.0,3.0,0.0,0.0,0.0,3.0",0.0031432839327057136,398.7426864269177,0.5,0.5000098801362645,25626,Barどれすでん,https://tabelog.com/tokyo/A1304/A130401/13093305/,バー、バー・お酒（その他）,バー・お酒,35.69297778,139.6998083,東京都新宿区新宿3-22-1Ｂ1Ｆ
"0,1,0,1,0,0,0,1,0","0.0,3.0,0.0,3.0,3.0,0.0,0.0,0.0,3.0",0.0019248435019777333,399.2300625992089,0.5,0.50000370500878,27986,新宿個室割烹 志摩 新宿西口店,https://tabelog.com/tokyo/A1304/A130401/13204321/,居酒屋、ダイニングバー、鳥料理,高級和食,35.68904972,139.6959172,東京都新宿区西新宿1-16-4西新宿国際通りビル3F
"0,1,0,1,0,0,0,1,0","0.0,3.0,0.0,3.0,3.0,0.0,0.0,0.0,3.0",0.0018421295296595019,399.2631481881362,0.5,0.5000033934296887,31401,丹波地鶏と京野菜の個室居酒屋 西陣邸 新宿店,https://tabelog.com/tokyo/A1304/A130401/13204406/,居酒屋、ダイニングバー、魚介料理・海鮮料理,居酒屋,35.68904917,139.6959169,東京都新宿区西新宿1-16-4西新宿国際通りビル3F
"0,1,0,1,0,0,0,1,0","0.0,3.0,0.0,3.0,3.0,3.0,0.0,0.0,3.0",0.27762689535354,288.949241858584,0.408248290464,0.4937037165044558,27286,ビブラビブレ 新宿通り店,https://tabelog.com/tokyo/A1304/A130401/13161919/,居酒屋、イタリアン、ダイニングバー,洋食・西洋料理,35.69189833,139.7012358,東京都新宿区新宿3-17-4新宿レミナビル3F
"0,1,0,1,0,0,0,1,0","0.0,3.0,0.0,3.0,3.0,3.0,0.0,0.0,3.0",0.25320294416756894,298.7188223329724,0.408248290464,0.48039400246234515,31752,鳥どり　総本家 新宿三丁目店,https://tabelog.com/tokyo/A1304/A130401/13012150/,居酒屋、焼鳥、鳥料理,Ｂ級和食,35.69087595,139.7030717,東京都新宿区新宿3-4-8京王フレンテ新宿三丁目3Ｆ
"0,1,0,1,0,0,0,1,0","0.0,3.0,0.0,3.0,3.0,3.0,0.0,0.0,3.0",0.23742141773809664,305.03143290476135,0.408248290464,0.4722664462646424,27668,碧 新宿東口駅前店,https://tabelog.com/tokyo/A1304/A130401/13164686/,ダイニングバー、イタリアン、ピザ,洋食・西洋料理,35.69215611,139.7003314,東京都新宿区新宿3-18-1しんじゅく一色ビル7F
"0,1,0,1,0,0,0,1,0","0.0,3.0,0.0,3.0,3.0,3.0,0.0,0.0,3.0",0.23742141773809664,305.03143290476135,0.408248290464,0.4722664462646424,27041,新宿ガーデンファーム 新宿東口駅前店,https://tabelog.com/tokyo/A1304/A130401/13157808/,ダイニングバー、イタリアン、居酒屋,洋食・西洋料理,35.69215611,139.7003314,東京都新宿区新宿3-18-1しんじゅく一色ビル5F
"0,1,0,1,0,0,0,1,0","0.0,3.0,0.0,3.0,3.0,3.0,0.0,0.0,3.0",0.2254509773622999,309.81960905508004,0.408248290464,0.4663633882073966,29026,魚盛 新宿三丁目店,https://tabelog.com/tokyo/A1304/A130401/13152391/,魚介料理・海鮮料理、日本酒バー、居酒屋・ダイニングバー（その他）,高級和食,35.69097722,139.7031364,東京都新宿区新宿3-4-8京王フレンテ新宿三丁目6F
"0,1,0,1,0,0,0,1,0","0.0,3.0,0.0,3.0,3.0,3.0,0.0,0.0,3.0",0.1804178496554853,327.8328601378059,0.408248290464,0.44633761564646995,25913,串の蔵 新宿3丁目店,https://tabelog.com/tokyo/A1304/A130401/13174392/,居酒屋、串焼き、ワインバー,バー・お酒,35.69118209,139.7032014,東京都新宿区新宿3-5-3高山ランド会館3F
"0,1,0,1,0,0,0,1,0","0.0,3.0,0.0,3.0,3.0,3.0,0.0,0.0,3.0",0.17163818471044962,331.34472611582015,0.408248290464,0.44286152815227137,27249,肉バル＆BEER バードアイランド 新宿店,https://tabelog.com/tokyo/A1304/A130401/13182486/,居酒屋、ダイニングバー、イタリアン,洋食・西洋料理,35.69236278,139.6997836,東京都新宿区新宿3-19-4MLJ新宿ビル9F
"0,1,0,1,0,0,0,1,0","0.0,3.0,0.0,3.0,3.0,3.0,0.0,0.0,3.0",0.14209489493334546,343.1620420266618,0.408248290464,0.43227031569700125,29251,路地,https://tabelog.com/tokyo/A1304/A130401/13000858/,焼きとん、焼酎バー、居酒屋,バー・お酒,35.69239944,139.7012642,東京都新宿区新宿3-17-17B1～3F
"0,1,0,1,0,0,0,1,0","0.0,3.0,0.0,3.0,3.0,3.0,0.0,0.0,3.0",0.12066959231688912,351.73216307324435,0.408248290464,0.4257086059461223,30367,パンとサーカス,https://tabelog.com/tokyo/A1304/A130401/13162529/,バル・バール、ステーキ、イタリアン,洋食・西洋料理,35.69070722,139.70385,東京都新宿区新宿3-3-7三慶ビル4F
"0,1,0,1,0,0,0,1,0","0.0,3.0,0.0,3.0,3.0,3.0,0.0,0.0,3.0",0.11420351329447315,354.31859468221074,0.408248290464,0.42392111190110304,27098,和牛塩焼肉ブラックホール 新宿三丁目店,https://tabelog.com/tokyo/A1304/A130401/13094749/,焼肉、ハンバーグ、韓国料理,焼肉・ホルモン・鍋,35.69145556,139.7033089,東京都新宿区新宿3-5-3高山ランド会館8F
"0,1,0,1,0,0,0,1,0","0.0,3.0,0.0,3.0,3.0,3.0,0.0,0.0,3.0",0.10670609307674908,357.31756276930037,0.408248290464,0.42196309905769064,29842,肉バル MOGU家 新宿東口店,https://tabelog.com/tokyo/A1304/A130401/13200407/,居酒屋、しゃぶしゃぶ、ダイニングバー,焼肉・ホルモン・鍋,35.69261417,139.6999481,東京都新宿区新宿3-25-9モアビル6F
"0,1,0,1,0,0,0,1,0","0.0,3.0,0.0,3.0,3.0,3.0,0.0,0.0,3.0",0.08913844878148837,364.34462048740465,0.408248290464,0.41786640175759127,26000,ワイン食堂 Kirakuni,https://tabelog.com/tokyo/A1304/A130401/13199894/,ビストロ、イタリアン、ワインバー,バー・お酒,35.69086667,139.7039117,東京都新宿区新宿3-7-2中川ビル3F
"0,1,0,1,0,0,0,1,0","0.0,3.0,0.0,3.0,3.0,3.0,0.0,0.0,3.0",0.07751162644715492,368.99534942113803,0.408248290464,0.41554147675190006,26574,香家 新宿西口店,https://tabelog.com/tokyo/A1304/A130401/13156160/,居酒屋、和食（その他）、ダイニングバー,Ｂ級和食,35.68959306,139.6962358,東京都新宿区西新宿1-10-2110ビルＢ１Ｆ
"0,1,0,1,0,0,0,1,0","0.0,3.0,0.0,3.0,3.0,3.0,0.0,0.0,3.0",0.07496876090883375,370.0124956364665,0.408248290464,0.4150746701243916,28085,よりどり,https://tabelog.com/tokyo/A1304/A130401/13187378/,居酒屋、和食（その他）,Ｂ級和食,35.69273306,139.7000094,東京都新宿区新宿3-25-9新宿モアビル5F
"0,1,0,1,0,0,0,1,0","0.0,3.0,0.0,3.0,3.0,3.0,0.0,0.0,3.0",0.07270372271855038,370.91851091257985,0.408248290464,0.4146715543219748,26077,完全個室 和食処 福家,https://tabelog.com/tokyo/A1304/A130401/13192872/,居酒屋、しゃぶしゃぶ、懐石・会席料理,高級和食,35.68876861,139.6962836,東京都新宿区西新宿1-18-5中沖ビル5F
"0,1,0,1,0,0,0,1,0","0.0,3.0,0.0,3.0,3.0,3.0,0.0,0.0,3.0",0.07034706062009889,371.86117575196045,0.408248290464,0.4142648616580394,29894,完全個室居酒屋 壱岐 新宿東口店,https://tabelog.com/tokyo/A1304/A130401/13205445/,居酒屋、ダイニングバー、バル・バール,居酒屋,35.69275583,139.7004703,東京都新宿区新宿3-19-4MLJ新宿ビル9F
"0,1,0,1,0,0,0,1,0","0.0,3.0,0.0,3.0,3.0,3.0,0.0,0.0,3.0",0.07003488124734958,371.98604750106017,0.408248290464,0.4142119641656878,30017,Hills,https://tabelog.com/tokyo/A1304/A130401/13211058/,居酒屋、イタリアン、バル・バール,洋食・西洋料理,35.69275694,139.7004708,東京都新宿区新宿3-19-4MLJ新宿ビルディング7F
"0,1,0,1,0,0,0,1,0","0.0,3.0,0.0,3.0,3.0,3.0,0.0,0.0,3.0",0.06656633096851636,373.37346761259346,0.408248290464,0.4136396294907884,30001,KICHIRI　新宿　WEST,https://tabelog.com/tokyo/A1304/A130401/13156711/,居酒屋、ダイニングバー、日本酒バー,バー・お酒,35.68962861,139.69619,東京都新宿区西新宿1-10-2110ビル8F
"0,1,0,1,0,0,0,1,0","0.0,3.0,0.0,3.0,3.0,3.0,0.0,0.0,3.0",0.06461598116232892,374.15360753506843,0.408248290464,0.4133302453102568,27473,チーズタッカルビ×鶏バル TRICK,https://tabelog.com/tokyo/A1304/A130401/13213188/,ダイニングバー、居酒屋、バル・バール,バー・お酒,35.69277583,139.70049,東京都新宿区新宿3-19-4MLJ新宿ビル8F
"0,1,0,1,0,0,0,1,0","0.0,3.0,0.0,3.0,3.0,3.0,0.0,0.0,3.0",0.05593058752502231,377.6277649899911,0.408248290464,0.412061763923275,31962,夜景個室居酒屋　天 新宿店,https://tabelog.com/tokyo/A1304/A130401/13181370/,居酒屋、ダイニングバー、バル・バール,居酒屋,35.69280863,139.7004437,東京都新宿区新宿3-19-4MLJ新宿ビル8F
"0,1,0,1,0,0,0,1,0","0.0,3.0,0.0,3.0,3.0,3.0,0.0,0.0,3.0",0.05281924095217079,378.8723036191317,0.408248290464,0.4116509915953442,26093,東京空町 新宿店,https://tabelog.com/tokyo/A1304/A130401/13184774/,居酒屋、ダイニングバー、バル・バール,バー・お酒,35.6928202,139.7004301,東京都新宿区新宿3-19-4MLJ新宿ビル8F
"0,1,0,1,0,0,0,1,0","0.0,3.0,0.0,3.0,3.0,3.0,0.0,0.0,3.0",0.05277208158750156,378.8911673649994,0.408248290464,0.4116449431995303,14150,ミゲル フアニ 新宿タカシマヤ タイムズスクエア店,https://tabelog.com/tokyo/A1304/A130403/13187446/,スペイン料理、洋食、ビストロ,洋食・西洋料理,35.68599222,139.7003369,東京都渋谷区千駄ヶ谷5-24-2新宿タカシマヤタイムズスクエア　レストランズパーク13F
"0,1,0,1,0,0,0,1,0","0.0,3.0,0.0,3.0,3.0,3.0,0.0,0.0,3.0",0.03576453452749249,385.694186189003,0.408248290464,0.4098118697605461,29455,わらやき屋 新宿,https://tabelog.com/tokyo/A1304/A130401/13178186/,居酒屋、郷土料理（その他）、魚介料理・海鮮料理,高級和食,35.69281917,139.70112,東京都新宿区新宿3-15-11アドホック新宿ビル8F
"0,1,0,1,0,0,0,1,0","0.0,3.0,0.0,3.0,3.0,3.0,0.0,0.0,3.0",0.03574146545102053,385.7034138195918,0.408248290464,0.40980985715237883,27817,隠れ房 新宿店,https://tabelog.com/tokyo/A1304/A130401/13017400/,ダイニングバー、和食（その他）、バイキング,Ｂ級和食,35.69281167,139.7011664,東京都新宿区新宿3-15-11アドホック新宿ビル　７Ｆ
"0,1,0,1,0,0,0,1,0","0.0,3.0,0.0,3.0,3.0,3.0,0.0,0.0,3.0",0.01822077855791747,392.711688576833,0.408248290464,0.4086546995177265,28433,トラットリア・クラウディア,https://tabelog.com/tokyo/A1304/A130401/13000900/,イタリアン、ステーキ、ダイニングバー,洋食・西洋料理,35.69073694,139.7043267,東京都新宿区新宿3-8-4
"0,1,0,1,0,0,0,1,0","0.0,3.0,0.0,3.0,3.0,3.0,0.0,0.0,3.0",0.014902047326660436,394.0391810693358,0.408248290464,0.4085201802618723,25916,パクチービレッジ 新宿,https://tabelog.com/tokyo/A1304/A130401/13038178/,ダイニングバー、居酒屋、タイ料理,バー・お酒,35.69293056,139.70085,東京都新宿区新宿3-20-6ＦＳビル　8F
"0,1,0,1,0,0,0,1,0","0.0,3.0,0.0,3.0,3.0,3.0,0.0,0.0,3.0",0.0036931788773857475,398.5227284490457,0.408248290464,0.40826499511577896,27869,九州の地鶏と地酒 奄美大島 新宿店,https://tabelog.com/tokyo/A1304/A130401/13184775/,居酒屋、ダイニングバー、バル・バール,バー・お酒,35.69298694,139.7006636,東京都新宿区新宿3-20-5ニューサンパークビル7F
"0,1,0,1,0,0,0,1,0","0.0,3.0,0.0,3.0,3.0,3.0,0.0,0.0,3.0",0.001554609034404848,399.37815638623806,0.408248290464,0.4082512504278664,28979,獅子亭 新宿東口店,https://tabelog.com/tokyo/A1304/A130401/13180149/,居酒屋、ダイニングバー、バル・バール,バー・お酒,35.69300139,139.7005414,東京都新宿区新宿3-20-5ニュ-サンパ-クビル7F-B
"0,1,0,1,0,0,0,0,1","0.0,3.0,0.0,3.0,0.0,0.0,0.0,0.0,3.0",0.9354903970073859,25.803841197045617,1.0,1.3693583471440325,28065,新宿牡蠣入レ時,https://tabelog.com/tokyo/A1304/A130401/13174670/,居酒屋、魚介料理・海鮮料理、シーフード,創作料理・無国籍料理,35.68931534,139.700568,東京都新宿区新宿4-2-8菊ビル1F
"0,1,0,1,0,0,0,0,1","0.0,3.0,0.0,3.0,0.0,0.0,0.0,0.0,3.0",0.8692656456930125,52.29374172279499,1.0,1.3249991557665575,26086,ビストロ 熟肉,https://tabelog.com/tokyo/A1304/A130401/13156456/,ビストロ、ステーキ,洋食・西洋料理,35.6889404,139.7003875,東京都新宿区新宿4-1-9新宿ユースビル7Ｆ
"0,1,0,1,0,0,0,0,1","0.0,3.0,0.0,3.0,0.0,0.0,0.0,0.0,3.0",0.8685902024674544,52.563919013018214,1.0,1.324556129358984,29947,老辺餃子館 新宿別館,https://tabelog.com/tokyo/A1304/A130401/13059482/,餃子、中華料理、刀削麺,アジア・エスニック、中華料理,35.68893778,139.7003861,東京都新宿区新宿4-1-9PAXビル4F
"0,1,0,1,0,0,0,0,1","0.0,3.0,0.0,3.0,0.0,0.0,0.0,0.0,3.0",0.8548940697573816,58.04237209704734,1.0,1.3156153961193746,26572,PIZZERIA　CAPOLI,https://tabelog.com/tokyo/A1304/A130401/13123990/,ピザ、イタリアン、パスタ,洋食・西洋料理,35.68888778,139.7002278,東京都新宿区新宿4-1-9Ｂ１Ｆ
"0,1,0,1,0,0,0,0,1","0.0,3.0,0.0,3.0,0.0,0.0,0.0,0.0,3.0",0.8309389241107703,67.62443035569189,1.0,1.300176717066709,27796,完全個室居酒屋 星夜の宴 新宿東南口店,https://tabelog.com/tokyo/A1304/A130401/13154071/,居酒屋、ダイニングバー、居酒屋・ダイニングバー（その他）,居酒屋,35.68990111,139.6998686,東京都新宿区新宿3-36-2新宿キリンビル3Ｆ
"0,1,0,1,0,0,0,0,1","0.0,3.0,0.0,3.0,0.0,0.0,0.0,0.0,3.0",0.8137249081095024,74.51003675619901,1.0,1.289243276530003,30834,エロうま野菜と肉バル カンビーフ 新宿東南口店,https://tabelog.com/tokyo/A1304/A130401/13195205/,バル・バール、イタリアン、焼肉,洋食・西洋料理,35.68993167,139.6997922,東京都新宿区新宿3-36-2新宿キリンビルB2F
"0,1,0,1,0,0,0,0,1","0.0,3.0,0.0,3.0,0.0,0.0,0.0,0.0,3.0",0.7829366545278569,86.82533818885724,1.0,1.270035355808362,31461,はちすか小六 新宿東口本店,https://tabelog.com/tokyo/A1304/A130401/13152098/,居酒屋,居酒屋,35.69018056,139.7001611,東京都新宿区新宿3-35-10ローヤルプリンスビル5F
"0,1,0,1,0,0,0,0,1","0.0,3.0,0.0,3.0,0.0,0.0,0.0,0.0,3.0",0.7383091711139025,104.67633155443897,1.0,1.2430206885450048,32009,宮崎県日南市 塚田農場 新宿東南口店,https://tabelog.com/tokyo/A1304/A130401/13124346/,居酒屋、もつ鍋、鳥料理,Ｂ級和食,35.69028444,139.6998811,東京都新宿区新宿3-36-15新宿内野ビル２Ｆ
"0,1,0,1,0,0,0,0,1","0.0,3.0,0.0,3.0,0.0,0.0,0.0,0.0,3.0",0.7035288175012583,118.58847299949666,1.0,1.2226826231916108,30508,鳥良商店 新宿東南口店,https://tabelog.com/tokyo/A1304/A130401/13027917/,鳥料理、焼鳥、居酒屋,Ｂ級和食,35.69030389,139.7010186,東京都新宿区新宿3-34-16池田プラザビル5F
"0,1,0,1,0,0,0,0,1","0.0,3.0,0.0,3.0,0.0,0.0,0.0,0.0,3.0",0.6863303331691663,125.46786673233353,1.0,1.2128682229443142,31246,串の蔵 新宿東口店,https://tabelog.com/tokyo/A1304/A130401/13141960/,居酒屋、焼鳥、郷土料理（その他）,高級和食,35.690405,139.7009578,東京都新宿区新宿3-34-16池田プラザビルB1F
"0,1,0,1,0,0,0,0,1","0.0,3.0,0.0,3.0,0.0,0.0,0.0,0.0,3.0",0.6707420193411968,131.70319226352126,1.0,1.2041157986298106,29117,悠,https://tabelog.com/tokyo/A1304/A130401/13131319/,居酒屋、創作料理、ダイニングバー,創作料理・無国籍料理,35.69056333,139.7006347,東京都新宿区新宿3-34-11ピースビル3F
"0,1,0,1,0,0,0,0,1","0.0,3.0,0.0,3.0,0.0,0.0,0.0,0.0,3.0",0.6505889466630618,139.76442133477528,1.0,1.1930071154524402,28930,KICHIRI 新宿店,https://tabelog.com/tokyo/A1304/A130401/13121919/,居酒屋、和食（その他）、創作料理,Ｂ級和食,35.69053722,139.6996242,東京都新宿区新宿3-36-10ミラザ新宿4F
"0,1,0,1,0,0,0,0,1","0.0,3.0,0.0,3.0,3.0,0.0,0.0,0.0,3.0",0.9542229184230072,18.310832630797105,0.707106781187,1.1876621481059844,29122,串の蔵 新宿南口店,https://tabelog.com/tokyo/A1304/A130401/13099008/,串焼き、郷土料理（その他）、居酒屋,高級和食,35.68924199,139.7003027,東京都新宿区新宿4-1-13田園新宿ビル　３F
"0,1,0,1,0,0,0,0,1","0.0,3.0,0.0,3.0,3.0,0.0,0.0,0.0,3.0",0.9463301328878287,21.46794684486848,0.707106781187,1.1813300641275053,29409,宮崎県日南市 塚田農場 新宿南口店,https://tabelog.com/tokyo/A1304/A130401/13161509/,居酒屋、もつ鍋、鳥料理,Ｂ級和食,35.68921722,139.7003522,東京都新宿区新宿4-1-13田園新宿ビル8F
"0,1,0,1,0,0,0,0,1","0.0,3.0,0.0,3.0,3.0,0.0,0.0,0.0,3.0",0.9452142801797909,21.914287928083624,0.707106781187,1.1804363750138338,27859,沖縄ダイニング がじゅまる 新宿南口店,https://tabelog.com/tokyo/A1304/A130401/13183744/,沖縄料理、居酒屋、しゃぶしゃぶ,焼肉・ホルモン・鍋,35.68921278,139.70035,東京都新宿区新宿4-1-13田園新宿ビル7F
"0,1,0,1,0,0,0,0,1","0.0,3.0,0.0,3.0,3.0,0.0,0.0,0.0,3.0",0.9441894111627057,22.324235534917698,0.707106781187,1.1796158883940895,26583,新宿ワイン酒場,https://tabelog.com/tokyo/A1304/A130401/13113583/,バル・バール、イタリアン、バー,洋食・西洋料理,35.689365,139.7005472,東京都新宿区新宿4-2-92F
"0,1,0,1,0,0,0,0,1","0.0,3.0,0.0,3.0,0.0,0.0,0.0,0.0,3.0",0.6171735077880472,153.1305968847811,1.0,1.1751183509397694,29361,鮮や一夜 新宿東口駅前店,https://tabelog.com/tokyo/A1304/A130401/13121888/,居酒屋、魚介料理・海鮮料理、鍋（その他）,高級和食,35.69064838,139.6995667,東京都新宿区新宿3-36-10ミラザ新宿　5F
"0,1,0,1,0,0,0,0,1","0.0,3.0,0.0,3.0,0.0,0.0,0.0,0.0,3.0",0.6165209892790436,153.39160428838255,1.0,1.1747757787006041,27130,夢や京町しずく 新宿東口駅前店,https://tabelog.com/tokyo/A1304/A130401/13121889/,居酒屋、創作料理、鍋（その他）,焼肉・ホルモン・鍋,35.69064833,139.69956,東京都新宿区新宿3-36-10ミラザ新宿　5F
"0,1,0,1,0,0,0,0,1","0.0,3.0,0.0,3.0,0.0,0.0,0.0,3.0,0.0",0.9145100867486678,34.19596530053285,0.707106781187,1.1559968420220947,28338,京のおもてなし,https://tabelog.com/tokyo/A1304/A130401/13185331/,和食（その他）,Ｂ級和食,35.68956806,139.6999839,東京都新宿区新宿4-1-13田園新宿ビル6F
"0,1,0,1,0,0,0,0,1","0.0,3.0,0.0,3.0,0.0,0.0,0.0,0.0,3.0",0.5776303977805649,168.94784088777405,1.0,1.1548406281561685,26765,花炎 新宿店,https://tabelog.com/tokyo/A1304/A130401/13025475/,焼肉、居酒屋、ホルモン,焼肉・ホルモン・鍋,35.69092946,139.7002733,東京都新宿区新宿3-28-7キーストン4F
"0,1,0,1,0,0,0,0,1","0.0,3.0,0.0,3.0,3.0,0.0,0.0,0.0,3.0",0.9078884771368027,36.84460914527893,0.707106781187,1.1507656090263485,30261,NAKAYAMAYA,https://tabelog.com/tokyo/A1304/A130401/13092038/,イタリアン、ワインバー,バー・お酒,35.68920333,139.7006275,東京都新宿区新宿4-2-7中山ビル　１Ｆ
"0,1,0,1,0,0,0,0,1","0.0,3.0,0.0,3.0,0.0,0.0,0.0,0.0,3.0",0.5611259041774644,175.54963832901421,1.0,1.1466744439198848,31960,天ぷら新宿つな八 総本店,https://tabelog.com/tokyo/A1304/A130401/13000859/,天ぷら,高級和食,35.69078556,139.7012578,東京都新宿区新宿3-31-8
"0,1,0,1,0,0,0,0,1","0.0,3.0,0.0,3.0,0.0,0.0,0.0,0.0,3.0",0.5487853783096677,180.48584867613292,1.0,1.1406863685722228,29899,波津馬 新宿店,https://tabelog.com/tokyo/A1304/A130401/13033453/,馬肉料理、居酒屋,創作料理・無国籍料理,35.69072167,139.7014803,東京都新宿区新宿3-31-5新宿ペガサス館5F
"0,1,0,1,0,0,0,0,1","0.0,3.0,0.0,3.0,0.0,0.0,0.0,3.0,0.0",0.8937193193720375,42.51227225118501,0.707106781187,1.1396202094640204,27623,魚真 新宿店,https://tabelog.com/tokyo/A1304/A130401/13115198/,居酒屋、魚介料理・海鮮料理,高級和食,35.68978667,139.7002428,東京都新宿区新宿3-35-52F
"0,1,0,1,0,0,0,0,1","0.0,3.0,0.0,3.0,0.0,0.0,0.0,0.0,3.0",0.5439553639918363,182.4178544032655,1.0,1.1383705187747488,27051,黄金屋 新宿店,https://tabelog.com/tokyo/A1304/A130401/13029481/,ホルモン、居酒屋、焼肉,焼肉・ホルモン・鍋,35.69091833,139.7010994,東京都新宿区新宿3-28-15TRN新宿ビル5Ｆ・6Ｆ
"0,1,0,1,0,0,0,0,1","0.0,3.0,0.0,3.0,0.0,0.0,0.0,0.0,3.0",0.5428793655529158,182.84825377883368,1.0,1.1378567596772171,27254,エラワン 新宿東口店,https://tabelog.com/tokyo/A1304/A130401/13166597/,タイ料理、タイカレー、タイスキ,焼肉・ホルモン・鍋,35.69104972,139.7004672,東京都新宿区新宿3-28-10ヒューマックスパビリオン　4F
"0,1,0,1,0,0,0,0,1","0.0,3.0,0.0,3.0,0.0,0.0,0.0,0.0,3.0",0.5425616042298012,182.97535830807954,1.0,1.1377051878164288,30691,YONA YONA BEER WORKS 新宿東口店,https://tabelog.com/tokyo/A1304/A130401/13205198/,ビアホール・ビアレストラン、ビアバー、バー,バー・お酒,35.69105083,139.7004678,東京都新宿区新宿3-28-10ヒューマックスパビリオン新宿東口B1F
"0,1,0,1,0,0,0,0,1","0.0,3.0,0.0,3.0,0.0,0.0,0.0,0.0,3.0",0.5411192230323418,183.55231078706328,1.0,1.13701803571233,27581,鍋ぞう 新宿東口店,https://tabelog.com/tokyo/A1304/A130401/13027260/,しゃぶしゃぶ、すき焼き、鍋（その他）,焼肉・ホルモン・鍋,35.691055,139.7004831,東京都新宿区新宿3-28-10ヒューマックスパビリオン新宿東口３Ｆ
"0,1,0,1,0,0,0,0,1","0.0,3.0,0.0,3.0,0.0,0.0,0.0,0.0,3.0",0.5190777139709799,192.36891441160802,1.0,1.126695022240419,31001,ワイン食堂 ブルマーレ 新宿店,https://tabelog.com/tokyo/A1304/A130401/13020585/,イタリアン、ダイニングバー,洋食・西洋料理,35.69114028,139.7003572,東京都新宿区新宿3-28-9新宿ライオン会館3F
"0,1,0,1,0,0,0,0,1","0.0,3.0,0.0,3.0,0.0,0.0,0.0,0.0,3.0",0.5147956797468062,194.08172810127755,1.0,1.1247286747860463,27178,asian bistro PalaPa,https://tabelog.com/tokyo/A1304/A130401/13201675/,ダイニングバー、バル・バール、アジア・エスニック料理（その他）,バー・お酒,35.69113028,139.6999381,東京都新宿区新宿3-27-10新宿武蔵野ビル5F
"0,1,0,1,0,0,0,0,1","0.0,3.0,0.0,3.0,3.0,0.0,0.0,0.0,3.0",0.8690140805951287,52.39436776194848,0.707106781187,1.1203506023886438,31238,韓花,https://tabelog.com/tokyo/A1304/A130401/13023141/,韓国料理、韓国鍋、冷麺,アジア・エスニック、中華料理,35.68895528,139.7004747,東京都新宿区新宿4-1-9新宿ユースビルＰＡＸ　２Ｆ
"0,1,0,1,0,0,0,0,1","0.0,3.0,0.0,3.0,3.0,3.0,0.0,0.0,3.0",0.955194065652829,17.922373738868355,0.57735026919,1.1161223214288452,26703,うまかばる,https://tabelog.com/tokyo/A1304/A130401/13166792/,居酒屋、ダイニングバー、しゃぶしゃぶ,焼肉・ホルモン・鍋,35.68924833,139.7003431,東京都新宿区新宿4-1-13田園新宿ビル4F
"0,1,0,1,0,0,0,0,1","0.0,3.0,0.0,3.0,0.0,0.0,0.0,0.0,3.0",0.4902269140497124,203.90923438011504,1.0,1.113697637269068,12093,水たき玄海 新宿高島屋店,https://tabelog.com/tokyo/A1304/A130403/13039352/,水炊き,焼肉・ホルモン・鍋,35.68758,139.7000622,東京都渋谷区千駄ヶ谷5-24-2新宿タカシマヤ14F
"0,1,0,1,0,0,0,0,1","0.0,3.0,0.0,3.0,3.0,0.0,0.0,0.0,3.0",0.8567476814352389,57.300927425904455,0.707106781187,1.1108629931925258,28705,かこいや 新宿ユースビル店,https://tabelog.com/tokyo/A1304/A130401/13027116/,居酒屋、創作料理,創作料理・無国籍料理,35.68889056,139.7003078,東京都新宿区新宿4-1-9新宿ユースビル5F
"0,1,0,1,0,0,0,0,1","0.0,3.0,0.0,3.0,0.0,0.0,0.0,0.0,3.0",0.4833947455202565,206.6421017918974,1.0,1.1107071981384624,12704,木挽町 天國,https://tabelog.com/tokyo/A1304/A130401/13030108/,天ぷら,高級和食,35.6875475,139.7001781,東京都渋谷区千駄ヶ谷5-24-2新宿タカシマヤ14F
"0,1,0,1,0,0,0,0,1","0.0,3.0,0.0,3.0,0.0,0.0,0.0,0.0,3.0",0.48300216927204737,206.79913229118105,1.0,1.1105363999083973,11047,サイアム セラドン 新宿タカシマヤ店,https://tabelog.com/tokyo/A1304/A130401/13039534/,タイ料理,アジア・エスニック、中華料理,35.68754611,139.7001775,東京都渋谷区千駄ヶ谷5-24-2新宿タカシマヤタイムズスクエア12F
"0,1,0,1,0,0,0,0,1","0.0,3.0,0.0,3.0,0.0,0.0,0.0,0.0,3.0",0.48247866053700134,207.00853578519946,1.0,1.1103088119408848,14912,tavern on S <es>,https://tabelog.com/tokyo/A1304/A130401/13193552/,アメリカ料理、イタリアン、バー,洋食・西洋料理,35.68850361,139.698305,東京都渋谷区千駄ヶ谷5-24-55NEWoManSHINJUKU2F
"0,1,0,1,0,0,0,0,1","0.0,3.0,0.0,3.0,3.0,3.0,0.0,0.0,3.0",0.9466053327539832,21.357866898406716,0.57735026919,1.108780857217337,30847,恋咲くら 新宿東南口店,https://tabelog.com/tokyo/A1304/A130401/13167274/,居酒屋、ダイニングバー、魚介料理・海鮮料理,高級和食,35.68921833,139.7003528,東京都新宿区新宿4-1-13田園新宿ビル4Ｆ
"0,1,0,1,0,0,0,0,1","0.0,3.0,0.0,3.0,0.0,0.0,0.0,0.0,3.0",0.47187180683893554,211.2512772644258,1.0,1.105740929010698,29030,美酒美食 蔵良 KURAYOSHI 新宿駅前店,https://tabelog.com/tokyo/A1304/A130401/13195716/,居酒屋、しゃぶしゃぶ,焼肉・ホルモン・鍋,35.69123639,139.6996592,東京都新宿区新宿3-27-5Kスリービル8F
"0,1,0,1,0,0,0,0,1","0.0,3.0,0.0,3.0,3.0,0.0,0.0,0.0,3.0",0.8405045318883668,63.79818724465326,0.707106781187,1.098384207882143,26677,台湾料理　味王,https://tabelog.com/tokyo/A1304/A130401/13006785/,中華料理、台湾料理、飲茶・点心,アジア・エスニック、中華料理,35.68986472,139.6998794,東京都新宿区新宿3-36-18三協ビル3Ｆ
"0,1,0,1,0,0,0,0,1","0.0,3.0,0.0,3.0,0.0,0.0,0.0,0.0,3.0",0.440986289705008,223.60548411799678,1.0,1.0929176124977533,10931,韓国料理 水刺齋 高島屋タイムズスクエア店,https://tabelog.com/tokyo/A1304/A130401/13109377/,韓国料理、韓国鍋、もつ鍋,アジア・エスニック、中華料理,35.68739806,139.7001097,東京都渋谷区千駄ヶ谷5-24-2新宿タカシマヤ13F
"0,1,0,1,0,0,0,0,1","0.0,3.0,0.0,3.0,0.0,0.0,0.0,0.0,3.0",0.43676925964400065,225.29229614239975,1.0,1.091222885651675,28282,楽蔵 新宿東口店,https://tabelog.com/tokyo/A1304/A130401/13043063/,居酒屋、焼鳥、鍋（その他）,焼肉・ホルモン・鍋,35.69141194,139.6999122,東京都新宿区新宿3-26-2新宿第二ビル
"0,1,0,1,0,0,0,0,1","0.0,3.0,0.0,3.0,3.0,0.0,0.0,0.0,3.0",0.8290783784852297,68.36864860590812,0.707106781187,1.0896655255956746,28276,美豚 by マルハチ,https://tabelog.com/tokyo/A1304/A130401/13037532/,韓国料理、豚料理、焼肉,焼肉・ホルモン・鍋,35.68990111,139.6998547,東京都新宿区新宿3-36-2キリンビル　Ｂ１Ｆ
"0,1,0,1,0,0,0,0,1","0.0,3.0,0.0,3.0,3.0,0.0,0.0,0.0,3.0",0.8093997811202002,76.24008755191991,0.707106781187,1.0747688149911254,28012,ウスキュダル,https://tabelog.com/tokyo/A1304/A130401/13000928/,トルコ料理、西洋各国料理（その他）、アジア・エスニック料理（その他）,洋食・西洋料理,35.68989417,139.7009,東京都新宿区新宿3-35-1小宮ビル　２Ｆ
"0,1,0,1,0,0,0,0,1","0.0,3.0,0.0,3.0,0.0,0.0,0.0,3.0,0.0",0.8057180066093885,77.71279735624461,0.707106781187,1.07199883683454,15015,オイスターバー ワーフ,https://tabelog.com/tokyo/A1304/A130401/13193551/,オイスターバー,創作料理・無国籍料理,35.68885167,139.6997828,東京都渋谷区千駄ヶ谷5-24-55NEWoManSHINJUKU2F
"0,1,0,1,0,0,0,0,1","0.0,3.0,0.0,3.0,0.0,0.0,0.0,0.0,3.0",0.3821994488858516,247.12022044565936,1.0,1.0705495872348225,31636,みつえもん 新宿アルタ裏店,https://tabelog.com/tokyo/A1304/A130401/13141927/,居酒屋,居酒屋,35.69119361,139.6986758,東京都新宿区新宿3-22-4モア新宿サンパークビルB1F
"0,1,0,1,0,0,0,0,1","0.0,3.0,0.0,3.0,0.0,3.0,0.0,0.0,3.0",0.7948407165235875,82.06371339056497,0.707106781187,1.063847622850063,31777,新宿やさい 心菜,https://tabelog.com/tokyo/A1304/A130401/13173241/,ダイニングバー、イタリアン、野菜料理,洋食・西洋料理,35.69014611,139.7002722,東京都新宿区新宿3-35-11タイムスビル2F
"0,1,0,1,0,0,0,0,1","0.0,3.0,0.0,3.0,3.0,0.0,0.0,0.0,3.0",0.7865250611995519,85.38997552017925,0.707106781187,1.0576491251331694,31219,とさか,https://tabelog.com/tokyo/A1304/A130401/13040635/,鳥料理、居酒屋、焼鳥,Ｂ級和食,35.69016306,139.7004822,東京都新宿区新宿3-35-13裕永ビル２F
"0,1,0,1,0,0,0,0,1","0.0,3.0,0.0,3.0,3.0,0.0,0.0,0.0,3.0",0.786010572806681,85.59577087732758,0.707106781187,1.0572665797063137,31262,魚米 新宿店,https://tabelog.com/tokyo/A1304/A130401/13035698/,魚介料理・海鮮料理、居酒屋、日本酒バー,高級和食,35.69016583,139.7001356,東京都新宿区新宿3-35-10ローヤルプリンスビルB1F
"0,1,0,1,0,0,0,0,1","0.0,2.0,0.0,3.0,3.0,0.0,0.0,0.0,3.0",0.785402361402504,85.8390554389984,0.707106781187,1.0568144914300852,30769,もつ鍋きむら屋 新宿南口,https://tabelog.com/tokyo/A1304/A130401/13050490/,居酒屋、もつ鍋、郷土料理（その他）,高級和食,35.69017972,139.7003525,東京都新宿区新宿3-35-12新東ビル　１Ｆ
"0,1,0,1,0,0,0,0,1","0.0,3.0,0.0,3.0,3.0,0.0,0.0,0.0,3.0",0.7801152159624237,87.95391361503047,0.707106781187,1.0528911388059543,29451,あそばれ 〜阿蘇晴れ〜 新宿東口店,https://tabelog.com/tokyo/A1304/A130401/13176633/,居酒屋、馬肉料理、もつ鍋,創作料理・無国籍料理,35.6901875,139.7001361,東京都新宿区新宿3-35-10ローヤルプリンスビル5F
"0,1,0,1,0,0,0,0,1","0.0,3.0,0.0,3.0,3.0,0.0,0.0,0.0,3.0",0.7796165929243826,88.15336283024699,0.707106781187,1.052521748926369,31639,ライムイタリアン 新宿三丁目店,https://tabelog.com/tokyo/A1304/A130401/13164809/,イタリアン、ダイニングバー、ワインバー,洋食・西洋料理,35.68876056,139.7008722,東京都新宿区新宿4-2-23新四curumuB1F
"0,1,0,1,0,0,0,0,1","0.0,3.0,0.0,3.0,3.0,0.0,0.0,0.0,3.0",0.7774649222621508,89.01403109513966,0.707106781187,1.0509289725514719,29848,ろくもんや 本店,https://tabelog.com/tokyo/A1304/A130401/13006819/,お好み焼き、その他肉料理、日本酒バー,創作料理・無国籍料理,35.69019916,139.7004616,東京都新宿区新宿3-35-13裕永ビル　B1F
"0,1,0,1,0,0,0,0,1","0.0,3.0,0.0,3.0,0.0,0.0,0.0,0.0,3.0",0.3074097740775581,277.0360903689768,1.0,1.0461839079236572,29032,ウメ子の家 新宿東口店,https://tabelog.com/tokyo/A1304/A130401/13055542/,居酒屋、洋食、オムライス,洋食・西洋料理,35.691825,139.7010692,東京都新宿区新宿3-17-5新宿ニュー富士ビル　８Ｆ・９Ｆ
"0,1,0,1,0,0,0,0,1","0.0,2.0,0.0,3.0,0.0,0.0,0.0,0.0,3.0",0.30426236800778983,278.2950527968841,1.0,1.0452634063171387,10225,香り屋,https://tabelog.com/tokyo/A1304/A130401/13161302/,もつ鍋、もつ料理、居酒屋・ダイニングバー（その他）,バー・お酒,35.68717659,139.7017124,東京都渋谷区千駄ヶ谷5-33-1コープインフィールド1F
"0,1,0,1,0,0,0,0,1","0.0,3.0,0.0,3.0,0.0,0.0,0.0,0.0,3.0",0.2900033229674102,283.9986708130359,1.0,1.0412021548825856,27527,マンゴツリーカフェ ルミネ新宿,https://tabelog.com/tokyo/A1304/A130401/13030311/,タイ料理、タイカレー、ダイニングバー,バー・お酒,35.68927222,139.6971728,東京都新宿区西新宿1-1-5ルミネ新宿1-7F
"0,1,0,1,0,0,0,0,1","0.0,3.0,0.0,3.0,0.0,0.0,0.0,0.0,3.0",0.2843897101114219,286.24411595543125,1.0,1.039652589674675,26602,Roof Top Beer Garden 東京小空,https://tabelog.com/tokyo/A1304/A130401/13171517/,ビアガーデン、バイキング、ビアホール・ビアレストラン,創作料理・無国籍料理,35.68922639,139.6971514,東京都新宿区西新宿1-1-5ルミネ1屋上
"0,1,0,1,0,0,0,0,1","0.0,3.0,0.0,3.0,0.0,0.0,0.0,0.0,3.0",0.27677577995122093,289.28968801951163,1.0,1.0375956979322951,31441,庵 新宿東口駅前店,https://tabelog.com/tokyo/A1304/A130401/13126982/,ダイニングバー,バー・お酒,35.69190114,139.7012374,東京都新宿区新宿3-17-4新宿レミナビル
"0,1,0,1,0,0,0,0,1","0.0,3.0,0.0,3.0,0.0,0.0,0.0,3.0,0.0",0.742129551264255,103.14817949429798,0.707106781187,1.025064032565617,27076,扇寿司 中央口店,https://tabelog.com/tokyo/A1304/A130401/13048468/,寿司、海鮮丼、魚介料理・海鮮料理,高級和食,35.69028776,139.6999413,東京都新宿区新宿3丁目36-14三平酒寮中央口店
"0,1,0,1,0,0,0,0,1","0.0,3.0,0.0,3.0,0.0,0.0,0.0,0.0,3.0",0.2234035434657828,310.6385826136869,1.0,1.0246507420741313,28955,ル・ビストロ・資生堂,https://tabelog.com/tokyo/A1304/A130401/13110891/,フレンチ、ビストロ,洋食・西洋料理,35.69015333,139.6969983,東京都新宿区西新宿1-1-4京王百貨店新宿店8Ｆ　グルメパーク
"0,1,0,1,0,0,0,0,1","0.0,3.0,0.0,3.0,0.0,0.0,0.0,0.0,3.0",0.22294985708732568,310.8200571650697,1.0,1.0245519209758278,31750,南国酒家 京王新宿店,https://tabelog.com/tokyo/A1304/A130401/13191984/,中華料理、広東料理、飲茶・点心,アジア・エスニック、中華料理,35.69014972,139.696995,東京都新宿区西新宿1-1-4京王百貨店新宿店8F
"0,1,0,1,0,0,0,0,1","0.0,3.0,0.0,3.0,3.0,0.0,0.0,0.0,3.0",0.7410009558308451,103.59961766766199,0.707106781187,1.024247243853859,27207,御酒印船,https://tabelog.com/tokyo/A1304/A130401/13028952/,居酒屋、日本酒バー、魚介料理・海鮮料理,高級和食,35.69016631,139.7009721,東京都新宿区新宿3-35-16ＪＵＲＡＫＵ　ＴＷＩＮ　Ａビル　Ｂ１Ｆ
"0,1,0,1,0,0,0,0,1","0.0,3.0,0.0,3.0,0.0,0.0,0.0,0.0,3.0",0.22085561502150355,311.6577539913986,1.0,1.0240982387869468,29001,居酒屋 NIJYU-MARU 新宿伊勢丹前店,https://tabelog.com/tokyo/A1304/A130401/13109654/,居酒屋、無国籍料理、アジア・エスニック料理（その他）,居酒屋,35.69095833,139.7031764,東京都新宿区新宿3-4-8京王フレンテ新宿三丁目５Ｆ
"0,1,0,1,0,0,0,0,1","0.0,3.0,0.0,3.0,0.0,0.0,0.0,0.0,3.0",0.21881958502950127,312.4721659881995,1.0,1.0236610819956393,27783,畑の厨 膳丸 新宿店,https://tabelog.com/tokyo/A1304/A130401/13000199/,ダイニングバー、創作料理、バイキング,創作料理・無国籍料理,35.69095,139.7031939,東京都新宿区新宿3-4-8京王フレンテ新宿三丁目7Ｆ
"0,1,0,1,0,0,0,0,1","0.0,3.0,0.0,3.0,0.0,0.0,0.0,0.0,3.0",0.218273883462508,312.6904466149968,1.0,1.0235445706962665,29061,クレッソニエール,https://tabelog.com/tokyo/A1304/A130401/13020679/,フレンチ、洋食・欧風料理（その他）、ビストロ,洋食・西洋料理,35.69095222,139.703195,東京都新宿区新宿3-4-8京王フレンテ新宿三丁目B1F
"0,1,0,1,0,0,0,0,1","0.0,3.0,0.0,3.0,0.0,0.0,0.0,0.0,3.0",0.20958615265899852,316.1655389364006,1.0,1.0217271433148878,11414,味屋,https://tabelog.com/tokyo/A1304/A130401/13006873/,台湾料理、アジア・エスニック料理（その他）,アジア・エスニック、中華料理,35.68791111,139.6973331,東京都渋谷区代々木2-7-6ＧＳハイム佐藤ビル3Ｆ
"0,1,0,1,0,0,0,0,1","0.0,3.0,0.0,3.0,3.0,0.0,0.0,0.0,3.0",0.7373424673987289,105.06301304050844,0.707106781187,1.0216035993621233,31287,しゃぶしゃぶ 温野菜 新宿東口駅前店,https://tabelog.com/tokyo/A1304/A130401/13125562/,しゃぶしゃぶ、バイキング、居酒屋,焼肉・ホルモン・鍋,35.69028889,139.6998833,東京都新宿区新宿3-36-15新宿内野ビル3F
"0,1,0,1,0,0,0,0,1","0.0,3.0,0.0,3.0,0.0,0.0,0.0,0.0,3.0",0.20591730890544327,317.6330764378227,1.0,1.0209808705881123,31565,SKY PARADISE BEER GARDEN,https://tabelog.com/tokyo/A1304/A130401/13194881/,ビアガーデン、イタリアン,洋食・西洋料理,35.69166083,139.7024697,東京都新宿区新宿3-14-1伊勢丹新宿店本館屋上
"0,1,0,1,0,0,0,0,1","0.0,3.0,0.0,3.0,0.0,0.0,0.0,0.0,3.0",0.20545176979745264,317.81929208101894,1.0,1.0208870798050613,28804,雛鮨 新宿マルイ店,https://tabelog.com/tokyo/A1304/A130401/13038029/,寿司、魚介料理・海鮮料理、和食（その他）,高級和食,35.69008278,139.7037181,東京都新宿区新宿3-1-26新宿マルイ　アネックス8Ｆ
"0,1,0,1,0,0,0,0,1","0.0,3.0,0.0,3.0,0.0,0.0,0.0,0.0,3.0",0.19534852372042877,321.8605905118285,1.0,1.018901882282956,31681,Bee 新宿店,https://tabelog.com/tokyo/A1304/A130401/13036299/,ダイニングバー、居酒屋,バー・お酒,35.69230519,139.7001533,東京都新宿区新宿3-18-4セノビル　Ｂ１Ｆ
"0,1,0,1,0,0,0,0,1","0.0,3.0,0.0,3.0,3.0,0.0,0.0,0.0,3.0",0.7329723457749318,106.8110616900273,0.707106781187,1.0184539555968184,30569,南九州産黒毛和牛 焼肉ホルモン 島津,https://tabelog.com/tokyo/A1304/A130401/13168434/,焼肉、ホルモン、居酒屋,焼肉・ホルモン・鍋,35.69029806,139.6998594,東京都新宿区新宿3-36-15新宿内野ビル5F
"0,1,0,1,0,0,0,0,1","0.0,3.0,0.0,3.0,0.0,0.0,0.0,0.0,3.0",0.189409940467754,324.2360238128984,1.0,1.0177799985989104,29816,ライブハウス・ケントス 新宿店,https://tabelog.com/tokyo/A1304/A130401/13012129/,バー・お酒（その他）、レストラン（その他）,創作料理・無国籍料理,35.69232917,139.7002756,東京都新宿区新宿3-18-4セノビル　６Ｆ
"0,1,0,1,0,0,0,0,1","0.0,3.0,0.0,3.0,0.0,0.0,0.0,0.0,3.0",0.18485628273429555,326.0574869062818,1.0,1.0169424001713872,25757,農家の台所 新宿三丁目店,https://tabelog.com/tokyo/A1304/A130401/13094046/,野菜料理、バイキング,創作料理・無国籍料理,35.69116389,139.7031936,東京都新宿区新宿3-5-3高山ランド会館4F
"0,1,0,1,0,0,0,0,1","0.0,3.0,0.0,3.0,0.0,0.0,0.0,0.0,3.0",0.15495224436552207,338.0191022537912,1.0,1.0119338901499013,31630,いちゃりば 新宿三丁目店,https://tabelog.com/tokyo/A1304/A130401/13177886/,沖縄料理、定食・食堂、居酒屋,居酒屋,35.69066543,139.7037069,東京都新宿区新宿3-3-2B1F
"0,1,0,1,0,0,0,0,1","0.0,3.0,0.0,3.0,3.0,0.0,0.0,0.0,3.0",0.7219494242326846,111.22023030692615,0.707106781187,1.0105498360545633,26319,ヴィーニャ ヴァン ヴィーノ,https://tabelog.com/tokyo/A1304/A130401/13153944/,イタリアン、スペイン料理、ビストロ,洋食・西洋料理,35.69030083,139.7008622,東京都新宿区新宿3丁目34-1ＪＵＲＡＫＵ　ＴＷＩＮ　ＢビルＢ１Ｆ
"0,1,0,1,0,0,0,0,1","0.0,3.0,0.0,3.0,3.0,0.0,0.0,0.0,3.0",0.7208077451614714,111.67690193541142,0.707106781187,1.0097345222803689,27288,麹丸屋,https://tabelog.com/tokyo/A1304/A130401/13192684/,居酒屋、しゃぶしゃぶ、もつ鍋,焼肉・ホルモン・鍋,35.69038278,139.7006086,東京都新宿区新宿3-34-3第31東京ビルB2F
"0,1,0,1,0,0,0,0,1","0.0,3.0,0.0,3.0,0.0,0.0,0.0,0.0,3.0",0.11855274667204455,352.5789013311822,1.0,1.007002856869575,30259,肉バル ワインラボ 新宿三丁目店,https://tabelog.com/tokyo/A1304/A130401/13199695/,バル・バール、居酒屋、ステーキ,洋食・西洋料理,35.69071222,139.7038575,東京都新宿区新宿3-3-7三慶ビル5F
"0,1,0,1,0,0,0,0,1","0.0,3.0,0.0,3.0,0.0,0.0,0.0,0.0,3.0",0.11743173876325656,353.0273044946974,1.0,1.0068714978928353,29908,老辺餃子館 新宿本店,https://tabelog.com/tokyo/A1304/A130401/13012005/,餃子、中華料理、飲茶・点心,アジア・エスニック、中華料理,35.68893389,139.6964492,東京都新宿区西新宿1-18-1小川ビル3F
"0,1,0,1,0,0,0,0,1","0.0,3.0,0.0,3.0,0.0,0.0,0.0,0.0,3.0",0.10716340360115396,357.1346385595384,1.0,1.0057256062522142,27050,洞爺ッ子,https://tabelog.com/tokyo/A1304/A130401/13082746/,割烹・小料理,高級和食,35.68900278,139.6963917,東京都新宿区西新宿1-18-16
"0,1,0,1,0,0,0,0,1","0.0,3.0,0.0,3.0,0.0,0.0,0.0,0.0,3.0",0.09579868238219091,361.68052704712363,1.0,1.0045782137525001,31992,とときち 新宿三丁目店,https://tabelog.com/tokyo/A1304/A130401/13023849/,居酒屋、魚介料理・海鮮料理、日本酒バー,高級和食,35.69113472,139.7036944,東京都新宿区新宿3-6-13石井ビル　１Ｆ
"0,1,0,1,0,0,0,0,1","0.0,3.0,0.0,3.0,0.0,0.0,0.0,0.0,3.0",0.09160733663492707,363.3570653460292,1.0,1.0041871858002096,27363,北の味紀行と地酒 北海道 新宿西口店,https://tabelog.com/tokyo/A1304/A130401/13156023/,居酒屋、魚介料理・海鮮料理、ジンギスカン,高級和食,35.68976972,139.6963164,東京都新宿区西新宿1-10-2110ビル9F
"0,1,0,1,0,0,0,0,1","0.0,3.0,0.0,3.0,0.0,0.0,0.0,0.0,3.0",0.07367570412748137,370.52971834900745,1.0,1.0027103816051173,13632,美禄亭,https://tabelog.com/tokyo/A1304/A130401/13033320/,居酒屋,居酒屋,35.68816222,139.6965075,東京都渋谷区代々木2-9-2久保ビルＢ１Ｆ
"0,1,0,1,0,0,0,0,1","0.0,3.0,0.0,3.0,0.0,0.0,0.0,0.0,3.0",0.07031613125782926,371.8735474968683,1.0,1.0024691308539473,28428,じとっこ組合 新宿三丁目店,https://tabelog.com/tokyo/A1304/A130401/13132481/,鳥料理、手羽先、もつ鍋,Ｂ級和食,35.69064082,139.7041259,東京都新宿区新宿3-7-3丸中ビル3F
"0,1,0,1,0,0,0,0,1","0.0,3.0,0.0,3.0,0.0,0.0,0.0,0.0,3.0",0.0683934772450776,372.64260910196896,1.0,1.002336105171151,14490,ヴィッラ ビアンキ 新宿店,https://tabelog.com/tokyo/A1304/A130401/13191303/,イタリアン、ダイニングバー、バル・バール,洋食・西洋料理,35.68653376,139.6981743,東京都渋谷区代々木2-2-1小田急ホテルセンチュリーサザンタワー　３Ｆ
"0,1,0,1,0,0,0,0,1","0.0,3.0,0.0,3.0,0.0,0.0,0.0,0.0,3.0",0.0586196433126554,376.55214267493784,1.0,1.001716657833992,28476,煌 新宿店,https://tabelog.com/tokyo/A1304/A130401/13123118/,居酒屋、ダイニングバー、創作料理,創作料理・無国籍料理,35.69279611,139.7005244,東京都新宿区新宿3-19-4シティバンク新宿ビルディング8F
