user_vec,shop_vec,dist_score,distance [m],cosθ,oaiso_score,id,shop_name,URL,genre,oaiso_genre,lat,lng,address
"0,1,0,1,0,0,0,1,0","0.0,3.0,0.0,3.0,0.0,0.0,0.0,3.0,0.0",0.4401593648945668,167.95219053162995,1.0,1.0925842148339817,23314,阿吽,https://tabelog.com/tokyo/A1311/A131101/13074999/,居酒屋,居酒屋,35.70715556,139.7729972,東京都台東区上野5-26-5
"0,1,0,1,0,0,0,1,0","0.0,3.0,0.0,3.0,0.0,0.0,0.0,3.0,0.0",0.39653115052895277,181.04065484131416,1.0,1.0757494844710895,24142,和光,https://tabelog.com/tokyo/A1311/A131101/13025266/,焼肉,焼肉・ホルモン・鍋,35.70844722,139.7731778,東京都台東区上野6-3-6
"0,1,0,1,0,0,0,1,0","0.0,2.0,0.0,3.0,3.0,0.0,0.0,0.0,3.0",0.932839495679151,20.14815129625467,0.5,1.0583900626418092,24849,御徒町 魚富,https://tabelog.com/tokyo/A1311/A131101/13205979/,居酒屋、魚介料理・海鮮料理、天ぷら,高級和食,35.70745083,139.77502,東京都台東区台東4-31-6松田ビル1F　
"0,1,0,1,0,0,0,1,0","0.0,3.0,0.0,3.0,0.0,0.0,0.0,3.0,0.0",0.32372173867659504,202.8834783970215,1.0,1.051092652477315,24377,くら鳥,https://tabelog.com/tokyo/A1311/A131101/13003614/,焼鳥,Ｂ級和食,35.70581583,139.7756839,東京都台東区台東4-6-1
"0,1,0,1,0,0,0,1,0","0.0,3.0,0.0,3.0,0.0,0.0,0.0,3.0,0.0",0.32252141240452525,203.24357627864242,1.0,1.050723589465569,22734,郷土料理たるや,https://tabelog.com/tokyo/A1311/A131101/13078489/,郷土料理（その他）,高級和食,35.70878556,139.7764025,東京都台東区東上野1-20-8第3津多屋ビルB1F
"0,1,0,1,0,0,0,1,0","0.0,3.0,0.0,3.0,0.0,0.0,0.0,3.0,0.0",0.30903857806938806,207.28842657918358,1.0,1.0466636722152676,24689,やっちゃ場,https://tabelog.com/tokyo/A1311/A131101/13083650/,居酒屋,居酒屋,35.70584889,139.7758814,東京都台東区台東4-5-7鈴木ビル1F
"0,1,0,1,0,0,0,1,0","0.0,3.0,0.0,3.0,0.0,0.0,0.0,3.0,0.0",0.29629640913191113,211.11107726042667,1.0,1.0429724646722294,23696,ノランチェンバン,https://tabelog.com/tokyo/A1311/A131101/13139863/,焼肉,焼肉・ホルモン・鍋,35.70937639,139.7751767,東京都台東区東上野2-15-3
"0,1,0,1,0,0,0,1,0","0.0,3.0,0.0,3.0,0.0,0.0,0.0,3.0,0.0",0.2583344809600135,222.49965571199596,1.0,1.0328294651358856,24444,鮮魚酒場 魚辰,https://tabelog.com/tokyo/A1311/A131101/13130127/,魚介料理・海鮮料理、居酒屋,高級和食,35.70914949,139.7734103,東京都台東区上野6-8-4五味ビルB1F
"0,1,0,1,0,0,0,1,0","0.0,3.0,0.0,3.0,0.0,0.0,0.0,3.0,0.0",0.217232869430451,234.8301391708647,1.0,1.0233230768242194,66279,串焼きだるま,https://tabelog.com/tokyo/A1311/A131101/13019941/,焼鳥、鳥料理、もつ焼き,Ｂ級和食,35.70772136445568,139.77222454973892,東京都文京区湯島3-40-5
"0,1,0,1,0,0,0,1,0","0.0,3.0,0.0,3.0,0.0,0.0,0.0,3.0,0.0",0.1949862056958664,241.50413829124008,1.0,1.0188324790718397,21779,あいちゃん,https://tabelog.com/tokyo/A1311/A131101/13078894/,居酒屋,居酒屋,35.70928611,139.7732833,東京都台東区上野6-9-23
"0,1,0,1,0,0,0,1,0","0.0,3.0,0.0,3.0,0.0,0.0,0.0,3.0,0.0",0.19132160121257963,242.6035196362261,1.0,1.0181374932152067,22404,エベレストアジアンダイニング,https://tabelog.com/tokyo/A1311/A131101/13162545/,インド料理、ネパール料理、アジア・エスニック料理（その他）,アジア・エスニック、中華料理,35.70966278,139.7751822,東京都台東区東上野2-15-6
"0,1,0,1,0,0,0,1,0","0.0,3.0,0.0,3.0,3.0,0.0,0.0,0.0,3.0",0.8838483702831375,34.845488915058745,0.5,1.0154742447015375,22608,クラルテ,https://tabelog.com/tokyo/A1311/A131101/13154926/,バー,バー・お酒,35.70781131,139.7748315,東京都台東区東上野1-14-14一光ビル1F
"0,1,0,1,0,0,0,1,0","0.0,3.0,0.0,3.0,0.0,0.0,0.0,3.0,0.0",0.17156576077064642,248.53027176880607,1.0,1.014610669305626,24532,琴瑟館,https://tabelog.com/tokyo/A1311/A131101/13081736/,お好み焼き、もんじゃ焼き,Ｂ級和食,35.70967944,139.7754286,東京都台東区東上野2-15-8
"0,1,0,1,0,0,0,1,0","0.0,3.0,0.0,3.0,0.0,0.0,0.0,3.0,0.0",0.08070200423399873,275.7893987298004,1.0,1.00325112184706,23954,秋吉 上野店,https://tabelog.com/tokyo/A1311/A131101/13036976/,焼鳥、串揚げ・串かつ、居酒屋,居酒屋,35.70971556,139.7734283,東京都台東区上野6-8-8POKKE2F
"0,1,0,1,0,0,0,1,0","0.0,3.0,0.0,3.0,3.0,0.0,0.0,3.0,0.0",0.5828018264827848,125.15945205516456,0.816496580928,1.003157333431968,25149,酒楽　こてらんこ,https://tabelog.com/tokyo/A1311/A131101/13126463/,居酒屋、郷土料理（その他）,高級和食,35.70833167,139.7757367,東京都台東区東上野1-19-2第二鈴木ビル1F
"0,1,0,1,0,0,0,1,0","0.0,3.0,0.0,3.0,0.0,0.0,0.0,3.0,0.0",0.0192936283236124,294.2119115029163,1.0,1.0001861047294598,22108,空,https://tabelog.com/tokyo/A1311/A131101/13200995/,タイ料理、バー,バー・お酒,35.70894389,139.7720797,東京都台東区上野6-10-2
"0,1,0,1,0,0,0,1,0","0.0,3.0,0.0,3.0,0.0,0.0,0.0,3.0,0.0",0.015430313206901095,295.3709060379297,1.0,1.0001190401975473,22388,ほるもん道場ポパイ,https://tabelog.com/tokyo/A1311/A131101/13048317/,ホルモン,焼肉・ホルモン・鍋,35.71001464,139.7758692,東京都台東区東上野2-21-5
"0,1,0,1,0,0,0,1,0","0.0,3.0,0.0,3.0,3.0,0.0,0.0,0.0,3.0",0.8569959727966253,42.90120816101236,0.5,0.9921905549790495,24692,MEAT×WINE BISTRO DOMANNAKA,https://tabelog.com/tokyo/A1311/A131101/13210659/,ビストロ、ダイニングバー、ステーキ,洋食・西洋料理,35.7077525,139.7751619,東京都台東区東上野1-13-2成田第2ビル1F
"0,1,0,1,0,0,0,1,0","0.0,3.0,0.0,3.0,0.0,0.0,0.0,0.0,3.0",0.6784464713398726,96.46605859803822,0.707106781187,0.9799436792354571,24825,ラテン,https://tabelog.com/tokyo/A1311/A131101/13016720/,バー,バー・お酒,35.70669583,139.7743939,東京都台東区台東4-11-2紫光ビル　Ｂ１Ｆ
"0,1,0,1,0,0,0,1,0","0.0,3.0,0.0,3.0,0.0,0.0,0.0,0.0,3.0",0.5668003753471204,129.9598873958639,0.707106781187,0.9062354360173941,24256,鳥焼肉 巻渕,https://tabelog.com/tokyo/A1311/A131101/13212161/,焼肉、居酒屋、鳥料理,焼肉・ホルモン・鍋,35.70789611,139.7734544,東京都台東区上野6-2-1JREビル2F
"0,1,0,1,0,0,0,1,0","0.0,3.0,0.0,3.0,0.0,0.0,0.0,0.0,3.0",0.5214695757173048,143.55912728480857,0.707106781187,0.878595765069913,23439,魚禅,https://tabelog.com/tokyo/A1311/A131101/13203554/,魚介料理・海鮮料理、居酒屋、寿司,高級和食,35.707415,139.7732219,東京都台東区上野5-25-8
"0,1,0,1,0,0,0,1,0","0.0,3.0,0.0,3.0,3.0,0.0,0.0,3.0,0.0",0.3237645716614524,202.87062850156428,0.816496580928,0.8783451283691338,23022,全国銘酒 たる松 本店,https://tabelog.com/tokyo/A1311/A131101/13032122/,日本酒バー、居酒屋、定食・食堂,バー・お酒,35.70820639,139.7727383,東京都台東区上野6-4-13
"0,1,0,1,0,0,0,1,0","0.0,3.0,0.0,3.0,3.0,0.0,0.0,3.0,0.0",0.28238011099398963,215.28596670180312,0.816496580928,0.8639474484895736,23849,古都,https://tabelog.com/tokyo/A1311/A131101/13076689/,割烹・小料理、郷土料理（その他）,高級和食,35.70825222,139.7769969,東京都台東区東上野1-22-3片岡ビル2F
"0,1,0,1,0,0,0,1,0","0.0,3.0,0.0,3.0,3.0,0.0,0.0,3.0,0.0",0.25467121777676466,223.5986346669706,0.816496580928,0.8552918191065356,21765,やきとり仲ちゃん,https://tabelog.com/tokyo/A1311/A131101/13043811/,焼鳥,Ｂ級和食,35.70917194,139.7734292,東京都台東区上野6-8-4黒川ビル1Ｆ
"0,1,0,1,0,0,0,1,0","0.0,2.0,0.0,3.0,3.0,0.0,0.0,3.0,0.0",0.23823126323609234,228.5306210291723,0.816496580928,0.8505414754435735,66430,肉の居酒屋 ととろ,https://tabelog.com/tokyo/A1311/A131101/13203176/,居酒屋、焼酎バー、創作料理,居酒屋,35.70783774246371,139.77231425915286,東京都文京区湯島3-40-8栗田ビル2F
"0,1,0,1,0,0,0,1,0","0.0,3.0,0.0,3.0,3.0,0.0,0.0,3.0,0.0",0.17597618161064987,247.20714551680504,0.816496580928,0.8352450437811235,23181,酒楽　なりぞう,https://tabelog.com/tokyo/A1311/A131101/13122167/,居酒屋,居酒屋,35.70527083,139.7747294,東京都台東区台東3-40-5
"0,1,0,1,0,0,0,1,0","0.0,3.0,0.0,3.0,0.0,0.0,0.0,0.0,3.0",0.4345337732784054,169.63986801647837,0.707106781187,0.8299515649238626,24635,炭火ホルモン焼 夏冬 御徒町店,https://tabelog.com/tokyo/A1311/A131101/13211063/,ホルモン、居酒屋,焼肉・ホルモン・鍋,35.70724056,139.7729572,東京都台東区上野5-26-6桂ビルB1F
"0,1,0,1,0,0,0,1,0","0.0,3.0,0.0,3.0,3.0,0.0,0.0,0.0,3.0",0.661148621042667,101.6554136871999,0.5,0.8289255087802644,24949,バクロウ,https://tabelog.com/tokyo/A1311/A131101/13138118/,バル・バール、馬肉料理、ワインバー,バー・お酒,35.70841056,139.774905,東京都台東区東上野1-15-1
"0,1,0,1,0,0,0,1,0","0.0,3.0,0.0,3.0,3.0,0.0,0.0,3.0,0.0",0.11339458391197355,265.98162482640794,0.816496580928,0.8243330627405625,23576,岩崎塾 上野店,https://tabelog.com/tokyo/A1311/A131101/13175751/,焼肉、ホルモン,焼肉・ホルモン・鍋,35.70988806,139.7750322,東京都台東区東上野2-18-11F・2F
"0,1,0,1,0,0,0,1,0","0.0,2.0,0.0,3.0,0.0,0.0,3.0,3.0,0.0",0.1009276331744625,269.72171004766125,0.816496580928,0.822710795969559,22808,和食居酒屋 幸蔵,https://tabelog.com/tokyo/A1311/A131101/13193099/,居酒屋,居酒屋,35.70821611,139.7719575,東京都台東区上野4-2-112F
"0,1,0,1,0,0,0,1,0","0.0,2.0,0.0,3.0,0.0,0.0,3.0,3.0,0.0",0.08917980558474009,273.246058324578,0.816496580928,0.821352363112689,65302,酔っ手羽 上野広小路店,https://tabelog.com/tokyo/A1311/A131101/13202990/,焼鳥、鳥料理,Ｂ級和食,35.70790772647806,139.77182762967854,東京都文京区湯島3-39-10第ニ大和ビルB1F
"0,1,0,1,0,0,0,1,0","0.0,3.0,0.0,3.0,3.0,0.0,0.0,3.0,0.0",0.05430522389753131,283.7084328307406,0.816496580928,0.8183005095985383,24943,食彩や 魚太郎,https://tabelog.com/tokyo/A1311/A131101/13050411/,居酒屋、日本酒バー、魚介料理・海鮮料理,高級和食,35.70559922,139.7727053,東京都台東区上野5-18-7アマノビルB1
"0,1,0,1,0,0,0,1,0","0.0,3.0,0.0,3.0,0.0,0.0,0.0,0.0,3.0",0.4020403211846522,179.38790364460434,0.707106781187,0.813410363751445,22944,大将 御徒町店,https://tabelog.com/tokyo/A1311/A131101/13126264/,焼肉、ホルモン、居酒屋,焼肉・ホルモン・鍋,35.70805598,139.7729445,東京都台東区上野6-4-19
"0,1,0,1,0,0,0,1,0","0.0,3.0,0.0,3.0,0.0,0.0,0.0,0.0,3.0",0.3861409695980092,184.15770912059725,0.707106781187,0.8056704341119205,22383,すし屋 銀蔵 御徒町店,https://tabelog.com/tokyo/A1311/A131101/13025210/,寿司、魚介料理・海鮮料理、居酒屋,高級和食,35.70730861,139.7727833,東京都台東区上野5-27-17
"0,1,0,1,0,0,0,1,0","0.0,3.0,0.0,3.0,0.0,0.0,0.0,0.0,3.0",0.37969381156656,186.091856530032,0.707106781187,0.8026003928119786,23668,焼肉・ホルモン料理　とらじ亭 上野本店,https://tabelog.com/tokyo/A1311/A131101/13018447/,焼肉、ホルモン、韓国料理,焼肉・ホルモン・鍋,35.70858972,139.7732439,東京都台東区上野6-3-11尾中ビル1F～3F
"0,1,0,1,0,0,0,1,0","0.0,3.0,0.0,3.0,0.0,0.0,0.0,0.0,3.0",0.34148596308231655,197.55421107530503,0.707106781187,0.7852468802754056,24295,宝ばこ,https://tabelog.com/tokyo/A1311/A131101/13125574/,韓国料理、焼肉、居酒屋,焼肉・ホルモン・鍋,35.70815167,139.7727744,東京都台東区上野6-4-19
"0,1,0,1,0,0,0,1,0","0.0,3.0,0.0,3.0,0.0,0.0,0.0,0.0,3.0",0.3307937092471753,200.7618872258474,0.707106781187,0.7806564404893517,22567,中国風味小吃,https://tabelog.com/tokyo/A1311/A131101/13105379/,中華料理、韓国料理,アジア・エスニック、中華料理,35.70731583,139.7725978,東京都台東区上野5-27-17
"0,1,0,1,0,0,0,1,0","0.0,3.0,0.0,3.0,0.0,0.0,0.0,0.0,3.0",0.32718718620002135,201.8438441399936,0.707106781187,0.7791350684018062,24274,沖縄ダイニング　和海,https://tabelog.com/tokyo/A1311/A131101/13047439/,沖縄料理、居酒屋、ダイニングバー,バー・お酒,35.70879556,139.7763683,東京都台東区東上野1-20-8第3津多屋ビル1F
"0,1,0,1,0,0,0,1,0","0.0,3.0,0.0,3.0,0.0,0.0,0.0,0.0,3.0",0.326953036093794,201.9140891718618,0.707106781187,0.7790367692291229,24994,上野 アメ屋横丁 トロ函,https://tabelog.com/tokyo/A1311/A131101/13059300/,居酒屋、炭火焼き、魚介料理・海鮮料理,創作料理・無国籍料理,35.70899583,139.7735378,東京都台東区上野6-8-1
"0,1,0,1,0,0,0,1,0","0.0,3.0,0.0,3.0,0.0,3.0,0.0,0.0,3.0",0.5876803179663244,123.6959046101027,0.5,0.7716010342949264,23727,山海亭,https://tabelog.com/tokyo/A1311/A131101/13032811/,居酒屋、魚介料理・海鮮料理、寿司,高級和食,35.70856389,139.7752056,東京都台東区東上野1-17-6
"0,1,0,1,0,0,0,1,0","0.0,3.0,0.0,3.0,0.0,0.0,0.0,0.0,3.0",0.28612371996459424,214.16288401062172,0.707106781187,0.7628019291574828,23313,海雲台,https://tabelog.com/tokyo/A1311/A131101/13163777/,韓国料理、冷麺、焼肉,アジア・エスニック、中華料理,35.70940694,139.7751553,東京都台東区東上野2-15-4
"0,1,0,1,0,0,0,1,0","0.0,3.0,0.0,3.0,3.0,0.0,0.0,0.0,3.0",0.5733492250312023,127.99523249063928,0.5,0.760742619973326,22394,多ら福,https://tabelog.com/tokyo/A1311/A131101/13112169/,居酒屋,居酒屋,35.70829222,139.7737792,東京都台東区上野6-1-6上野シックスロードビル　B1F
"0,1,0,1,0,0,0,1,0","0.0,3.0,0.0,3.0,3.0,0.0,0.0,0.0,3.0",0.5732066069102912,128.03801792691263,0.5,0.7606351386871429,24981,ストーンズ,https://tabelog.com/tokyo/A1311/A131101/13104298/,バー、ワインバー、ダイニングバー,バー・お酒,35.70829278,139.7737792,東京都台東区上野6-1-6上野シックスロードビルB1F
"0,1,0,1,0,0,0,1,0","0.0,3.0,0.0,3.0,0.0,0.0,0.0,0.0,3.0",0.2645544007217286,220.63367978348143,0.707106781187,0.7549761790554937,24425,ソウル,https://tabelog.com/tokyo/A1311/A131101/13161314/,韓国料理、焼肉、居酒屋,焼肉・ホルモン・鍋,35.70942611,139.7754014,東京都台東区東上野2-15-2
"0,1,0,1,0,0,0,1,0","0.0,3.0,0.0,3.0,0.0,0.0,0.0,0.0,3.0",0.2600958722296744,221.97123833109768,0.707106781187,0.7534254195014362,22500,金魚,https://tabelog.com/tokyo/A1311/A131101/13032733/,居酒屋、焼酎バー,バー・お酒,35.707305,139.7723636,東京都台東区上野5-27-7
"0,1,0,1,0,0,0,1,0","0.0,3.0,0.0,3.0,0.0,0.0,0.0,0.0,3.0",0.24414914769460505,226.7552556916185,0.707106781187,0.7480700544200403,24337,おかってや 東上野店,https://tabelog.com/tokyo/A1311/A131101/13035538/,居酒屋,居酒屋,35.70906667,139.7764111,東京都台東区東上野2-11-1Ｔ＆Ｋビル　１Ｆ
"0,1,0,1,0,0,0,1,0","0.0,3.0,0.0,3.0,3.0,0.0,0.0,0.0,3.0",0.5557580148857258,133.27259553428226,0.5,0.74757405727441,23574,しゅん 御徒町店,https://tabelog.com/tokyo/A1311/A131101/13025086/,寿司,高級和食,35.70742139,139.7733353,東京都台東区上野5-25-8グランディールビル御徒町　１Ｆ
"0,1,0,1,0,0,0,1,0","0.0,3.0,0.0,3.0,0.0,0.0,0.0,0.0,3.0",0.24127039939043432,227.6188801828697,0.707106781187,0.7471354667140488,23238,中国料理 茶寮,https://tabelog.com/tokyo/A1311/A131101/13042386/,中華料理,アジア・エスニック、中華料理,35.70936694,139.7758422,東京都台東区東上野2-13-2猪田ビル1F・2F
"0,1,0,1,0,0,0,1,0","0.0,3.0,0.0,3.0,0.0,0.0,0.0,0.0,3.0",0.23352482947362177,229.94255115791347,0.707106781187,0.7446702934726778,66316,ファンタジスタ,https://tabelog.com/tokyo/A1311/A131101/13144473/,ピザ、イタリアン、居酒屋,洋食・西洋料理,35.707564715257696,139.77226538689382,東京都文京区湯島3-40-11オレンジビル1・2F
"0,1,0,1,0,0,0,1,0","0.0,3.0,0.0,3.0,0.0,0.0,0.0,0.0,3.0",0.23010548523998797,230.9683544280036,0.707106781187,0.7436050930013391,66180,極ダイニング,https://tabelog.com/tokyo/A1311/A131101/13101465/,居酒屋,居酒屋,35.70778135894584,139.77227648710826,東京都文京区湯島3-40-6アンビッションビル１Ｆ・Ｂ１
"0,1,0,1,0,0,0,1,0","0.0,3.0,0.0,3.0,0.0,0.0,0.0,0.0,3.0",0.19938797461695193,240.18360761491442,0.707106781187,0.7346805866646063,24339,居酒屋おんどる,https://tabelog.com/tokyo/A1311/A131101/13199496/,居酒屋,居酒屋,35.709235,139.7732211,東京都台東区上野6-9-23
"0,1,0,1,0,0,0,1,0","0.0,3.0,0.0,3.0,0.0,0.0,0.0,0.0,3.0",0.19199734268752414,242.40079719374276,0.707106781187,0.7327093418259866,24932,焼肉大門,https://tabelog.com/tokyo/A1311/A131101/13047885/,焼肉、韓国料理,焼肉・ホルモン・鍋,35.70966083,139.7751831,東京都台東区東上野2-15-6
"0,1,0,1,0,0,0,1,0","0.0,3.0,0.0,3.0,0.0,0.0,0.0,0.0,3.0",0.1872483802628501,243.82548592114497,0.707106781187,0.7314792928792043,23386,東京苑,https://tabelog.com/tokyo/A1311/A131101/13003624/,焼肉、ホルモン、韓国料理,焼肉・ホルモン・鍋,35.70965944,139.7752914,東京都台東区東上野2-15-7
"0,1,0,1,0,0,0,1,0","0.0,3.0,0.0,3.0,0.0,0.0,0.0,0.0,3.0",0.18207745058621147,245.37676482413656,0.707106781187,0.7301727179318427,23773,鳥番長 上野昭和通り店,https://tabelog.com/tokyo/A1311/A131101/13108712/,焼鳥、鳥料理、居酒屋,Ｂ級和食,35.70960747,139.7739908,東京都台東区上野6-7-18メッツビル1F
"0,1,0,1,0,0,0,1,0","0.0,3.0,0.0,3.0,3.0,0.0,0.0,0.0,3.0",0.5318003027888683,140.45990916333952,0.5,0.7299394235457707,22511,Hitch×kakeru ヒチカケ,https://tabelog.com/tokyo/A1311/A131101/13194692/,ビアバー、アジア・エスニック料理（その他）、ダイニングバー,バー・お酒,35.70786167,139.7733183,東京都台東区上野6-2-2ライフビル2Fこのお店は「千代田区神田松永町17-3」から移転しています。※移転前の情報は最新のものとは異なります。移転前の店舗情報を見る
"0,1,0,1,0,0,0,1,0","0.0,3.0,0.0,3.0,0.0,0.0,0.0,0.0,3.0",0.17272093781222253,248.18371865633324,0.707106781187,0.7278959557235729,23656,上野市場 御徒町店,https://tabelog.com/tokyo/A1311/A131101/13034262/,居酒屋,居酒屋,35.70809889,139.7721633,東京都台東区上野4-1-3
"0,1,0,1,0,0,0,1,0","0.0,3.0,0.0,3.0,0.0,0.0,0.0,0.0,3.0",0.17220995025547522,248.33701492335743,0.707106781187,0.7277748738222508,22389,鶏百華 上野御徒町店,https://tabelog.com/tokyo/A1311/A131101/13155974/,居酒屋、焼鳥、もつ鍋,居酒屋,35.70811833,139.7721683,東京都台東区上野4-1-3仙家ビルB1F
"0,1,0,1,0,0,0,1,0","0.0,3.0,0.0,3.0,0.0,0.0,0.0,0.0,3.0",0.16981093826643293,249.05671852007012,0.707106781187,0.7272109424059336,24527,韓国家庭料理 韓屋,https://tabelog.com/tokyo/A1311/A131101/13051465/,韓国料理、韓国鍋,アジア・エスニック、中華料理,35.70761194,139.7720564,東京都台東区上野3-27-7２Ｆ
"0,1,0,1,0,0,0,1,0","0.0,3.0,0.0,3.0,0.0,0.0,0.0,0.0,3.0",0.16761905849160116,249.71428245251965,0.707106781187,0.7267022421663571,23326,磯べゑ,https://tabelog.com/tokyo/A1311/A131101/13122086/,居酒屋、和食（その他）、日本酒バー,Ｂ級和食,35.70952194,139.7735981,東京都台東区上野6-8-19泰和第2ビル1F
"0,1,0,1,0,0,0,1,0","0.0,3.0,0.0,3.0,0.0,0.0,0.0,0.0,3.0",0.16716902916337356,249.84929125098793,0.707106781187,0.7265985716414702,22124,千里香 上野店,https://tabelog.com/tokyo/A1311/A131101/13059510/,中華料理、韓国料理,アジア・エスニック、中華料理,35.70952361,139.7735989,東京都台東区上野6-8-19上野松島ビルＢ1F
"0,1,0,1,0,0,0,1,0","0.0,3.0,0.0,3.0,0.0,0.0,0.0,0.0,3.0",0.16150430044948233,251.5487098651553,0.707106781187,0.7253162338343714,22937,京城苑,https://tabelog.com/tokyo/A1311/A131101/13003583/,焼肉,焼肉・ホルモン・鍋,35.70972756,139.7753091,東京都台東区東上野2-15-7
"0,1,0,1,0,0,0,1,0","0.0,3.0,0.0,3.0,0.0,0.0,0.0,0.0,3.0",0.1538464964427423,253.8460510671773,0.707106781187,0.7236496006132433,22183,モツ兵衛 御徒町店,https://tabelog.com/tokyo/A1311/A131101/13050060/,もつ鍋、もつ焼き、居酒屋,居酒屋,35.70544139,139.7735761,東京都台東区上野5-15-15
"0,1,0,1,0,0,0,1,0","0.0,3.0,0.0,3.0,0.0,0.0,0.0,0.0,3.0",0.15220606284284352,254.33818114714694,0.707106781187,0.723302623779369,21764,ととしぐれ 御徒町,https://tabelog.com/tokyo/A1311/A131101/13166774/,魚介料理・海鮮料理、居酒屋、串焼き,高級和食,35.70590607,139.7727828,東京都台東区上野5-19-6
"0,1,0,1,0,0,0,1,0","0.0,3.0,0.0,3.0,0.0,0.0,0.0,0.0,3.0",0.12624654708842759,262.1260358734717,0.707106781187,0.7182883756902589,21730,寿司幸,https://tabelog.com/tokyo/A1311/A131101/13025182/,寿司、魚介料理・海鮮料理,高級和食,35.70822278,139.7720481,東京都台東区上野4-2-11
"0,1,0,1,0,0,0,1,0","0.0,3.0,0.0,3.0,0.0,0.0,0.0,0.0,3.0",0.1257236040255583,262.2829187923325,0.707106781187,0.7181966475897638,25004,よし寿司 上野店,https://tabelog.com/tokyo/A1311/A131101/13158641/,寿司、懐石・会席料理,高級和食,35.70972639,139.7738378,東京都台東区上野6-7-8
"0,1,0,1,0,0,0,1,0","0.0,3.0,0.0,3.0,0.0,0.0,0.0,0.0,3.0",0.11423842060003532,265.7284738199894,0.707106781187,0.7162753777292574,23807,鳥よし,https://tabelog.com/tokyo/A1311/A131101/13034078/,居酒屋、焼鳥,居酒屋,35.70611111,139.7724111,東京都台東区上野5-20-4
"0,1,0,1,0,0,0,1,0","0.0,3.0,0.0,3.0,0.0,0.0,0.0,0.0,3.0",0.09771305565225172,270.6860833043245,0.707106781187,0.7138261982057676,23328,キリンシティ 上野店,https://tabelog.com/tokyo/A1311/A131101/13206993/,ビアホール・ビアレストラン、ビアガーデン、居酒屋,バー・お酒,35.709655,139.7734075,東京都台東区上野6-8-8上野POKKE１F
"0,1,0,1,0,0,0,1,0","0.0,3.0,0.0,3.0,0.0,0.0,0.0,0.0,3.0",0.08792791826705317,273.62162451988405,0.707106781187,0.7125526779198696,23996,海鮮 昌屋,https://tabelog.com/tokyo/A1311/A131101/13028161/,懐石・会席料理、魚介料理・海鮮料理、居酒屋,高級和食,35.70980278,139.7758806,東京都台東区東上野2-21-3成宝ビル　Ｂ１Ｆ
"0,1,0,1,0,0,0,1,0","0.0,3.0,0.0,3.0,0.0,0.0,0.0,0.0,3.0",0.08321429324818193,275.0357120255454,0.707106781187,0.7119863893367585,23232,酒蔵 神田っ子,https://tabelog.com/tokyo/A1311/A131101/13046986/,居酒屋、焼鳥、魚介料理・海鮮料理,高級和食,35.70963864,139.7732725,東京都台東区上野6-9-20
"0,1,0,1,0,0,0,1,0","0.0,3.0,0.0,3.0,3.0,0.0,0.0,0.0,3.0",0.5058966706478615,148.23099880564155,0.5,0.7112885781260591,24513,新割烹 嬉八,https://tabelog.com/tokyo/A1311/A131101/13016729/,割烹・小料理、魚介料理・海鮮料理,高級和食,35.70661444,139.7760336,東京都台東区台東4-18-8女井ビル　Ｂ１Ｆ
"0,1,0,1,0,0,0,1,0","0.0,3.0,0.0,3.0,3.0,0.0,0.0,0.0,3.0",0.5049221208275154,148.52336375174536,0.5,0.7105957698304685,24428,魚旬 かねしょう,https://tabelog.com/tokyo/A1311/A131101/13205075/,魚介料理・海鮮料理、居酒屋・ダイニングバー（その他）、寿司,高級和食,35.7068475,139.7733706,東京都台東区上野5-25-17東成ビル1F
"0,1,0,1,0,0,0,1,0","0.0,3.0,0.0,3.0,0.0,0.0,0.0,0.0,3.0",0.04350270126753685,286.94918961973895,0.707106781187,0.7084437063151683,24258,寿司源,https://tabelog.com/tokyo/A1311/A131101/13019966/,寿司,高級和食,35.70739,139.7716369,東京都台東区上野3-28-5
"0,1,0,1,0,0,0,1,0","0.0,3.0,0.0,3.0,0.0,0.0,0.0,0.0,3.0",0.009804601841045344,297.0586194476864,0.707106781187,0.7071747522481705,21860,むろ華,https://tabelog.com/tokyo/A1311/A131101/13016667/,居酒屋、焼酎バー,バー・お酒,35.71007389,139.77391,東京都台東区上野6-7-12Ｂ１Ｆ
"0,1,0,1,0,0,0,1,0","0.0,3.0,0.0,3.0,3.0,0.0,0.0,0.0,3.0",0.4769276295974312,156.92171112077065,0.5,0.6909847783225217,24672,博多・下関　げんき家,https://tabelog.com/tokyo/A1311/A131101/13190501/,居酒屋、日本酒バー、創作料理,バー・お酒,35.70674278,139.7733389,東京都台東区上野5-25-1ニュー遠藤ビル2F
"0,1,0,1,0,0,0,1,0","0.0,3.0,0.0,3.0,3.0,0.0,0.0,0.0,3.0",0.4763129143389859,157.10612569830423,0.5,0.690560636270341,23826,丸鶏もと家 上野店,https://tabelog.com/tokyo/A1311/A131101/13181225/,韓国鍋、韓国料理、居酒屋,アジア・エスニック、中華料理,35.70809028,139.7763819,東京都台東区東上野1-11-10上野aビル1F
"0,1,0,1,0,0,0,1,0","0.0,3.0,0.0,3.0,3.0,0.0,0.0,0.0,3.0",0.452360076518369,164.2919770444893,0.5,0.6742622923074556,22435,あんじゅ,https://tabelog.com/tokyo/A1311/A131101/13100457/,居酒屋、韓国料理、もつ鍋,アジア・エスニック、中華料理,35.70754889,139.7729906,東京都台東区上野5-26-8Ｂ１Ｆ
"0,1,0,1,0,0,0,1,0","0.0,3.0,0.0,3.0,3.0,0.0,0.0,0.0,3.0",0.4489096512686288,165.32710461941136,0.5,0.6719522862541074,23642,串と酒 吉助,https://tabelog.com/tokyo/A1311/A131101/13188181/,居酒屋、焼鳥、魚介料理・海鮮料理,高級和食,35.70755444,139.7729794,東京都台東区上野5-26-8ロイヤルビルB1F
"0,1,0,1,0,0,0,1,0","0.0,3.0,0.0,3.0,3.0,0.0,0.0,0.0,3.0",0.4372879432148437,168.81361703554688,0.5,0.6642444920968997,23272,房家 上野六丁目店,https://tabelog.com/tokyo/A1311/A131101/13186440/,焼肉、居酒屋、ホルモン,焼肉・ホルモン・鍋,35.70882667,139.7738961,東京都台東区上野6-6-6小湊ビル1～2F
"0,1,0,1,0,0,0,1,0","0.0,3.0,0.0,3.0,3.0,0.0,0.0,0.0,3.0",0.4176478519842797,174.70564440471608,0.5,0.6514827152481352,22064,TOKYO 焼肉 ごぉ,https://tabelog.com/tokyo/A1311/A131101/13201243/,焼肉、ラーメン、居酒屋,焼肉・ホルモン・鍋,35.70656,139.7732544,東京都台東区上野5-22-8御徒町電子ビル2F
"0,1,0,1,0,0,0,1,0","0.0,3.0,0.0,3.0,3.0,0.0,0.0,0.0,3.0",0.4084899714219337,177.45300857341988,0.5,0.6456501039667633,23378,故郷味 上野店,https://tabelog.com/tokyo/A1311/A131101/13009787/,四川料理、上海料理、中華料理,アジア・エスニック、中華料理,35.70852111,139.7732978,東京都台東区上野6-2-7キングビル1F・2F・4F
"0,1,0,1,0,0,0,1,0","0.0,3.0,0.0,3.0,3.0,0.0,0.0,0.0,3.0",0.3988826695983019,180.33519912050943,0.5,0.6396150280488007,22198,八仙宮,https://tabelog.com/tokyo/A1311/A131101/13052836/,中華料理、四川料理、居酒屋,アジア・エスニック、中華料理,35.70873139,139.7735072,東京都台東区上野6-5-1羽山ビル　Ｂ１Ｆ
"0,1,0,1,0,0,0,1,0","0.0,3.0,0.0,3.0,3.0,0.0,0.0,0.0,3.0",0.3546386059592777,193.6084182122167,0.5,0.6129996254784662,21907,酒と食事 昧舟,https://tabelog.com/tokyo/A1311/A131101/13035300/,とんかつ、割烹・小料理、魚介料理・海鮮料理,高級和食,35.70608417,139.7735511,東京都台東区上野5-23-14ＤＳＭ御徒町ビル　Ｂ１Ｆ
"0,1,0,1,0,0,0,1,0","0.0,3.0,0.0,3.0,3.0,0.0,0.0,0.0,3.0",0.3373805035665301,198.78584893004097,0.5,0.603179578721632,23010,亀七鮨,https://tabelog.com/tokyo/A1311/A131101/13109402/,寿司,高級和食,35.70586283,139.7757027,東京都台東区台東4-6-8
"0,1,0,1,0,0,0,1,0","0.0,3.0,0.0,3.0,3.0,0.0,0.0,0.0,3.0",0.32522008554891824,202.43397433532454,0.5,0.5964629946982845,24136,串カツ田中 上野6丁目店,https://tabelog.com/tokyo/A1311/A131101/13203020/,居酒屋、串揚げ・串かつ,Ｂ級和食,35.70912074,139.7737825,東京都台東区上野6-7-31F
"0,1,0,1,0,0,0,1,0","0.0,3.0,0.0,3.0,3.0,0.0,0.0,0.0,3.0",0.32341917886088956,202.97424634173314,0.5,0.5954829680646223,24598,陽山道 上野本店,https://tabelog.com/tokyo/A1311/A131101/13016717/,焼肉、韓国料理、ホルモン,焼肉・ホルモン・鍋,35.70881917,139.7732536,東京都台東区上野6-5-3
"0,1,0,1,0,0,0,1,0","0.0,3.0,0.0,3.0,3.0,0.0,0.0,0.0,3.0",0.26672821413616477,219.98153575915057,0.5,0.5666956327838321,23643,さかのうえ 上野店,https://tabelog.com/tokyo/A1311/A131101/13152111/,居酒屋、焼鳥、もつ鍋,居酒屋,35.70913333,139.7734306,東京都台東区上野6-8-4五味ビル3F
"0,1,0,1,0,0,0,1,0","0.0,3.0,0.0,3.0,3.0,0.0,0.0,0.0,3.0",0.2290582440498203,231.2825267850539,0.5,0.5499706166398229,66230,すしまみれ 上野広小路店,https://tabelog.com/tokyo/A1311/A131101/13183236/,寿司、魚介料理・海鮮料理,高級和食,35.70818687315987,139.77239284766262,東京都文京区湯島3-41-1ルドーム1F、B1
"0,1,0,1,0,0,0,1,0","0.0,3.0,0.0,3.0,3.0,0.0,0.0,0.0,3.0",0.2263242806809372,232.10271579571884,0.5,0.5488375716236487,24800,釜山館,https://tabelog.com/tokyo/A1311/A131101/13022792/,焼肉,焼肉・ホルモン・鍋,35.70956291,139.7752156,東京都台東区東上野2-15-7
"0,1,0,1,0,0,0,1,0","0.0,3.0,0.0,3.0,0.0,3.0,0.0,0.0,3.0",0.22378969577317293,232.86309126804812,0.5,0.5477972507545554,66025,厳選洋食さくらい,https://tabelog.com/tokyo/A1311/A131101/13003638/,洋食、ハヤシライス、ハンバーグ,洋食・西洋料理,35.70793800907534,139.77228897885837,東京都文京区湯島3-40-7カスタムビル　７Ｆ・８Ｆ
"0,1,0,1,0,0,0,1,0","0.0,3.0,0.0,3.0,0.0,3.0,0.0,0.0,3.0",0.2144287553663337,235.6713733900999,0.5,0.5440401558046566,23523,MKレストラン 御徒町店,https://tabelog.com/tokyo/A1311/A131101/13195694/,しゃぶしゃぶ、飲茶・点心、バイキング,焼肉・ホルモン・鍋,35.70716028,139.7722339,東京都台東区上野3-27-1十仁ビル4F
"0,1,0,1,0,0,0,1,0","0.0,3.0,0.0,3.0,3.0,0.0,0.0,0.0,3.0",0.21132267632603866,236.6031971021884,0.5,0.5428234275799081,65527,樽平,https://tabelog.com/tokyo/A1311/A131101/13018460/,ろばた焼き、魚介料理・海鮮料理、串焼き,高級和食,35.70791034731008,139.7722398081266,東京都文京区湯島3-40-7
"0,1,0,1,0,0,0,1,0","0.0,2.0,0.0,3.0,3.0,0.0,0.0,0.0,3.0",0.19174926145760765,242.4752215627177,0.5,0.5355070300841418,23699,上野肉バル ダイニング レッドスター,https://tabelog.com/tokyo/A1311/A131101/13205470/,バル・バール、居酒屋、アジア・エスニック料理（その他）,バー・お酒,35.70966167,139.7751817,東京都台東区東上野2-15-6東上野アユタヤビル
"0,1,0,1,0,0,0,1,0","0.0,3.0,0.0,3.0,3.0,0.0,0.0,0.0,3.0",0.17460423726881583,247.61872881935525,0.5,0.5296098938579461,22894,焼肉乃 富士吉,https://tabelog.com/tokyo/A1311/A131101/13003645/,焼肉、韓国料理、冷麺,焼肉・ホルモン・鍋,35.70969333,139.7752972,東京都台東区東上野2-15-7
"0,1,0,1,0,0,0,1,0","0.0,3.0,0.0,3.0,3.0,0.0,0.0,0.0,3.0",0.1722674250990258,248.31977247029226,0.5,0.5288440845374451,24215,長崎水産,https://tabelog.com/tokyo/A1311/A131101/13141815/,居酒屋、魚介料理・海鮮料理、寿司,高級和食,35.7081189,139.7721687,東京都台東区上野4-1-31F
"0,1,0,1,0,0,0,1,0","0.0,3.0,0.0,3.0,3.0,0.0,0.0,0.0,3.0",0.1720873752146766,248.37378743559702,0.5,0.5287854618919443,22291,Tree House 肉バル ジャックトマメノキ 上野店,https://tabelog.com/tokyo/A1311/A131101/13201447/,バル・バール、居酒屋、イタリアン,洋食・西洋料理,35.70811556,139.7721669,東京都台東区上野4-1-3仙家ビル1Ｆ
"0,1,0,1,0,0,0,1,0","0.0,3.0,0.0,3.0,3.0,0.0,0.0,0.0,3.0",0.16729773336943746,249.81067998916876,0.5,0.5272461774072443,66646,牛角 上野広小路店,https://tabelog.com/tokyo/A1311/A131101/13109227/,焼肉、韓国料理、ホルモン,焼肉・ホルモン・鍋,35.70790550907782,139.77209010798197,東京都文京区湯島3-39-11ライワビル6F
"0,1,0,1,0,0,0,1,0","0.0,3.0,0.0,3.0,3.0,0.0,0.0,0.0,3.0",0.16718864970069708,249.84340508979088,0.5,0.5272115747863872,66068,無国籍バル KAIKYO 上野広小路店,https://tabelog.com/tokyo/A1311/A131101/13169889/,バル・バール、ピザ、居酒屋,バー・お酒,35.70790467582394,139.77208955251044,東京都文京区湯島3-39-11ライワビル1F
"0,1,0,1,0,0,0,1,0","0.0,3.0,0.0,3.0,3.0,0.0,0.0,0.0,3.0",0.15782078170903077,252.65376548729077,0.5,0.5243161251947622,24246,Smoke&Cheese 上野HAZE,https://tabelog.com/tokyo/A1311/A131101/13182936/,ダイニングバー、居酒屋、イタリアン,洋食・西洋料理,35.70812694,139.7721217,東京都台東区上野4-1-3仙家ビルB2F
"0,1,0,1,0,0,0,1,0","0.0,3.0,0.0,3.0,3.0,0.0,0.0,0.0,3.0",0.15528743631832725,253.41376910450182,0.5,0.5235591541347726,22619,ザ・ウォーリアーケルト,https://tabelog.com/tokyo/A1311/A131101/13016789/,ビアバー、バー・お酒（その他）、ダイニングバー,バー・お酒,35.70941167,139.7732764,東京都台東区上野6-9-22伊藤ビル　３Ｆ
"0,1,0,1,0,0,0,1,0","0.0,3.0,0.0,3.0,0.0,3.0,0.0,0.0,3.0",0.15033374260560162,254.89987721831952,0.5,0.5221113235372388,23028,山海楼 御徒町店,https://tabelog.com/tokyo/A1311/A131101/13156481/,中華料理、居酒屋、上海料理,アジア・エスニック、中華料理,35.70701028,139.7775575,東京都台東区台東4-28-2クラシコ新御徒町1F
"0,1,0,1,0,0,0,1,0","0.0,3.0,0.0,3.0,3.0,0.0,0.0,0.0,3.0",0.1345084476465223,259.6474657060433,0.5,0.517776517899641,22849,ジンギスカン霧島 御徒町店,https://tabelog.com/tokyo/A1311/A131101/13150036/,焼肉、ジンギスカン、居酒屋・ダイニングバー（その他）,焼肉・ホルモン・鍋,35.70710972,139.7719756,東京都台東区上野3-27-3ハトヤビル3号館5F
"0,1,0,1,0,0,0,1,0","0.0,3.0,0.0,3.0,3.0,0.0,0.0,0.0,3.0",0.12077941675996272,263.7661749720112,0.5,0.5143808584238694,65186,吟,https://tabelog.com/tokyo/A1311/A131101/13033235/,割烹・小料理、ダイニングバー,高級和食,35.70825908156008,139.77204370666746,東京都文京区湯島3-41-10コスモビル２Ｆ
"0,1,0,1,0,0,0,1,0","0.0,3.0,0.0,3.0,3.0,0.0,0.0,0.0,3.0",0.11887357596482274,264.3379272105532,0.5,0.5139366955790027,23924,王さん私家菜,https://tabelog.com/tokyo/A1311/A131101/13192813/,四川料理、中国鍋・火鍋、居酒屋,アジア・エスニック、中華料理,35.70846222,139.7721339,東京都台東区上野4-2-82F
"0,1,0,1,0,0,0,1,0","0.0,3.0,0.0,3.0,3.0,0.0,0.0,0.0,3.0",0.11424038823796688,265.72788352860994,0.5,0.5128848470219816,22036,食いしんぼう,https://tabelog.com/tokyo/A1311/A131101/13039886/,焼肉、ホルモン,焼肉・ホルモン・鍋,35.70985722,139.7753103,東京都台東区東上野2-19-1
"0,1,0,1,0,0,0,1,0","0.0,3.0,0.0,3.0,3.0,0.0,0.0,0.0,3.0",0.10885338599483475,267.3439842015496,0.5,0.5117118912459827,23020,磯べゑ,https://tabelog.com/tokyo/A1311/A131101/13035043/,居酒屋、魚介料理・海鮮料理、日本酒バー,高級和食,35.70979167,139.7739,東京都台東区上野6-7-9中川ビル　１Ｆ
"0,1,0,1,0,0,0,1,0","0.0,3.0,0.0,3.0,3.0,0.0,0.0,0.0,3.0",0.10169741612734033,269.4907751617979,0.5,0.5102375568761843,21959,甘太郎 上野アメ横店,https://tabelog.com/tokyo/A1311/A131101/13051874/,居酒屋、焼肉、和食（その他）,Ｂ級和食,35.70846833,139.772075,東京都台東区上野4-2-6西田ビル　２Ｆ
"0,1,0,1,0,0,0,1,0","0.0,3.0,0.0,3.0,3.0,0.0,0.0,0.0,3.0",0.09328558481611936,272.0143245551642,0.5,0.5086277620563838,23724,地鶏城　梵厨,https://tabelog.com/tokyo/A1311/A131101/13101679/,居酒屋、焼鳥、鳥料理,Ｂ級和食,35.70670469,139.7776491,東京都台東区台東4-20-11谷古宇ビル１階
"0,1,0,1,0,0,0,1,0","0.0,3.0,0.0,3.0,3.0,0.0,0.0,0.0,3.0",0.09198601952957498,272.4041941411275,0.5,0.5083910185958199,24113,PizzaKingバンバール,https://tabelog.com/tokyo/A1311/A131101/13155069/,ピザ、パスタ、イタリアン,洋食・西洋料理,35.70667417,139.7776406,東京都台東区台東4-20-12本橋ビル1F
"0,1,0,1,0,0,0,1,0","0.0,3.0,0.0,3.0,3.0,0.0,0.0,0.0,3.0",0.08930322616891526,273.2090321493254,0.5,0.5079124591936847,65855,絵馬亭,https://tabelog.com/tokyo/A1311/A131101/13016778/,居酒屋、割烹・小料理、水炊き,高級和食,35.707391947634164,139.77178876776452,東京都文京区湯島3-39-3ユシマ栄ビル　２Ｆ
"0,1,0,1,0,0,0,1,0","0.0,3.0,0.0,3.0,3.0,0.0,0.0,0.0,3.0",0.08095436699369239,275.7136899018923,0.5,0.5065112136323829,22994,PINCHO,https://tabelog.com/tokyo/A1311/A131101/13174108/,スペイン料理、バル・バール、ダイニングバー,洋食・西洋料理,35.70758835,139.7717603,東京都台東区上野3-28-6
"0,1,0,1,0,0,0,1,0","0.0,3.0,0.0,3.0,3.0,0.0,0.0,0.0,3.0",0.0764584045202984,277.0624786439105,0.5,0.5058121070336193,24091,魚作 上野店,https://tabelog.com/tokyo/A1311/A131101/13150026/,居酒屋、魚介料理・海鮮料理、鍋（その他）,高級和食,35.70847667,139.7719883,東京都台東区上野4-2-6上野西田ビル5F
"0,1,0,1,0,0,0,1,0","0.0,3.0,0.0,3.0,3.0,0.0,0.0,0.0,3.0",0.06812287680288326,279.563136959135,0.5,0.5046193876020826,24519,上野アメ横のひもの屋 上野アメ横店,https://tabelog.com/tokyo/A1311/A131101/13043938/,居酒屋、日本酒バー、魚介料理・海鮮料理,高級和食,35.70892722,139.7722608,東京都台東区上野4-6-9大徳ビルB1F
"0,1,0,1,0,0,0,1,0","0.0,3.0,0.0,3.0,3.0,0.0,0.0,0.0,3.0",0.06479230131464571,280.5623096056063,0.5,0.5041805651843869,23942,テング酒場 上野店,https://tabelog.com/tokyo/A1311/A131101/13151158/,居酒屋、焼鳥、串焼き,居酒屋,35.70891608,139.7722381,東京都台東区上野4-6-9PASSAGEビル3F
"0,1,0,1,0,0,0,1,0","0.0,3.0,0.0,3.0,3.0,0.0,0.0,0.0,3.0",0.06228606141992202,281.3141815740234,0.5,0.5038646181735787,22486,こがね屋  御徒町,https://tabelog.com/tokyo/A1311/A131101/13187730/,串焼き、居酒屋、ろばた焼き,Ｂ級和食,35.7062578,139.7720937,東京都台東区上野3-21-101F
"0,1,0,1,0,0,0,1,0","0.0,3.0,0.0,3.0,3.0,0.0,0.0,0.0,3.0",0.05525157309259707,283.4245280722209,0.5,0.5030434735976669,66067,トントンびょうし,https://tabelog.com/tokyo/A1311/A131101/13119733/,焼きとん,Ｂ級和食,35.7079810502559,139.7717295788898,東京都文京区湯島3-39-9白石ビル1F
"0,1,0,1,0,0,0,1,0","0.0,3.0,0.0,3.0,3.0,0.0,0.0,0.0,3.0",0.05034843608790216,284.89546917362935,0.5,0.5025285713434586,23742,ワインの酒場。ディプント 上野御徒町店,https://tabelog.com/tokyo/A1311/A131101/13205295/,バル・バール、居酒屋、イタリアン,洋食・西洋料理,35.70648861,139.7719103,東京都台東区上野3-21-7福寿ビルB1F
"0,1,0,1,0,0,0,1,0","0.0,3.0,0.0,3.0,3.0,0.0,0.0,0.0,3.0",0.0462229042739538,286.13312871781386,0.5,0.50213201140688,21966,ホルモン専門店 焼肉 ホルモン番長,https://tabelog.com/tokyo/A1311/A131101/13113367/,焼肉、ホルモン、居酒屋,焼肉・ホルモン・鍋,35.70837639,139.7718322,東京都台東区上野4-2-5鈴木ビル1～4F
"0,1,0,1,0,0,0,1,0","0.0,3.0,0.0,3.0,3.0,0.0,0.0,0.0,3.0",0.04114278298636634,287.6571651040901,0.5,0.5016898729213729,22971,Trattoria Candito,https://tabelog.com/tokyo/A1311/A131101/13044473/,イタリアン、居酒屋、パスタ,洋食・西洋料理,35.70755944,139.7779828,東京都台東区東上野1-6-4アツキビル1F
"0,1,0,1,0,0,0,1,0","0.0,3.0,0.0,3.0,3.0,0.0,0.0,0.0,3.0",0.04028857893852849,287.91342631844145,0.5,0.5016205434318715,65220,SHO,https://tabelog.com/tokyo/A1311/A131101/13118155/,ダイニングバー、バー,バー・お酒,35.707969939406574,139.7716765282522,東京都文京区湯島3-39-9B1Ｆ
"0,1,0,1,0,0,0,1,0","0.0,3.0,0.0,3.0,3.0,0.0,0.0,0.0,3.0",0.039281968229879,288.2154095310363,0.5,0.501540699273761,22910,磯丸水産 上野御徒町店,https://tabelog.com/tokyo/A1311/A131101/13152249/,魚介料理・海鮮料理、居酒屋、和食（その他）,Ｂ級和食,35.70873557,139.7720048,東京都台東区上野4-6-6勉強堂ビル1F～2F
"0,1,0,1,0,0,0,1,0","0.0,3.0,0.0,3.0,3.0,0.0,0.0,0.0,3.0",0.0390263524658684,288.2920942602395,0.5,0.5015207435259186,21798,COCKTAIL WORKS 上野,https://tabelog.com/tokyo/A1311/A131101/13184760/,イタリアン、バー、バル・バール,洋食・西洋料理,35.71001694,139.7740236,東京都台東区上野6-7-15隆陽堂ビル1F
"0,1,0,1,0,0,0,1,0","0.0,3.0,0.0,3.0,3.0,3.0,0.0,0.0,3.0",0.20156790750066458,239.52962774980062,0.408248290464,0.45529802108164613,22696,レストラン満奈多,https://tabelog.com/tokyo/A1311/A131101/13010516/,韓国料理,アジア・エスニック、中華料理,35.70960333,139.7753906,東京都台東区東上野2-15-8
"0,1,0,1,0,0,0,0,1","0.0,3.0,0.0,3.0,0.0,0.0,0.0,0.0,3.0",0.6784464713398726,96.46605859803822,1.0,1.2084244347386908,24825,ラテン,https://tabelog.com/tokyo/A1311/A131101/13016720/,バー,バー・お酒,35.70669583,139.7743939,東京都台東区台東4-11-2紫光ビル　Ｂ１Ｆ
"0,1,0,1,0,0,0,0,1","0.0,2.0,0.0,3.0,3.0,0.0,0.0,0.0,3.0",0.932839495679151,20.14815129625467,0.707106781187,1.1705509492110684,24849,御徒町 魚富,https://tabelog.com/tokyo/A1311/A131101/13205979/,居酒屋、魚介料理・海鮮料理、天ぷら,高級和食,35.70745083,139.77502,東京都台東区台東4-31-6松田ビル1F　
"0,1,0,1,0,0,0,0,1","0.0,3.0,0.0,3.0,0.0,0.0,0.0,0.0,3.0",0.5668003753471204,129.9598873958639,1.0,1.1494619025846993,24256,鳥焼肉 巻渕,https://tabelog.com/tokyo/A1311/A131101/13212161/,焼肉、居酒屋、鳥料理,焼肉・ホルモン・鍋,35.70789611,139.7734544,東京都台東区上野6-2-1JREビル2F
"0,1,0,1,0,0,0,0,1","0.0,3.0,0.0,3.0,3.0,0.0,0.0,0.0,3.0",0.8838483702831375,34.845488915058745,0.707106781187,1.1318957291429976,22608,クラルテ,https://tabelog.com/tokyo/A1311/A131101/13154926/,バー,バー・お酒,35.70781131,139.7748315,東京都台東区東上野1-14-14一光ビル1F
"0,1,0,1,0,0,0,0,1","0.0,3.0,0.0,3.0,0.0,0.0,0.0,0.0,3.0",0.5214695757173048,143.55912728480857,1.0,1.1277989707384848,23439,魚禅,https://tabelog.com/tokyo/A1311/A131101/13203554/,魚介料理・海鮮料理、居酒屋、寿司,高級和食,35.707415,139.7732219,東京都台東区上野5-25-8
"0,1,0,1,0,0,0,0,1","0.0,3.0,0.0,3.0,3.0,0.0,0.0,0.0,3.0",0.8569959727966253,42.90120816101236,0.707106781187,1.1110544979386179,24692,MEAT×WINE BISTRO DOMANNAKA,https://tabelog.com/tokyo/A1311/A131101/13210659/,ビストロ、ダイニングバー、ステーキ,洋食・西洋料理,35.7077525,139.7751619,東京都台東区東上野1-13-2成田第2ビル1F
"0,1,0,1,0,0,0,0,1","0.0,3.0,0.0,3.0,0.0,0.0,0.0,0.0,3.0",0.4345337732784054,169.63986801647837,1.0,1.0903300418311734,24635,炭火ホルモン焼 夏冬 御徒町店,https://tabelog.com/tokyo/A1311/A131101/13211063/,ホルモン、居酒屋,焼肉・ホルモン・鍋,35.70724056,139.7729572,東京都台東区上野5-26-6桂ビルB1F
"0,1,0,1,0,0,0,0,1","0.0,3.0,0.0,3.0,0.0,0.0,0.0,0.0,3.0",0.4020403211846522,179.38790364460434,1.0,1.0777923825386122,22944,大将 御徒町店,https://tabelog.com/tokyo/A1311/A131101/13126264/,焼肉、ホルモン、居酒屋,焼肉・ホルモン・鍋,35.70805598,139.7729445,東京都台東区上野6-4-19
"0,1,0,1,0,0,0,0,1","0.0,3.0,0.0,3.0,0.0,0.0,0.0,0.0,3.0",0.3861409695980092,184.15770912059725,1.0,1.0719630816413832,22383,すし屋 銀蔵 御徒町店,https://tabelog.com/tokyo/A1311/A131101/13025210/,寿司、魚介料理・海鮮料理、居酒屋,高級和食,35.70730861,139.7727833,東京都台東区上野5-27-17
"0,1,0,1,0,0,0,0,1","0.0,3.0,0.0,3.0,0.0,0.0,0.0,0.0,3.0",0.37969381156656,186.091856530032,1.0,1.0696576043491404,23668,焼肉・ホルモン料理　とらじ亭 上野本店,https://tabelog.com/tokyo/A1311/A131101/13018447/,焼肉、ホルモン、韓国料理,焼肉・ホルモン・鍋,35.70858972,139.7732439,東京都台東区上野6-3-11尾中ビル1F～3F
"0,1,0,1,0,0,0,0,1","0.0,3.0,0.0,3.0,0.0,0.0,0.0,0.0,3.0",0.34148596308231655,197.55421107530503,1.0,1.0566989462388316,24295,宝ばこ,https://tabelog.com/tokyo/A1311/A131101/13125574/,韓国料理、焼肉、居酒屋,焼肉・ホルモン・鍋,35.70815167,139.7727744,東京都台東区上野6-4-19
"0,1,0,1,0,0,0,0,1","0.0,3.0,0.0,3.0,0.0,0.0,0.0,0.0,3.0",0.3307937092471753,200.7618872258474,1.0,1.0532922092551074,22567,中国風味小吃,https://tabelog.com/tokyo/A1311/A131101/13105379/,中華料理、韓国料理,アジア・エスニック、中華料理,35.70731583,139.7725978,東京都台東区上野5-27-17
"0,1,0,1,0,0,0,0,1","0.0,3.0,0.0,3.0,0.0,0.0,0.0,0.0,3.0",0.32718718620002135,201.8438441399936,1.0,1.052165127160888,24274,沖縄ダイニング　和海,https://tabelog.com/tokyo/A1311/A131101/13047439/,沖縄料理、居酒屋、ダイニングバー,バー・お酒,35.70879556,139.7763683,東京都台東区東上野1-20-8第3津多屋ビル1F
"0,1,0,1,0,0,0,0,1","0.0,3.0,0.0,3.0,0.0,0.0,0.0,0.0,3.0",0.326953036093794,201.9140891718618,1.0,1.0520923380630378,24994,上野 アメ屋横丁 トロ函,https://tabelog.com/tokyo/A1311/A131101/13059300/,居酒屋、炭火焼き、魚介料理・海鮮料理,創作料理・無国籍料理,35.70899583,139.7735378,東京都台東区上野6-8-1
"0,1,0,1,0,0,0,0,1","0.0,3.0,0.0,3.0,0.0,0.0,0.0,0.0,3.0",0.28612371996459424,214.16288401062172,1.0,1.0401282532103324,23313,海雲台,https://tabelog.com/tokyo/A1311/A131101/13163777/,韓国料理、冷麺、焼肉,アジア・エスニック、中華料理,35.70940694,139.7751553,東京都台東区東上野2-15-4
"0,1,0,1,0,0,0,0,1","0.0,3.0,0.0,3.0,0.0,0.0,0.0,0.0,3.0",0.2645544007217286,220.63367978348143,1.0,1.0344027411705912,24425,ソウル,https://tabelog.com/tokyo/A1311/A131101/13161314/,韓国料理、焼肉、居酒屋,焼肉・ホルモン・鍋,35.70942611,139.7754014,東京都台東区東上野2-15-2
"0,1,0,1,0,0,0,0,1","0.0,3.0,0.0,3.0,0.0,0.0,0.0,0.0,3.0",0.2600958722296744,221.97123833109768,1.0,1.033271437111718,22500,金魚,https://tabelog.com/tokyo/A1311/A131101/13032733/,居酒屋、焼酎バー,バー・お酒,35.707305,139.7723636,東京都台東区上野5-27-7
"0,1,0,1,0,0,0,0,1","0.0,3.0,0.0,3.0,0.0,0.0,0.0,0.0,3.0",0.24414914769460505,226.7552556916185,1.0,1.0293730161219508,24337,おかってや 東上野店,https://tabelog.com/tokyo/A1311/A131101/13035538/,居酒屋,居酒屋,35.70906667,139.7764111,東京都台東区東上野2-11-1Ｔ＆Ｋビル　１Ｆ
"0,1,0,1,0,0,0,0,1","0.0,3.0,0.0,3.0,0.0,0.0,0.0,0.0,3.0",0.24127039939043432,227.6188801828697,1.0,1.0286940291563957,23238,中国料理 茶寮,https://tabelog.com/tokyo/A1311/A131101/13042386/,中華料理,アジア・エスニック、中華料理,35.70936694,139.7758422,東京都台東区東上野2-13-2猪田ビル1F・2F
"0,1,0,1,0,0,0,0,1","0.0,3.0,0.0,3.0,0.0,0.0,0.0,0.0,3.0",0.23352482947362177,229.94255115791347,1.0,1.0269049839107238,66316,ファンタジスタ,https://tabelog.com/tokyo/A1311/A131101/13144473/,ピザ、イタリアン、居酒屋,洋食・西洋料理,35.707564715257696,139.77226538689382,東京都文京区湯島3-40-11オレンジビル1・2F
"0,1,0,1,0,0,0,0,1","0.0,3.0,0.0,3.0,0.0,0.0,0.0,0.0,3.0",0.23010548523998797,230.9683544280036,1.0,1.0261328054094803,66180,極ダイニング,https://tabelog.com/tokyo/A1311/A131101/13101465/,居酒屋,居酒屋,35.70778135894584,139.77227648710826,東京都文京区湯島3-40-6アンビッションビル１Ｆ・Ｂ１
"0,1,0,1,0,0,0,0,1","0.0,3.0,0.0,3.0,0.0,0.0,0.0,0.0,3.0",0.19938797461695193,240.18360761491442,1.0,1.0196840512736534,24339,居酒屋おんどる,https://tabelog.com/tokyo/A1311/A131101/13199496/,居酒屋,居酒屋,35.709235,139.7732211,東京都台東区上野6-9-23
"0,1,0,1,0,0,0,0,1","0.0,3.0,0.0,3.0,0.0,0.0,0.0,0.0,3.0",0.19199734268752414,242.40079719374276,1.0,1.0182646903428747,24932,焼肉大門,https://tabelog.com/tokyo/A1311/A131101/13047885/,焼肉、韓国料理,焼肉・ホルモン・鍋,35.70966083,139.7751831,東京都台東区東上野2-15-6
"0,1,0,1,0,0,0,0,1","0.0,3.0,0.0,3.0,0.0,0.0,0.0,0.0,3.0",0.1872483802628501,243.82548592114497,1.0,1.0173799466821927,23386,東京苑,https://tabelog.com/tokyo/A1311/A131101/13003624/,焼肉、ホルモン、韓国料理,焼肉・ホルモン・鍋,35.70965944,139.7752914,東京都台東区東上野2-15-7
"0,1,0,1,0,0,0,0,1","0.0,3.0,0.0,3.0,0.0,0.0,0.0,0.0,3.0",0.18207745058621147,245.37676482413656,1.0,1.0164409466427324,23773,鳥番長 上野昭和通り店,https://tabelog.com/tokyo/A1311/A131101/13108712/,焼鳥、鳥料理、居酒屋,Ｂ級和食,35.70960747,139.7739908,東京都台東区上野6-7-18メッツビル1F
"0,1,0,1,0,0,0,0,1","0.0,3.0,0.0,3.0,0.0,0.0,0.0,0.0,3.0",0.17272093781222253,248.18371865633324,1.0,1.0148066428432234,23656,上野市場 御徒町店,https://tabelog.com/tokyo/A1311/A131101/13034262/,居酒屋,居酒屋,35.70809889,139.7721633,東京都台東区上野4-1-3
"0,1,0,1,0,0,0,0,1","0.0,3.0,0.0,3.0,0.0,0.0,0.0,0.0,3.0",0.17220995025547522,248.33701492335743,1.0,1.0147197972676956,22389,鶏百華 上野御徒町店,https://tabelog.com/tokyo/A1311/A131101/13155974/,居酒屋、焼鳥、もつ鍋,居酒屋,35.70811833,139.7721683,東京都台東区上野4-1-3仙家ビルB1F
"0,1,0,1,0,0,0,0,1","0.0,3.0,0.0,3.0,0.0,0.0,0.0,0.0,3.0",0.16981093826643293,249.05671852007012,1.0,1.014315411868974,24527,韓国家庭料理 韓屋,https://tabelog.com/tokyo/A1311/A131101/13051465/,韓国料理、韓国鍋,アジア・エスニック、中華料理,35.70761194,139.7720564,東京都台東区上野3-27-7２Ｆ
"0,1,0,1,0,0,0,0,1","0.0,3.0,0.0,3.0,0.0,0.0,0.0,0.0,3.0",0.16761905849160116,249.71428245251965,1.0,1.0139507624976722,23326,磯べゑ,https://tabelog.com/tokyo/A1311/A131101/13122086/,居酒屋、和食（その他）、日本酒バー,Ｂ級和食,35.70952194,139.7735981,東京都台東区上野6-8-19泰和第2ビル1F
"0,1,0,1,0,0,0,0,1","0.0,3.0,0.0,3.0,0.0,0.0,0.0,0.0,3.0",0.16716902916337356,249.84929125098793,1.0,1.0138764640287419,22124,千里香 上野店,https://tabelog.com/tokyo/A1311/A131101/13059510/,中華料理、韓国料理,アジア・エスニック、中華料理,35.70952361,139.7735989,東京都台東区上野6-8-19上野松島ビルＢ1F
"0,1,0,1,0,0,0,0,1","0.0,3.0,0.0,3.0,0.0,0.0,0.0,0.0,3.0",0.16150430044948233,251.5487098651553,1.0,1.012957866381261,22937,京城苑,https://tabelog.com/tokyo/A1311/A131101/13003583/,焼肉,焼肉・ホルモン・鍋,35.70972756,139.7753091,東京都台東区東上野2-15-7
"0,1,0,1,0,0,0,0,1","0.0,3.0,0.0,3.0,0.0,0.0,0.0,0.0,3.0",0.1538464964427423,253.8460510671773,1.0,1.0117651627070912,22183,モツ兵衛 御徒町店,https://tabelog.com/tokyo/A1311/A131101/13050060/,もつ鍋、もつ焼き、居酒屋,居酒屋,35.70544139,139.7735761,東京都台東区上野5-15-15
"0,1,0,1,0,0,0,0,1","0.0,3.0,0.0,3.0,0.0,0.0,0.0,0.0,3.0",0.15220606284284352,254.33818114714694,1.0,1.0115170218864928,21764,ととしぐれ 御徒町,https://tabelog.com/tokyo/A1311/A131101/13166774/,魚介料理・海鮮料理、居酒屋、串焼き,高級和食,35.70590607,139.7727828,東京都台東区上野5-19-6
"0,1,0,1,0,0,0,0,1","0.0,3.0,0.0,3.0,0.0,0.0,0.0,0.0,3.0",0.12624654708842759,262.1260358734717,1.0,1.0079375926374363,21730,寿司幸,https://tabelog.com/tokyo/A1311/A131101/13025182/,寿司、魚介料理・海鮮料理,高級和食,35.70822278,139.7720481,東京都台東区上野4-2-11
"0,1,0,1,0,0,0,0,1","0.0,3.0,0.0,3.0,0.0,0.0,0.0,0.0,3.0",0.1257236040255583,262.2829187923325,1.0,1.0078722263308852,25004,よし寿司 上野店,https://tabelog.com/tokyo/A1311/A131101/13158641/,寿司、懐石・会席料理,高級和食,35.70972639,139.7738378,東京都台東区上野6-7-8
"0,1,0,1,0,0,0,0,1","0.0,3.0,0.0,3.0,0.0,0.0,0.0,0.0,3.0",0.11423842060003532,265.7284738199894,1.0,1.0065040569919184,23807,鳥よし,https://tabelog.com/tokyo/A1311/A131101/13034078/,居酒屋、焼鳥,居酒屋,35.70611111,139.7724111,東京都台東区上野5-20-4
"0,1,0,1,0,0,0,0,1","0.0,3.0,0.0,3.0,0.0,0.0,0.0,0.0,3.0",0.09771305565225172,270.6860833043245,1.0,1.0047625795405102,23328,キリンシティ 上野店,https://tabelog.com/tokyo/A1311/A131101/13206993/,ビアホール・ビアレストラン、ビアガーデン、居酒屋,バー・お酒,35.709655,139.7734075,東京都台東区上野6-8-8上野POKKE１F
"0,1,0,1,0,0,0,0,1","0.0,3.0,0.0,3.0,0.0,0.0,0.0,0.0,3.0",0.08792791826705317,273.62162451988405,1.0,1.003858216488154,23996,海鮮 昌屋,https://tabelog.com/tokyo/A1311/A131101/13028161/,懐石・会席料理、魚介料理・海鮮料理、居酒屋,高級和食,35.70980278,139.7758806,東京都台東区東上野2-21-3成宝ビル　Ｂ１Ｆ
"0,1,0,1,0,0,0,0,1","0.0,3.0,0.0,3.0,0.0,0.0,0.0,0.0,3.0",0.08321429324818193,275.0357120255454,1.0,1.0034563361705353,23232,酒蔵 神田っ子,https://tabelog.com/tokyo/A1311/A131101/13046986/,居酒屋、焼鳥、魚介料理・海鮮料理,高級和食,35.70963864,139.7732725,東京都台東区上野6-9-20
"0,1,0,1,0,0,0,0,1","0.0,3.0,0.0,3.0,0.0,0.0,0.0,0.0,3.0",0.04350270126753685,286.94918961973895,1.0,1.000945795244464,24258,寿司源,https://tabelog.com/tokyo/A1311/A131101/13019966/,寿司,高級和食,35.70739,139.7716369,東京都台東区上野3-28-5
"0,1,0,1,0,0,0,0,1","0.0,3.0,0.0,3.0,0.0,0.0,0.0,0.0,3.0",0.009804601841045344,297.0586194476864,1.0,1.000048063953559,21860,むろ華,https://tabelog.com/tokyo/A1311/A131101/13016667/,居酒屋、焼酎バー,バー・お酒,35.71007389,139.77391,東京都台東区上野6-7-12Ｂ１Ｆ
"0,1,0,1,0,0,0,0,1","0.0,3.0,0.0,3.0,3.0,0.0,0.0,0.0,3.0",0.661148621042667,101.6554136871999,0.707106781187,0.9680482937883937,24949,バクロウ,https://tabelog.com/tokyo/A1311/A131101/13138118/,バル・バール、馬肉料理、ワインバー,バー・お酒,35.70841056,139.774905,東京都台東区東上野1-15-1
"0,1,0,1,0,0,0,0,1","0.0,3.0,0.0,3.0,0.0,3.0,0.0,0.0,3.0",0.5876803179663244,123.6959046101027,0.707106781187,0.9194390442682974,23727,山海亭,https://tabelog.com/tokyo/A1311/A131101/13032811/,居酒屋、魚介料理・海鮮料理、寿司,高級和食,35.70856389,139.7752056,東京都台東区東上野1-17-6
"0,1,0,1,0,0,0,0,1","0.0,3.0,0.0,3.0,3.0,0.0,0.0,0.0,3.0",0.5733492250312023,127.99523249063928,0.707106781187,0.9103457221538861,22394,多ら福,https://tabelog.com/tokyo/A1311/A131101/13112169/,居酒屋,居酒屋,35.70829222,139.7737792,東京都台東区上野6-1-6上野シックスロードビル　B1F
"0,1,0,1,0,0,0,0,1","0.0,3.0,0.0,3.0,3.0,0.0,0.0,0.0,3.0",0.5732066069102912,128.03801792691263,0.707106781187,0.910255905888893,24981,ストーンズ,https://tabelog.com/tokyo/A1311/A131101/13104298/,バー、ワインバー、ダイニングバー,バー・お酒,35.70829278,139.7737792,東京都台東区上野6-1-6上野シックスロードビルB1F
"0,1,0,1,0,0,0,0,1","0.0,3.0,0.0,3.0,3.0,0.0,0.0,0.0,3.0",0.5557580148857258,133.27259553428226,0.707106781187,0.8993703192288051,23574,しゅん 御徒町店,https://tabelog.com/tokyo/A1311/A131101/13025086/,寿司,高級和食,35.70742139,139.7733353,東京都台東区上野5-25-8グランディールビル御徒町　１Ｆ
"0,1,0,1,0,0,0,0,1","0.0,3.0,0.0,3.0,3.0,0.0,0.0,0.0,3.0",0.5318003027888683,140.45990916333952,0.707106781187,0.8847663884022335,22511,Hitch×kakeru ヒチカケ,https://tabelog.com/tokyo/A1311/A131101/13194692/,ビアバー、アジア・エスニック料理（その他）、ダイニングバー,バー・お酒,35.70786167,139.7733183,東京都台東区上野6-2-2ライフビル2Fこのお店は「千代田区神田松永町17-3」から移転しています。※移転前の情報は最新のものとは異なります。移転前の店舗情報を見る
"0,1,0,1,0,0,0,0,1","0.0,3.0,0.0,3.0,3.0,0.0,0.0,0.0,3.0",0.5058966706478615,148.23099880564155,0.707106781187,0.8694431789211937,24513,新割烹 嬉八,https://tabelog.com/tokyo/A1311/A131101/13016729/,割烹・小料理、魚介料理・海鮮料理,高級和食,35.70661444,139.7760336,東京都台東区台東4-18-8女井ビル　Ｂ１Ｆ
"0,1,0,1,0,0,0,0,1","0.0,3.0,0.0,3.0,3.0,0.0,0.0,0.0,3.0",0.5049221208275154,148.52336375174536,0.707106781187,0.8688764861019984,24428,魚旬 かねしょう,https://tabelog.com/tokyo/A1311/A131101/13205075/,魚介料理・海鮮料理、居酒屋・ダイニングバー（その他）、寿司,高級和食,35.7068475,139.7733706,東京都台東区上野5-25-17東成ビル1F
"0,1,0,1,0,0,0,0,1","0.0,3.0,0.0,3.0,3.0,0.0,0.0,0.0,3.0",0.4769276295974312,156.92171112077065,0.707106781187,0.8529126355456487,24672,博多・下関　げんき家,https://tabelog.com/tokyo/A1311/A131101/13190501/,居酒屋、日本酒バー、創作料理,バー・お酒,35.70674278,139.7733389,東京都台東区上野5-25-1ニュー遠藤ビル2F
"0,1,0,1,0,0,0,0,1","0.0,3.0,0.0,3.0,3.0,0.0,0.0,0.0,3.0",0.4763129143389859,157.10612569830423,0.707106781187,0.8525690543094432,23826,丸鶏もと家 上野店,https://tabelog.com/tokyo/A1311/A131101/13181225/,韓国鍋、韓国料理、居酒屋,アジア・エスニック、中華料理,35.70809028,139.7763819,東京都台東区東上野1-11-10上野aビル1F
"0,1,0,1,0,0,0,0,1","0.0,3.0,0.0,3.0,3.0,0.0,0.0,0.0,3.0",0.452360076518369,164.2919770444893,0.707106781187,0.8394222053458585,22435,あんじゅ,https://tabelog.com/tokyo/A1311/A131101/13100457/,居酒屋、韓国料理、もつ鍋,アジア・エスニック、中華料理,35.70754889,139.7729906,東京都台東区上野5-26-8Ｂ１Ｆ
"0,1,0,1,0,0,0,0,1","0.0,3.0,0.0,3.0,3.0,0.0,0.0,0.0,3.0",0.4489096512686288,165.32710461941136,0.707106781187,0.8375678330751021,23642,串と酒 吉助,https://tabelog.com/tokyo/A1311/A131101/13188181/,居酒屋、焼鳥、魚介料理・海鮮料理,高級和食,35.70755444,139.7729794,東京都台東区上野5-26-8ロイヤルビルB1F
"0,1,0,1,0,0,0,0,1","0.0,3.0,0.0,3.0,0.0,0.0,0.0,3.0,0.0",0.4401593648945668,167.95219053162995,0.707106781187,0.8329107194077817,23314,阿吽,https://tabelog.com/tokyo/A1311/A131101/13074999/,居酒屋,居酒屋,35.70715556,139.7729972,東京都台東区上野5-26-5
"0,1,0,1,0,0,0,0,1","0.0,3.0,0.0,3.0,3.0,0.0,0.0,0.0,3.0",0.4372879432148437,168.81361703554688,0.707106781187,0.8313968638869577,23272,房家 上野六丁目店,https://tabelog.com/tokyo/A1311/A131101/13186440/,焼肉、居酒屋、ホルモン,焼肉・ホルモン・鍋,35.70882667,139.7738961,東京都台東区上野6-6-6小湊ビル1～2F
"0,1,0,1,0,0,0,0,1","0.0,3.0,0.0,3.0,3.0,0.0,0.0,0.0,3.0",0.4176478519842797,174.70564440471608,0.707106781187,0.8212367065999199,22064,TOKYO 焼肉 ごぉ,https://tabelog.com/tokyo/A1311/A131101/13201243/,焼肉、ラーメン、居酒屋,焼肉・ホルモン・鍋,35.70656,139.7732544,東京都台東区上野5-22-8御徒町電子ビル2F
"0,1,0,1,0,0,0,0,1","0.0,3.0,0.0,3.0,3.0,0.0,0.0,3.0,0.0",0.5828018264827848,125.15945205516456,0.57735026919,0.8203604709425019,25149,酒楽　こてらんこ,https://tabelog.com/tokyo/A1311/A131101/13126463/,居酒屋、郷土料理（その他）,高級和食,35.70833167,139.7757367,東京都台東区東上野1-19-2第二鈴木ビル1F
"0,1,0,1,0,0,0,0,1","0.0,3.0,0.0,3.0,3.0,0.0,0.0,0.0,3.0",0.4084899714219337,177.45300857341988,0.707106781187,0.8166174482291524,23378,故郷味 上野店,https://tabelog.com/tokyo/A1311/A131101/13009787/,四川料理、上海料理、中華料理,アジア・エスニック、中華料理,35.70852111,139.7732978,東京都台東区上野6-2-7キングビル1F・2F・4F
"0,1,0,1,0,0,0,0,1","0.0,3.0,0.0,3.0,3.0,0.0,0.0,0.0,3.0",0.3988826695983019,180.33519912050943,0.707106781187,0.8118542874838244,22198,八仙宮,https://tabelog.com/tokyo/A1311/A131101/13052836/,中華料理、四川料理、居酒屋,アジア・エスニック、中華料理,35.70873139,139.7735072,東京都台東区上野6-5-1羽山ビル　Ｂ１Ｆ
"0,1,0,1,0,0,0,0,1","0.0,3.0,0.0,3.0,0.0,0.0,0.0,3.0,0.0",0.39653115052895277,181.04065484131416,0.707106781187,0.8107015192657623,24142,和光,https://tabelog.com/tokyo/A1311/A131101/13025266/,焼肉,焼肉・ホルモン・鍋,35.70844722,139.7731778,東京都台東区上野6-3-6
"0,1,0,1,0,0,0,0,1","0.0,3.0,0.0,3.0,3.0,0.0,0.0,0.0,3.0",0.3546386059592777,193.6084182122167,0.707106781187,0.7910553336124724,21907,酒と食事 昧舟,https://tabelog.com/tokyo/A1311/A131101/13035300/,とんかつ、割烹・小料理、魚介料理・海鮮料理,高級和食,35.70608417,139.7735511,東京都台東区上野5-23-14ＤＳＭ御徒町ビル　Ｂ１Ｆ
"0,1,0,1,0,0,0,0,1","0.0,3.0,0.0,3.0,3.0,0.0,0.0,0.0,3.0",0.3373805035665301,198.78584893004097,0.707106781187,0.7834702318447112,23010,亀七鮨,https://tabelog.com/tokyo/A1311/A131101/13109402/,寿司,高級和食,35.70586283,139.7757027,東京都台東区台東4-6-8
"0,1,0,1,0,0,0,0,1","0.0,3.0,0.0,3.0,3.0,0.0,0.0,0.0,3.0",0.32522008554891824,202.43397433532454,0.707106781187,0.7783110586677063,24136,串カツ田中 上野6丁目店,https://tabelog.com/tokyo/A1311/A131101/13203020/,居酒屋、串揚げ・串かつ,Ｂ級和食,35.70912074,139.7737825,東京都台東区上野6-7-31F
"0,1,0,1,0,0,0,0,1","0.0,3.0,0.0,3.0,0.0,0.0,0.0,3.0,0.0",0.32372173867659504,202.8834783970215,0.707106781187,0.7776861604090675,24377,くら鳥,https://tabelog.com/tokyo/A1311/A131101/13003614/,焼鳥,Ｂ級和食,35.70581583,139.7756839,東京都台東区台東4-6-1
"0,1,0,1,0,0,0,0,1","0.0,3.0,0.0,3.0,3.0,0.0,0.0,0.0,3.0",0.32341917886088956,202.97424634173314,0.707106781187,0.7775602647094643,24598,陽山道 上野本店,https://tabelog.com/tokyo/A1311/A131101/13016717/,焼肉、韓国料理、ホルモン,焼肉・ホルモン・鍋,35.70881917,139.7732536,東京都台東区上野6-5-3
"0,1,0,1,0,0,0,0,1","0.0,3.0,0.0,3.0,0.0,0.0,0.0,3.0,0.0",0.32252141240452525,203.24357627864242,0.707106781187,0.777187275667461,22734,郷土料理たるや,https://tabelog.com/tokyo/A1311/A131101/13078489/,郷土料理（その他）,高級和食,35.70878556,139.7764025,東京都台東区東上野1-20-8第3津多屋ビルB1F
"0,1,0,1,0,0,0,0,1","0.0,3.0,0.0,3.0,0.0,0.0,0.0,3.0,0.0",0.30903857806938806,207.28842657918358,0.707106781187,0.7716896025832857,24689,やっちゃ場,https://tabelog.com/tokyo/A1311/A131101/13083650/,居酒屋,居酒屋,35.70584889,139.7758814,東京都台東区台東4-5-7鈴木ビル1F
"0,1,0,1,0,0,0,0,1","0.0,3.0,0.0,3.0,0.0,0.0,0.0,3.0,0.0",0.29629640913191113,211.11107726042667,0.707106781187,0.7666756563661487,23696,ノランチェンバン,https://tabelog.com/tokyo/A1311/A131101/13139863/,焼肉,焼肉・ホルモン・鍋,35.70937639,139.7751767,東京都台東区東上野2-15-3
"0,1,0,1,0,0,0,0,1","0.0,3.0,0.0,3.0,3.0,0.0,0.0,0.0,3.0",0.26672821413616477,219.98153575915057,0.707106781187,0.7557406567178108,23643,さかのうえ 上野店,https://tabelog.com/tokyo/A1311/A131101/13152111/,居酒屋、焼鳥、もつ鍋,居酒屋,35.70913333,139.7734306,東京都台東区上野6-8-4五味ビル3F
"0,1,0,1,0,0,0,0,1","0.0,3.0,0.0,3.0,0.0,0.0,0.0,3.0,0.0",0.2583344809600135,222.49965571199596,0.707106781187,0.7528191708855984,24444,鮮魚酒場 魚辰,https://tabelog.com/tokyo/A1311/A131101/13130127/,魚介料理・海鮮料理、居酒屋,高級和食,35.70914949,139.7734103,東京都台東区上野6-8-4五味ビルB1F
"0,1,0,1,0,0,0,0,1","0.0,3.0,0.0,3.0,3.0,0.0,0.0,0.0,3.0",0.2290582440498203,231.2825267850539,0.707106781187,0.7432816957030405,66230,すしまみれ 上野広小路店,https://tabelog.com/tokyo/A1311/A131101/13183236/,寿司、魚介料理・海鮮料理,高級和食,35.70818687315987,139.77239284766262,東京都文京区湯島3-41-1ルドーム1F、B1
"0,1,0,1,0,0,0,0,1","0.0,3.0,0.0,3.0,3.0,0.0,0.0,0.0,3.0",0.2263242806809372,232.10271579571884,0.707106781187,0.7424437217902403,24800,釜山館,https://tabelog.com/tokyo/A1311/A131101/13022792/,焼肉,焼肉・ホルモン・鍋,35.70956291,139.7752156,東京都台東区東上野2-15-7
"0,1,0,1,0,0,0,0,1","0.0,3.0,0.0,3.0,0.0,3.0,0.0,0.0,3.0",0.22378969577317293,232.86309126804812,0.707106781187,0.7416750150397743,66025,厳選洋食さくらい,https://tabelog.com/tokyo/A1311/A131101/13003638/,洋食、ハヤシライス、ハンバーグ,洋食・西洋料理,35.70793800907534,139.77228897885837,東京都文京区湯島3-40-7カスタムビル　７Ｆ・８Ｆ
"0,1,0,1,0,0,0,0,1","0.0,3.0,0.0,3.0,0.0,0.0,0.0,3.0,0.0",0.217232869430451,234.8301391708647,0.707106781187,0.7397230019142216,66279,串焼きだるま,https://tabelog.com/tokyo/A1311/A131101/13019941/,焼鳥、鳥料理、もつ焼き,Ｂ級和食,35.70772136445568,139.77222454973892,東京都文京区湯島3-40-5
"0,1,0,1,0,0,0,0,1","0.0,3.0,0.0,3.0,0.0,3.0,0.0,0.0,3.0",0.2144287553663337,235.6713733900999,0.707106781187,0.7389043856467189,23523,MKレストラン 御徒町店,https://tabelog.com/tokyo/A1311/A131101/13195694/,しゃぶしゃぶ、飲茶・点心、バイキング,焼肉・ホルモン・鍋,35.70716028,139.7722339,東京都台東区上野3-27-1十仁ビル4F
"0,1,0,1,0,0,0,0,1","0.0,3.0,0.0,3.0,3.0,0.0,0.0,0.0,3.0",0.21132267632603866,236.6031971021884,0.707106781187,0.7380089928514421,65527,樽平,https://tabelog.com/tokyo/A1311/A131101/13018460/,ろばた焼き、魚介料理・海鮮料理、串焼き,高級和食,35.70791034731008,139.7722398081266,東京都文京区湯島3-40-7
"0,1,0,1,0,0,0,0,1","0.0,3.0,0.0,3.0,0.0,0.0,0.0,3.0,0.0",0.1949862056958664,241.50413829124008,0.707106781187,0.7334982075040613,21779,あいちゃん,https://tabelog.com/tokyo/A1311/A131101/13078894/,居酒屋,居酒屋,35.70928611,139.7732833,東京都台東区上野6-9-23
"0,1,0,1,0,0,0,0,1","0.0,2.0,0.0,3.0,3.0,0.0,0.0,0.0,3.0",0.19174926145760765,242.4752215627177,0.707106781187,0.7326443743519349,23699,上野肉バル ダイニング レッドスター,https://tabelog.com/tokyo/A1311/A131101/13205470/,バル・バール、居酒屋、アジア・エスニック料理（その他）,バー・お酒,35.70966167,139.7751817,東京都台東区東上野2-15-6東上野アユタヤビル
"0,1,0,1,0,0,0,0,1","0.0,3.0,0.0,3.0,0.0,0.0,0.0,3.0,0.0",0.19132160121257963,242.6035196362261,0.707106781187,0.732532562477973,22404,エベレストアジアンダイニング,https://tabelog.com/tokyo/A1311/A131101/13162545/,インド料理、ネパール料理、アジア・エスニック料理（その他）,アジア・エスニック、中華料理,35.70966278,139.7751822,東京都台東区東上野2-15-6
"0,1,0,1,0,0,0,0,1","0.0,3.0,0.0,3.0,3.0,0.0,0.0,0.0,3.0",0.17460423726881583,247.61872881935525,0.707106781187,0.728345137741871,22894,焼肉乃 富士吉,https://tabelog.com/tokyo/A1311/A131101/13003645/,焼肉、韓国料理、冷麺,焼肉・ホルモン・鍋,35.70969333,139.7752972,東京都台東区東上野2-15-7
"0,1,0,1,0,0,0,0,1","0.0,3.0,0.0,3.0,3.0,0.0,0.0,0.0,3.0",0.1722674250990258,248.31977247029226,0.707106781187,0.7277884759669176,24215,長崎水産,https://tabelog.com/tokyo/A1311/A131101/13141815/,居酒屋、魚介料理・海鮮料理、寿司,高級和食,35.7081189,139.7721687,東京都台東区上野4-1-31F
"0,1,0,1,0,0,0,0,1","0.0,3.0,0.0,3.0,3.0,0.0,0.0,0.0,3.0",0.1720873752146766,248.37378743559702,0.707106781187,0.7277458792107839,22291,Tree House 肉バル ジャックトマメノキ 上野店,https://tabelog.com/tokyo/A1311/A131101/13201447/,バル・バール、居酒屋、イタリアン,洋食・西洋料理,35.70811556,139.7721669,東京都台東区上野4-1-3仙家ビル1Ｆ
"0,1,0,1,0,0,0,0,1","0.0,3.0,0.0,3.0,0.0,0.0,0.0,3.0,0.0",0.17156576077064642,248.53027176880607,0.707106781187,0.7276227114850187,24532,琴瑟館,https://tabelog.com/tokyo/A1311/A131101/13081736/,お好み焼き、もんじゃ焼き,Ｂ級和食,35.70967944,139.7754286,東京都台東区東上野2-15-8
"0,1,0,1,0,0,0,0,1","0.0,3.0,0.0,3.0,3.0,0.0,0.0,0.0,3.0",0.16729773336943746,249.81067998916876,0.707106781187,0.726628193501017,66646,牛角 上野広小路店,https://tabelog.com/tokyo/A1311/A131101/13109227/,焼肉、韓国料理、ホルモン,焼肉・ホルモン・鍋,35.70790550907782,139.77209010798197,東京都文京区湯島3-39-11ライワビル6F
"0,1,0,1,0,0,0,0,1","0.0,3.0,0.0,3.0,3.0,0.0,0.0,0.0,3.0",0.16718864970069708,249.84340508979088,0.707106781187,0.7266030860027657,66068,無国籍バル KAIKYO 上野広小路店,https://tabelog.com/tokyo/A1311/A131101/13169889/,バル・バール、ピザ、居酒屋,バー・お酒,35.70790467582394,139.77208955251044,東京都文京区湯島3-39-11ライワビル1F
"0,1,0,1,0,0,0,0,1","0.0,3.0,0.0,3.0,3.0,0.0,0.0,0.0,3.0",0.15782078170903077,252.65376548729077,0.707106781187,0.7245049338267129,24246,Smoke&Cheese 上野HAZE,https://tabelog.com/tokyo/A1311/A131101/13182936/,ダイニングバー、居酒屋、イタリアン,洋食・西洋料理,35.70812694,139.7721217,東京都台東区上野4-1-3仙家ビルB2F
"0,1,0,1,0,0,0,0,1","0.0,3.0,0.0,3.0,3.0,0.0,0.0,0.0,3.0",0.15528743631832725,253.41376910450182,0.707106781187,0.7239573108121214,22619,ザ・ウォーリアーケルト,https://tabelog.com/tokyo/A1311/A131101/13016789/,ビアバー、バー・お酒（その他）、ダイニングバー,バー・お酒,35.70941167,139.7732764,東京都台東区上野6-9-22伊藤ビル　３Ｆ
"0,1,0,1,0,0,0,0,1","0.0,3.0,0.0,3.0,0.0,3.0,0.0,0.0,3.0",0.15033374260560162,254.89987721831952,0.707106781187,0.7229109448374726,23028,山海楼 御徒町店,https://tabelog.com/tokyo/A1311/A131101/13156481/,中華料理、居酒屋、上海料理,アジア・エスニック、中華料理,35.70701028,139.7775575,東京都台東区台東4-28-2クラシコ新御徒町1F
"0,1,0,1,0,0,0,0,1","0.0,3.0,0.0,3.0,3.0,0.0,0.0,0.0,3.0",0.1345084476465223,259.6474657060433,0.707106781187,0.719786442278734,22849,ジンギスカン霧島 御徒町店,https://tabelog.com/tokyo/A1311/A131101/13150036/,焼肉、ジンギスカン、居酒屋・ダイニングバー（その他）,焼肉・ホルモン・鍋,35.70710972,139.7719756,東京都台東区上野3-27-3ハトヤビル3号館5F
"0,1,0,1,0,0,0,0,1","0.0,3.0,0.0,3.0,3.0,0.0,0.0,0.0,3.0",0.12077941675996272,263.7661749720112,0.707106781187,0.7173476615371914,65186,吟,https://tabelog.com/tokyo/A1311/A131101/13033235/,割烹・小料理、ダイニングバー,高級和食,35.70825908156008,139.77204370666746,東京都文京区湯島3-41-10コスモビル２Ｆ
"0,1,0,1,0,0,0,0,1","0.0,3.0,0.0,3.0,3.0,0.0,0.0,0.0,3.0",0.11887357596482274,264.3379272105532,0.707106781187,0.7170292372439666,23924,王さん私家菜,https://tabelog.com/tokyo/A1311/A131101/13192813/,四川料理、中国鍋・火鍋、居酒屋,アジア・エスニック、中華料理,35.70846222,139.7721339,東京都台東区上野4-2-82F
"0,1,0,1,0,0,0,0,1","0.0,3.0,0.0,3.0,3.0,0.0,0.0,0.0,3.0",0.11424038823796688,265.72788352860994,0.707106781187,0.7162756915495329,22036,食いしんぼう,https://tabelog.com/tokyo/A1311/A131101/13039886/,焼肉、ホルモン,焼肉・ホルモン・鍋,35.70985722,139.7753103,東京都台東区東上野2-19-1
"0,1,0,1,0,0,0,0,1","0.0,3.0,0.0,3.0,3.0,0.0,0.0,0.0,3.0",0.10885338599483475,267.3439842015496,0.707106781187,0.7154362722441047,23020,磯べゑ,https://tabelog.com/tokyo/A1311/A131101/13035043/,居酒屋、魚介料理・海鮮料理、日本酒バー,高級和食,35.70979167,139.7739,東京都台東区上野6-7-9中川ビル　１Ｆ
"0,1,0,1,0,0,0,0,1","0.0,3.0,0.0,3.0,3.0,0.0,0.0,0.0,3.0",0.10169741612734033,269.4907751617979,0.707106781187,0.7143825056977372,21959,甘太郎 上野アメ横店,https://tabelog.com/tokyo/A1311/A131101/13051874/,居酒屋、焼肉、和食（その他）,Ｂ級和食,35.70846833,139.772075,東京都台東区上野4-2-6西田ビル　２Ｆ
"0,1,0,1,0,0,0,0,1","0.0,3.0,0.0,3.0,3.0,0.0,0.0,0.0,3.0",0.09328558481611936,272.0143245551642,0.707106781187,0.7132336225490814,23724,地鶏城　梵厨,https://tabelog.com/tokyo/A1311/A131101/13101679/,居酒屋、焼鳥、鳥料理,Ｂ級和食,35.70670469,139.7776491,東京都台東区台東4-20-11谷古宇ビル１階
"0,1,0,1,0,0,0,0,1","0.0,3.0,0.0,3.0,3.0,0.0,0.0,0.0,3.0",0.09198601952957498,272.4041941411275,0.707106781187,0.7130648131754191,24113,PizzaKingバンバール,https://tabelog.com/tokyo/A1311/A131101/13155069/,ピザ、パスタ、イタリアン,洋食・西洋料理,35.70667417,139.7776406,東京都台東区台東4-20-12本橋ビル1F
"0,1,0,1,0,0,0,0,1","0.0,3.0,0.0,3.0,3.0,0.0,0.0,0.0,3.0",0.08930322616891526,273.2090321493254,0.707106781187,0.712723695554018,65855,絵馬亭,https://tabelog.com/tokyo/A1311/A131101/13016778/,居酒屋、割烹・小料理、水炊き,高級和食,35.707391947634164,139.77178876776452,東京都文京区湯島3-39-3ユシマ栄ビル　２Ｆ
"0,1,0,1,0,0,0,0,1","0.0,3.0,0.0,3.0,3.0,0.0,0.0,0.0,3.0",0.08095436699369239,275.7136899018923,0.707106781187,0.711725796592585,22994,PINCHO,https://tabelog.com/tokyo/A1311/A131101/13174108/,スペイン料理、バル・バール、ダイニングバー,洋食・西洋料理,35.70758835,139.7717603,東京都台東区上野3-28-6
"0,1,0,1,0,0,0,0,1","0.0,3.0,0.0,3.0,0.0,0.0,0.0,3.0,0.0",0.08070200423399873,275.7893987298004,0.707106781187,0.7116971360679938,23954,秋吉 上野店,https://tabelog.com/tokyo/A1311/A131101/13036976/,焼鳥、串揚げ・串かつ、居酒屋,居酒屋,35.70971556,139.7734283,東京都台東区上野6-8-8POKKE2F
"0,1,0,1,0,0,0,0,1","0.0,3.0,0.0,3.0,3.0,0.0,0.0,0.0,3.0",0.0764584045202984,277.0624786439105,0.707106781187,0.711228435611084,24091,魚作 上野店,https://tabelog.com/tokyo/A1311/A131101/13150026/,居酒屋、魚介料理・海鮮料理、鍋（その他）,高級和食,35.70847667,139.7719883,東京都台東区上野4-2-6上野西田ビル5F
"0,1,0,1,0,0,0,0,1","0.0,3.0,0.0,3.0,3.0,0.0,0.0,0.0,3.0",0.06812287680288326,279.563136959135,0.707106781187,0.7103806911395473,24519,上野アメ横のひもの屋 上野アメ横店,https://tabelog.com/tokyo/A1311/A131101/13043938/,居酒屋、日本酒バー、魚介料理・海鮮料理,高級和食,35.70892722,139.7722608,東京都台東区上野4-6-9大徳ビルB1F
"0,1,0,1,0,0,0,0,1","0.0,3.0,0.0,3.0,3.0,0.0,0.0,0.0,3.0",0.06479230131464571,280.5623096056063,0.707106781187,0.7100690405232776,23942,テング酒場 上野店,https://tabelog.com/tokyo/A1311/A131101/13151158/,居酒屋、焼鳥、串焼き,居酒屋,35.70891608,139.7722381,東京都台東区上野4-6-9PASSAGEビル3F
"0,1,0,1,0,0,0,0,1","0.0,3.0,0.0,3.0,3.0,0.0,0.0,0.0,3.0",0.06228606141992202,281.3141815740234,0.707106781187,0.70984473897269,22486,こがね屋  御徒町,https://tabelog.com/tokyo/A1311/A131101/13187730/,串焼き、居酒屋、ろばた焼き,Ｂ級和食,35.7062578,139.7720937,東京都台東区上野3-21-101F
"0,1,0,1,0,0,0,0,1","0.0,3.0,0.0,3.0,3.0,0.0,0.0,0.0,3.0",0.05525157309259707,283.4245280722209,0.707106781187,0.7092621069317088,66067,トントンびょうし,https://tabelog.com/tokyo/A1311/A131101/13119733/,焼きとん,Ｂ級和食,35.7079810502559,139.7717295788898,東京都文京区湯島3-39-9白石ビル1F
"0,1,0,1,0,0,0,0,1","0.0,3.0,0.0,3.0,3.0,0.0,0.0,0.0,3.0",0.05034843608790216,284.89546917362935,0.707106781187,0.7088970059299853,23742,ワインの酒場。ディプント 上野御徒町店,https://tabelog.com/tokyo/A1311/A131101/13205295/,バル・バール、居酒屋、イタリアン,洋食・西洋料理,35.70648861,139.7719103,東京都台東区上野3-21-7福寿ビルB1F
"0,1,0,1,0,0,0,0,1","0.0,3.0,0.0,3.0,3.0,0.0,0.0,0.0,3.0",0.0462229042739538,286.13312871781386,0.707106781187,0.7086159445563719,21966,ホルモン専門店 焼肉 ホルモン番長,https://tabelog.com/tokyo/A1311/A131101/13113367/,焼肉、ホルモン、居酒屋,焼肉・ホルモン・鍋,35.70837639,139.7718322,東京都台東区上野4-2-5鈴木ビル1～4F
"0,1,0,1,0,0,0,0,1","0.0,3.0,0.0,3.0,3.0,0.0,0.0,0.0,3.0",0.04114278298636634,287.6571651040901,0.707106781187,0.7083027097165896,22971,Trattoria Candito,https://tabelog.com/tokyo/A1311/A131101/13044473/,イタリアン、居酒屋、パスタ,洋食・西洋料理,35.70755944,139.7779828,東京都台東区東上野1-6-4アツキビル1F
"0,1,0,1,0,0,0,0,1","0.0,3.0,0.0,3.0,3.0,0.0,0.0,0.0,3.0",0.04028857893852849,287.91342631844145,0.707106781187,0.7082536054217345,65220,SHO,https://tabelog.com/tokyo/A1311/A131101/13118155/,ダイニングバー、バー,バー・お酒,35.707969939406574,139.7716765282522,東京都文京区湯島3-39-9B1Ｆ
"0,1,0,1,0,0,0,0,1","0.0,3.0,0.0,3.0,3.0,0.0,0.0,0.0,3.0",0.039281968229879,288.2154095310363,0.707106781187,0.7081970580481208,22910,磯丸水産 上野御徒町店,https://tabelog.com/tokyo/A1311/A131101/13152249/,魚介料理・海鮮料理、居酒屋、和食（その他）,Ｂ級和食,35.70873557,139.7720048,東京都台東区上野4-6-6勉強堂ビル1F～2F
"0,1,0,1,0,0,0,0,1","0.0,3.0,0.0,3.0,3.0,0.0,0.0,0.0,3.0",0.0390263524658684,288.2920942602395,0.707106781187,0.7081829256532455,21798,COCKTAIL WORKS 上野,https://tabelog.com/tokyo/A1311/A131101/13184760/,イタリアン、バー、バル・バール,洋食・西洋料理,35.71001694,139.7740236,東京都台東区上野6-7-15隆陽堂ビル1F
"0,1,0,1,0,0,0,0,1","0.0,3.0,0.0,3.0,0.0,0.0,0.0,3.0,0.0",0.0192936283236124,294.2119115029163,0.707106781187,0.7073699485374607,22108,空,https://tabelog.com/tokyo/A1311/A131101/13200995/,タイ料理、バー,バー・お酒,35.70894389,139.7720797,東京都台東区上野6-10-2
"0,1,0,1,0,0,0,0,1","0.0,3.0,0.0,3.0,0.0,0.0,0.0,3.0,0.0",0.015430313206901095,295.3709060379297,0.707106781187,0.7072751194306662,22388,ほるもん道場ポパイ,https://tabelog.com/tokyo/A1311/A131101/13048317/,ホルモン,焼肉・ホルモン・鍋,35.71001464,139.7758692,東京都台東区東上野2-21-5
"0,1,0,1,0,0,0,0,1","0.0,3.0,0.0,3.0,3.0,0.0,0.0,3.0,0.0",0.3237645716614524,202.87062850156428,0.57735026919,0.661934159260917,23022,全国銘酒 たる松 本店,https://tabelog.com/tokyo/A1311/A131101/13032122/,日本酒バー、居酒屋、定食・食堂,バー・お酒,35.70820639,139.7727383,東京都台東区上野6-4-13
"0,1,0,1,0,0,0,0,1","0.0,3.0,0.0,3.0,3.0,0.0,0.0,3.0,0.0",0.28238011099398963,215.28596670180312,0.57735026919,0.6427066674761599,23849,古都,https://tabelog.com/tokyo/A1311/A131101/13076689/,割烹・小料理、郷土料理（その他）,高級和食,35.70825222,139.7769969,東京都台東区東上野1-22-3片岡ビル2F
"0,1,0,1,0,0,0,0,1","0.0,3.0,0.0,3.0,3.0,0.0,0.0,3.0,0.0",0.25467121777676466,223.5986346669706,0.57735026919,0.6310235831545709,21765,やきとり仲ちゃん,https://tabelog.com/tokyo/A1311/A131101/13043811/,焼鳥,Ｂ級和食,35.70917194,139.7734292,東京都台東区上野6-8-4黒川ビル1Ｆ
"0,1,0,1,0,0,0,0,1","0.0,2.0,0.0,3.0,3.0,0.0,0.0,3.0,0.0",0.23823126323609234,228.5306210291723,0.57735026919,0.6245698264536941,66430,肉の居酒屋 ととろ,https://tabelog.com/tokyo/A1311/A131101/13203176/,居酒屋、焼酎バー、創作料理,居酒屋,35.70783774246371,139.77231425915286,東京都文京区湯島3-40-8栗田ビル2F
"0,1,0,1,0,0,0,0,1","0.0,3.0,0.0,3.0,3.0,3.0,0.0,0.0,3.0",0.20156790750066458,239.52962774980062,0.57735026919,0.6115251055087843,22696,レストラン満奈多,https://tabelog.com/tokyo/A1311/A131101/13010516/,韓国料理,アジア・エスニック、中華料理,35.70960333,139.7753906,東京都台東区東上野2-15-8
"0,1,0,1,0,0,0,0,1","0.0,3.0,0.0,3.0,3.0,0.0,0.0,3.0,0.0",0.17597618161064987,247.20714551680504,0.57735026919,0.6035734833701674,23181,酒楽　なりぞう,https://tabelog.com/tokyo/A1311/A131101/13122167/,居酒屋,居酒屋,35.70527083,139.7747294,東京都台東区台東3-40-5
"0,1,0,1,0,0,0,0,1","0.0,3.0,0.0,3.0,3.0,0.0,0.0,3.0,0.0",0.11339458391197355,265.98162482640794,0.57735026919,0.5883805443706505,23576,岩崎塾 上野店,https://tabelog.com/tokyo/A1311/A131101/13175751/,焼肉、ホルモン,焼肉・ホルモン・鍋,35.70988806,139.7750322,東京都台東区東上野2-18-11F・2F
"0,1,0,1,0,0,0,0,1","0.0,2.0,0.0,3.0,0.0,0.0,3.0,3.0,0.0",0.1009276331744625,269.72171004766125,0.57735026919,0.5861055540357318,22808,和食居酒屋 幸蔵,https://tabelog.com/tokyo/A1311/A131101/13193099/,居酒屋,居酒屋,35.70821611,139.7719575,東京都台東区上野4-2-112F
"0,1,0,1,0,0,0,0,1","0.0,2.0,0.0,3.0,0.0,0.0,3.0,3.0,0.0",0.08917980558474009,273.246058324578,0.57735026919,0.5841972021992791,65302,酔っ手羽 上野広小路店,https://tabelog.com/tokyo/A1311/A131101/13202990/,焼鳥、鳥料理,Ｂ級和食,35.70790772647806,139.77182762967854,東京都文京区湯島3-39-10第ニ大和ビルB1F
"0,1,0,1,0,0,0,0,1","0.0,3.0,0.0,3.0,3.0,0.0,0.0,3.0,0.0",0.05430522389753131,283.7084328307406,0.57735026919,0.5798986037885367,24943,食彩や 魚太郎,https://tabelog.com/tokyo/A1311/A131101/13050411/,居酒屋、日本酒バー、魚介料理・海鮮料理,高級和食,35.70559922,139.7727053,東京都台東区上野5-18-7アマノビルB1
"0,1,0,1,0.5,0,0,1,0","0.0,2.0,0.0,3.0,3.0,0.0,0.0,0.0,3.0",0.932839495679151,20.14815129625467,0.707106781187,1.1705509492110684,24849,御徒町 魚富,https://tabelog.com/tokyo/A1311/A131101/13205979/,居酒屋、魚介料理・海鮮料理、天ぷら,高級和食,35.70745083,139.77502,東京都台東区台東4-31-6松田ビル1F　
"0,1,0,1,0.5,0,0,1,0","0.0,3.0,0.0,3.0,3.0,0.0,0.0,0.0,3.0",0.8838483702831375,34.845488915058745,0.707106781187,1.1318957291429976,22608,クラルテ,https://tabelog.com/tokyo/A1311/A131101/13154926/,バー,バー・お酒,35.70781131,139.7748315,東京都台東区東上野1-14-14一光ビル1F
"0,1,0,1,0.5,0,0,1,0","0.0,3.0,0.0,3.0,3.0,0.0,0.0,3.0,0.0",0.5828018264827848,125.15945205516456,0.962250448649,1.1249817309083716,25149,酒楽　こてらんこ,https://tabelog.com/tokyo/A1311/A131101/13126463/,居酒屋、郷土料理（その他）,高級和食,35.70833167,139.7757367,東京都台東区東上野1-19-2第二鈴木ビル1F
"0,1,0,1,0.5,0,0,1,0","0.0,3.0,0.0,3.0,3.0,0.0,0.0,0.0,3.0",0.8569959727966253,42.90120816101236,0.707106781187,1.1110544979386179,24692,MEAT×WINE BISTRO DOMANNAKA,https://tabelog.com/tokyo/A1311/A131101/13210659/,ビストロ、ダイニングバー、ステーキ,洋食・西洋料理,35.7077525,139.7751619,東京都台東区東上野1-13-2成田第2ビル1F
"0,1,0,1,0.5,0,0,1,0","0.0,3.0,0.0,3.0,0.0,0.0,0.0,3.0,0.0",0.4401593648945668,167.95219053162995,0.942809041582,1.040494668603966,23314,阿吽,https://tabelog.com/tokyo/A1311/A131101/13074999/,居酒屋,居酒屋,35.70715556,139.7729972,東京都台東区上野5-26-5
"0,1,0,1,0.5,0,0,1,0","0.0,3.0,0.0,3.0,0.0,0.0,0.0,3.0,0.0",0.39653115052895277,181.04065484131416,0.942809041582,1.0228029342100577,24142,和光,https://tabelog.com/tokyo/A1311/A131101/13025266/,焼肉,焼肉・ホルモン・鍋,35.70844722,139.7731778,東京都台東区上野6-3-6
"0,1,0,1,0.5,0,0,1,0","0.0,3.0,0.0,3.0,3.0,0.0,0.0,3.0,0.0",0.3237645716614524,202.87062850156428,0.962250448649,1.0152583039744367,23022,全国銘酒 たる松 本店,https://tabelog.com/tokyo/A1311/A131101/13032122/,日本酒バー、居酒屋、定食・食堂,バー・お酒,35.70820639,139.7727383,東京都台東区上野6-4-13
"0,1,0,1,0.5,0,0,1,0","0.0,3.0,0.0,3.0,3.0,0.0,0.0,3.0,0.0",0.28238011099398963,215.28596670180312,0.962250448649,1.0028282270712685,23849,古都,https://tabelog.com/tokyo/A1311/A131101/13076689/,割烹・小料理、郷土料理（その他）,高級和食,35.70825222,139.7769969,東京都台東区東上野1-22-3片岡ビル2F
"0,1,0,1,0.5,0,0,1,0","0.0,3.0,0.0,3.0,0.0,0.0,0.0,3.0,0.0",0.32372173867659504,202.8834783970215,0.942809041582,0.9968373252345071,24377,くら鳥,https://tabelog.com/tokyo/A1311/A131101/13003614/,焼鳥,Ｂ級和食,35.70581583,139.7756839,東京都台東区台東4-6-1
"0,1,0,1,0.5,0,0,1,0","0.0,3.0,0.0,3.0,0.0,0.0,0.0,3.0,0.0",0.32252141240452525,203.24357627864242,0.942809041582,0.9964481674167999,22734,郷土料理たるや,https://tabelog.com/tokyo/A1311/A131101/13078489/,郷土料理（その他）,高級和食,35.70878556,139.7764025,東京都台東区東上野1-20-8第3津多屋ビルB1F
"0,1,0,1,0.5,0,0,1,0","0.0,3.0,0.0,3.0,3.0,0.0,0.0,3.0,0.0",0.25467121777676466,223.5986346669706,0.962250448649,0.9953810100106523,21765,やきとり仲ちゃん,https://tabelog.com/tokyo/A1311/A131101/13043811/,焼鳥,Ｂ級和食,35.70917194,139.7734292,東京都台東区上野6-8-4黒川ビル1Ｆ
"0,1,0,1,0.5,0,0,1,0","0.0,3.0,0.0,3.0,0.0,0.0,0.0,3.0,0.0",0.30903857806938806,207.28842657918358,0.942809041582,0.9921661814555252,24689,やっちゃ場,https://tabelog.com/tokyo/A1311/A131101/13083650/,居酒屋,居酒屋,35.70584889,139.7758814,東京都台東区台東4-5-7鈴木ビル1F
"0,1,0,1,0.5,0,0,1,0","0.0,2.0,0.0,3.0,3.0,0.0,0.0,3.0,0.0",0.23823126323609234,228.5306210291723,0.962250448649,0.9913022045314891,66430,肉の居酒屋 ととろ,https://tabelog.com/tokyo/A1311/A131101/13203176/,居酒屋、焼酎バー、創作料理,居酒屋,35.70783774246371,139.77231425915286,東京都文京区湯島3-40-8栗田ビル2F
"0,1,0,1,0.5,0,0,1,0","0.0,3.0,0.0,3.0,0.0,0.0,0.0,3.0,0.0",0.29629640913191113,211.11107726042667,0.942809041582,0.9882714459870596,23696,ノランチェンバン,https://tabelog.com/tokyo/A1311/A131101/13139863/,焼肉,焼肉・ホルモン・鍋,35.70937639,139.7751767,東京都台東区東上野2-15-3
"0,1,0,1,0.5,0,0,1,0","0.0,3.0,0.0,3.0,3.0,0.0,0.0,3.0,0.0",0.17597618161064987,247.20714551680504,0.962250448649,0.9782093551076836,23181,酒楽　なりぞう,https://tabelog.com/tokyo/A1311/A131101/13122167/,居酒屋,居酒屋,35.70527083,139.7747294,東京都台東区台東3-40-5
"0,1,0,1,0.5,0,0,1,0","0.0,3.0,0.0,3.0,0.0,0.0,0.0,3.0,0.0",0.2583344809600135,222.49965571199596,0.942809041582,0.9775610430769878,24444,鮮魚酒場 魚辰,https://tabelog.com/tokyo/A1311/A131101/13130127/,魚介料理・海鮮料理、居酒屋,高級和食,35.70914949,139.7734103,東京都台東区上野6-8-4五味ビルB1F
"0,1,0,1,0.5,0,0,1,0","0.0,3.0,0.0,3.0,3.0,0.0,0.0,3.0,0.0",0.11339458391197355,265.98162482640794,0.962250448649,0.9689087973522046,23576,岩崎塾 上野店,https://tabelog.com/tokyo/A1311/A131101/13175751/,焼肉、ホルモン,焼肉・ホルモン・鍋,35.70988806,139.7750322,東京都台東区東上野2-18-11F・2F
"0,1,0,1,0.5,0,0,1,0","0.0,3.0,0.0,3.0,3.0,0.0,0.0,0.0,3.0",0.661148621042667,101.6554136871999,0.707106781187,0.9680482937883937,24949,バクロウ,https://tabelog.com/tokyo/A1311/A131101/13138118/,バル・バール、馬肉料理、ワインバー,バー・お酒,35.70841056,139.774905,東京都台東区東上野1-15-1
"0,1,0,1,0.5,0,0,1,0","0.0,3.0,0.0,3.0,0.0,0.0,0.0,3.0,0.0",0.217232869430451,234.8301391708647,0.942809041582,0.9675117614013156,66279,串焼きだるま,https://tabelog.com/tokyo/A1311/A131101/13019941/,焼鳥、鳥料理、もつ焼き,Ｂ級和食,35.70772136445568,139.77222454973892,東京都文京区湯島3-40-5
"0,1,0,1,0.5,0,0,1,0","0.0,3.0,0.0,3.0,3.0,0.0,0.0,3.0,0.0",0.05430522389753131,283.7084328307406,0.962250448649,0.9637816055873275,24943,食彩や 魚太郎,https://tabelog.com/tokyo/A1311/A131101/13050411/,居酒屋、日本酒バー、魚介料理・海鮮料理,高級和食,35.70559922,139.7727053,東京都台東区上野5-18-7アマノビルB1
"0,1,0,1,0.5,0,0,1,0","0.0,3.0,0.0,3.0,0.0,0.0,0.0,3.0,0.0",0.1949862056958664,241.50413829124008,0.942809041582,0.9627608785677572,21779,あいちゃん,https://tabelog.com/tokyo/A1311/A131101/13078894/,居酒屋,居酒屋,35.70928611,139.7732833,東京都台東区上野6-9-23
"0,1,0,1,0.5,0,0,1,0","0.0,3.0,0.0,3.0,0.0,0.0,0.0,3.0,0.0",0.19132160121257963,242.6035196362261,0.942809041582,0.9620253863487357,22404,エベレストアジアンダイニング,https://tabelog.com/tokyo/A1311/A131101/13162545/,インド料理、ネパール料理、アジア・エスニック料理（その他）,アジア・エスニック、中華料理,35.70966278,139.7751822,東京都台東区東上野2-15-6
"0,1,0,1,0.5,0,0,1,0","0.0,3.0,0.0,3.0,0.0,0.0,0.0,3.0,0.0",0.17156576077064642,248.53027176880607,0.942809041582,0.9582920740346856,24532,琴瑟館,https://tabelog.com/tokyo/A1311/A131101/13081736/,お好み焼き、もんじゃ焼き,Ｂ級和食,35.70967944,139.7754286,東京都台東区東上野2-15-8
"0,1,0,1,0.5,0,0,1,0","0.0,3.0,0.0,3.0,0.0,0.0,0.0,0.0,3.0",0.6784464713398726,96.46605859803822,0.666666666667,0.9511750937224801,24825,ラテン,https://tabelog.com/tokyo/A1311/A131101/13016720/,バー,バー・お酒,35.70669583,139.7743939,東京都台東区台東4-11-2紫光ビル　Ｂ１Ｆ
"0,1,0,1,0.5,0,0,1,0","0.0,3.0,0.0,3.0,0.0,0.0,0.0,3.0,0.0",0.08070200423399873,275.7893987298004,0.942809041582,0.9462566789070886,23954,秋吉 上野店,https://tabelog.com/tokyo/A1311/A131101/13036976/,焼鳥、串揚げ・串かつ、居酒屋,居酒屋,35.70971556,139.7734283,東京都台東区上野6-8-8POKKE2F
"0,1,0,1,0.5,0,0,1,0","0.0,3.0,0.0,3.0,0.0,0.0,0.0,3.0,0.0",0.0192936283236124,294.2119115029163,0.942809041582,0.9430064331608659,22108,空,https://tabelog.com/tokyo/A1311/A131101/13200995/,タイ料理、バー,バー・お酒,35.70894389,139.7720797,東京都台東区上野6-10-2
"0,1,0,1,0.5,0,0,1,0","0.0,3.0,0.0,3.0,0.0,0.0,0.0,3.0,0.0",0.015430313206901095,295.3709060379297,0.942809041582,0.9429353018391834,22388,ほるもん道場ポパイ,https://tabelog.com/tokyo/A1311/A131101/13048317/,ホルモン,焼肉・ホルモン・鍋,35.71001464,139.7758692,東京都台東区東上野2-21-5
"0,1,0,1,0.5,0,0,1,0","0.0,3.0,0.0,3.0,3.0,0.0,0.0,0.0,3.0",0.5733492250312023,127.99523249063928,0.707106781187,0.9103457221538861,22394,多ら福,https://tabelog.com/tokyo/A1311/A131101/13112169/,居酒屋,居酒屋,35.70829222,139.7737792,東京都台東区上野6-1-6上野シックスロードビル　B1F
"0,1,0,1,0.5,0,0,1,0","0.0,3.0,0.0,3.0,3.0,0.0,0.0,0.0,3.0",0.5732066069102912,128.03801792691263,0.707106781187,0.910255905888893,24981,ストーンズ,https://tabelog.com/tokyo/A1311/A131101/13104298/,バー、ワインバー、ダイニングバー,バー・お酒,35.70829278,139.7737792,東京都台東区上野6-1-6上野シックスロードビルB1F
"0,1,0,1,0.5,0,0,1,0","0.0,3.0,0.0,3.0,3.0,0.0,0.0,0.0,3.0",0.5557580148857258,133.27259553428226,0.707106781187,0.8993703192288051,23574,しゅん 御徒町店,https://tabelog.com/tokyo/A1311/A131101/13025086/,寿司,高級和食,35.70742139,139.7733353,東京都台東区上野5-25-8グランディールビル御徒町　１Ｆ
"0,1,0,1,0.5,0,0,1,0","0.0,3.0,0.0,3.0,3.0,0.0,0.0,0.0,3.0",0.5318003027888683,140.45990916333952,0.707106781187,0.8847663884022335,22511,Hitch×kakeru ヒチカケ,https://tabelog.com/tokyo/A1311/A131101/13194692/,ビアバー、アジア・エスニック料理（その他）、ダイニングバー,バー・お酒,35.70786167,139.7733183,東京都台東区上野6-2-2ライフビル2Fこのお店は「千代田区神田松永町17-3」から移転しています。※移転前の情報は最新のものとは異なります。移転前の店舗情報を見る
"0,1,0,1,0.5,0,0,1,0","0.0,3.0,0.0,3.0,0.0,0.0,0.0,0.0,3.0",0.5668003753471204,129.9598873958639,0.666666666667,0.8750469187066948,24256,鳥焼肉 巻渕,https://tabelog.com/tokyo/A1311/A131101/13212161/,焼肉、居酒屋、鳥料理,焼肉・ホルモン・鍋,35.70789611,139.7734544,東京都台東区上野6-2-1JREビル2F
"0,1,0,1,0.5,0,0,1,0","0.0,3.0,0.0,3.0,3.0,0.0,0.0,0.0,3.0",0.5058966706478615,148.23099880564155,0.707106781187,0.8694431789211937,24513,新割烹 嬉八,https://tabelog.com/tokyo/A1311/A131101/13016729/,割烹・小料理、魚介料理・海鮮料理,高級和食,35.70661444,139.7760336,東京都台東区台東4-18-8女井ビル　Ｂ１Ｆ
"0,1,0,1,0.5,0,0,1,0","0.0,3.0,0.0,3.0,3.0,0.0,0.0,0.0,3.0",0.5049221208275154,148.52336375174536,0.707106781187,0.8688764861019984,24428,魚旬 かねしょう,https://tabelog.com/tokyo/A1311/A131101/13205075/,魚介料理・海鮮料理、居酒屋・ダイニングバー（その他）、寿司,高級和食,35.7068475,139.7733706,東京都台東区上野5-25-17東成ビル1F
"0,1,0,1,0.5,0,0,1,0","0.0,3.0,0.0,3.0,3.0,0.0,0.0,0.0,3.0",0.4769276295974312,156.92171112077065,0.707106781187,0.8529126355456487,24672,博多・下関　げんき家,https://tabelog.com/tokyo/A1311/A131101/13190501/,居酒屋、日本酒バー、創作料理,バー・お酒,35.70674278,139.7733389,東京都台東区上野5-25-1ニュー遠藤ビル2F
"0,1,0,1,0.5,0,0,1,0","0.0,3.0,0.0,3.0,3.0,0.0,0.0,0.0,3.0",0.4763129143389859,157.10612569830423,0.707106781187,0.8525690543094432,23826,丸鶏もと家 上野店,https://tabelog.com/tokyo/A1311/A131101/13181225/,韓国鍋、韓国料理、居酒屋,アジア・エスニック、中華料理,35.70809028,139.7763819,東京都台東区東上野1-11-10上野aビル1F
"0,1,0,1,0.5,0,0,1,0","0.0,3.0,0.0,3.0,0.0,0.0,0.0,0.0,3.0",0.5214695757173048,143.55912728480857,0.666666666667,0.8463893683425083,23439,魚禅,https://tabelog.com/tokyo/A1311/A131101/13203554/,魚介料理・海鮮料理、居酒屋、寿司,高級和食,35.707415,139.7732219,東京都台東区上野5-25-8
"0,1,0,1,0.5,0,0,1,0","0.0,3.0,0.0,3.0,3.0,0.0,0.0,0.0,3.0",0.452360076518369,164.2919770444893,0.707106781187,0.8394222053458585,22435,あんじゅ,https://tabelog.com/tokyo/A1311/A131101/13100457/,居酒屋、韓国料理、もつ鍋,アジア・エスニック、中華料理,35.70754889,139.7729906,東京都台東区上野5-26-8Ｂ１Ｆ
"0,1,0,1,0.5,0,0,1,0","0.0,3.0,0.0,3.0,3.0,0.0,0.0,0.0,3.0",0.4489096512686288,165.32710461941136,0.707106781187,0.8375678330751021,23642,串と酒 吉助,https://tabelog.com/tokyo/A1311/A131101/13188181/,居酒屋、焼鳥、魚介料理・海鮮料理,高級和食,35.70755444,139.7729794,東京都台東区上野5-26-8ロイヤルビルB1F
"0,1,0,1,0.5,0,0,1,0","0.0,3.0,0.0,3.0,3.0,0.0,0.0,0.0,3.0",0.4372879432148437,168.81361703554688,0.707106781187,0.8313968638869577,23272,房家 上野六丁目店,https://tabelog.com/tokyo/A1311/A131101/13186440/,焼肉、居酒屋、ホルモン,焼肉・ホルモン・鍋,35.70882667,139.7738961,東京都台東区上野6-6-6小湊ビル1～2F
"0,1,0,1,0.5,0,0,1,0","0.0,3.0,0.0,3.0,3.0,0.0,0.0,0.0,3.0",0.4176478519842797,174.70564440471608,0.707106781187,0.8212367065999199,22064,TOKYO 焼肉 ごぉ,https://tabelog.com/tokyo/A1311/A131101/13201243/,焼肉、ラーメン、居酒屋,焼肉・ホルモン・鍋,35.70656,139.7732544,東京都台東区上野5-22-8御徒町電子ビル2F
"0,1,0,1,0.5,0,0,1,0","0.0,3.0,0.0,3.0,3.0,0.0,0.0,0.0,3.0",0.4084899714219337,177.45300857341988,0.707106781187,0.8166174482291524,23378,故郷味 上野店,https://tabelog.com/tokyo/A1311/A131101/13009787/,四川料理、上海料理、中華料理,アジア・エスニック、中華料理,35.70852111,139.7732978,東京都台東区上野6-2-7キングビル1F・2F・4F
"0,1,0,1,0.5,0,0,1,0","0.0,3.0,0.0,3.0,3.0,0.0,0.0,0.0,3.0",0.3988826695983019,180.33519912050943,0.707106781187,0.8118542874838244,22198,八仙宮,https://tabelog.com/tokyo/A1311/A131101/13052836/,中華料理、四川料理、居酒屋,アジア・エスニック、中華料理,35.70873139,139.7735072,東京都台東区上野6-5-1羽山ビル　Ｂ１Ｆ
"0,1,0,1,0.5,0,0,1,0","0.0,3.0,0.0,3.0,0.0,0.0,0.0,0.0,3.0",0.4345337732784054,169.63986801647837,0.666666666667,0.7957788917557521,24635,炭火ホルモン焼 夏冬 御徒町店,https://tabelog.com/tokyo/A1311/A131101/13211063/,ホルモン、居酒屋,焼肉・ホルモン・鍋,35.70724056,139.7729572,東京都台東区上野5-26-6桂ビルB1F
"0,1,0,1,0.5,0,0,1,0","0.0,3.0,0.0,3.0,3.0,0.0,0.0,0.0,3.0",0.3546386059592777,193.6084182122167,0.707106781187,0.7910553336124724,21907,酒と食事 昧舟,https://tabelog.com/tokyo/A1311/A131101/13035300/,とんかつ、割烹・小料理、魚介料理・海鮮料理,高級和食,35.70608417,139.7735511,東京都台東区上野5-23-14ＤＳＭ御徒町ビル　Ｂ１Ｆ
"0,1,0,1,0.5,0,0,1,0","0.0,3.0,0.0,3.0,3.0,0.0,0.0,0.0,3.0",0.3373805035665301,198.78584893004097,0.707106781187,0.7834702318447112,23010,亀七鮨,https://tabelog.com/tokyo/A1311/A131101/13109402/,寿司,高級和食,35.70586283,139.7757027,東京都台東区台東4-6-8
"0,1,0,1,0.5,0,0,1,0","0.0,3.0,0.0,3.0,0.0,0.0,0.0,0.0,3.0",0.4020403211846522,179.38790364460434,0.666666666667,0.7785119551443656,22944,大将 御徒町店,https://tabelog.com/tokyo/A1311/A131101/13126264/,焼肉、ホルモン、居酒屋,焼肉・ホルモン・鍋,35.70805598,139.7729445,東京都台東区上野6-4-19
"0,1,0,1,0.5,0,0,1,0","0.0,3.0,0.0,3.0,3.0,0.0,0.0,0.0,3.0",0.32522008554891824,202.43397433532454,0.707106781187,0.7783110586677063,24136,串カツ田中 上野6丁目店,https://tabelog.com/tokyo/A1311/A131101/13203020/,居酒屋、串揚げ・串かつ,Ｂ級和食,35.70912074,139.7737825,東京都台東区上野6-7-31F
"0,1,0,1,0.5,0,0,1,0","0.0,3.0,0.0,3.0,3.0,0.0,0.0,0.0,3.0",0.32341917886088956,202.97424634173314,0.707106781187,0.7775602647094643,24598,陽山道 上野本店,https://tabelog.com/tokyo/A1311/A131101/13016717/,焼肉、韓国料理、ホルモン,焼肉・ホルモン・鍋,35.70881917,139.7732536,東京都台東区上野6-5-3
"0,1,0,1,0.5,0,0,1,0","0.0,2.0,0.0,3.0,0.0,0.0,3.0,3.0,0.0",0.1009276331744625,269.72171004766125,0.76980035892,0.7763884206573354,22808,和食居酒屋 幸蔵,https://tabelog.com/tokyo/A1311/A131101/13193099/,居酒屋,居酒屋,35.70821611,139.7719575,東京都台東区上野4-2-112F
"0,1,0,1,0.5,0,0,1,0","0.0,2.0,0.0,3.0,0.0,0.0,3.0,3.0,0.0",0.08917980558474009,273.246058324578,0.76980035892,0.7749487920609495,65302,酔っ手羽 上野広小路店,https://tabelog.com/tokyo/A1311/A131101/13202990/,焼鳥、鳥料理,Ｂ級和食,35.70790772647806,139.77182762967854,東京都文京区湯島3-39-10第ニ大和ビルB1F
"0,1,0,1,0.5,0,0,1,0","0.0,3.0,0.0,3.0,0.0,0.0,0.0,0.0,3.0",0.3861409695980092,184.15770912059725,0.666666666667,0.7704215033645772,22383,すし屋 銀蔵 御徒町店,https://tabelog.com/tokyo/A1311/A131101/13025210/,寿司、魚介料理・海鮮料理、居酒屋,高級和食,35.70730861,139.7727833,東京都台東区上野5-27-17
"0,1,0,1,0.5,0,0,1,0","0.0,3.0,0.0,3.0,0.0,0.0,0.0,0.0,3.0",0.37969381156656,186.091856530032,0.666666666667,0.7672104241903825,23668,焼肉・ホルモン料理　とらじ亭 上野本店,https://tabelog.com/tokyo/A1311/A131101/13018447/,焼肉、ホルモン、韓国料理,焼肉・ホルモン・鍋,35.70858972,139.7732439,東京都台東区上野6-3-11尾中ビル1F～3F
"0,1,0,1,0.5,0,0,1,0","0.0,3.0,0.0,3.0,3.0,0.0,0.0,0.0,3.0",0.26672821413616477,219.98153575915057,0.707106781187,0.7557406567178108,23643,さかのうえ 上野店,https://tabelog.com/tokyo/A1311/A131101/13152111/,居酒屋、焼鳥、もつ鍋,居酒屋,35.70913333,139.7734306,東京都台東区上野6-8-4五味ビル3F
"0,1,0,1,0.5,0,0,1,0","0.0,3.0,0.0,3.0,0.0,3.0,0.0,0.0,3.0",0.5876803179663244,123.6959046101027,0.471404520791,0.7533859424937674,23727,山海亭,https://tabelog.com/tokyo/A1311/A131101/13032811/,居酒屋、魚介料理・海鮮料理、寿司,高級和食,35.70856389,139.7752056,東京都台東区東上野1-17-6
"0,1,0,1,0.5,0,0,1,0","0.0,3.0,0.0,3.0,0.0,0.0,0.0,0.0,3.0",0.34148596308231655,197.55421107530503,0.666666666667,0.7490374539545414,24295,宝ばこ,https://tabelog.com/tokyo/A1311/A131101/13125574/,韓国料理、焼肉、居酒屋,焼肉・ホルモン・鍋,35.70815167,139.7727744,東京都台東区上野6-4-19
"0,1,0,1,0.5,0,0,1,0","0.0,3.0,0.0,3.0,0.0,0.0,0.0,0.0,3.0",0.3307937092471753,200.7618872258474,0.666666666667,0.7442237046224403,22567,中国風味小吃,https://tabelog.com/tokyo/A1311/A131101/13105379/,中華料理、韓国料理,アジア・エスニック、中華料理,35.70731583,139.7725978,東京都台東区上野5-27-17
"0,1,0,1,0.5,0,0,1,0","0.0,3.0,0.0,3.0,3.0,0.0,0.0,0.0,3.0",0.2290582440498203,231.2825267850539,0.707106781187,0.7432816957030405,66230,すしまみれ 上野広小路店,https://tabelog.com/tokyo/A1311/A131101/13183236/,寿司、魚介料理・海鮮料理,高級和食,35.70818687315987,139.77239284766262,東京都文京区湯島3-41-1ルドーム1F、B1
"0,1,0,1,0.5,0,0,1,0","0.0,3.0,0.0,3.0,0.0,0.0,0.0,0.0,3.0",0.32718718620002135,201.8438441399936,0.666666666667,0.7426276989568406,24274,沖縄ダイニング　和海,https://tabelog.com/tokyo/A1311/A131101/13047439/,沖縄料理、居酒屋、ダイニングバー,バー・お酒,35.70879556,139.7763683,東京都台東区東上野1-20-8第3津多屋ビル1F
"0,1,0,1,0.5,0,0,1,0","0.0,3.0,0.0,3.0,0.0,0.0,0.0,0.0,3.0",0.326953036093794,201.9140891718618,0.666666666667,0.7425245667689347,24994,上野 アメ屋横丁 トロ函,https://tabelog.com/tokyo/A1311/A131101/13059300/,居酒屋、炭火焼き、魚介料理・海鮮料理,創作料理・無国籍料理,35.70899583,139.7735378,東京都台東区上野6-8-1
"0,1,0,1,0.5,0,0,1,0","0.0,3.0,0.0,3.0,3.0,0.0,0.0,0.0,3.0",0.2263242806809372,232.10271579571884,0.707106781187,0.7424437217902403,24800,釜山館,https://tabelog.com/tokyo/A1311/A131101/13022792/,焼肉,焼肉・ホルモン・鍋,35.70956291,139.7752156,東京都台東区東上野2-15-7
"0,1,0,1,0.5,0,0,1,0","0.0,3.0,0.0,3.0,3.0,0.0,0.0,0.0,3.0",0.21132267632603866,236.6031971021884,0.707106781187,0.7380089928514421,65527,樽平,https://tabelog.com/tokyo/A1311/A131101/13018460/,ろばた焼き、魚介料理・海鮮料理、串焼き,高級和食,35.70791034731008,139.7722398081266,東京都文京区湯島3-40-7
"0,1,0,1,0.5,0,0,1,0","0.0,2.0,0.0,3.0,3.0,0.0,0.0,0.0,3.0",0.19174926145760765,242.4752215627177,0.707106781187,0.7326443743519349,23699,上野肉バル ダイニング レッドスター,https://tabelog.com/tokyo/A1311/A131101/13205470/,バル・バール、居酒屋、アジア・エスニック料理（その他）,バー・お酒,35.70966167,139.7751817,東京都台東区東上野2-15-6東上野アユタヤビル
"0,1,0,1,0.5,0,0,1,0","0.0,3.0,0.0,3.0,3.0,0.0,0.0,0.0,3.0",0.17460423726881583,247.61872881935525,0.707106781187,0.728345137741871,22894,焼肉乃 富士吉,https://tabelog.com/tokyo/A1311/A131101/13003645/,焼肉、韓国料理、冷麺,焼肉・ホルモン・鍋,35.70969333,139.7752972,東京都台東区東上野2-15-7
"0,1,0,1,0.5,0,0,1,0","0.0,3.0,0.0,3.0,3.0,0.0,0.0,0.0,3.0",0.1722674250990258,248.31977247029226,0.707106781187,0.7277884759669176,24215,長崎水産,https://tabelog.com/tokyo/A1311/A131101/13141815/,居酒屋、魚介料理・海鮮料理、寿司,高級和食,35.7081189,139.7721687,東京都台東区上野4-1-31F
"0,1,0,1,0.5,0,0,1,0","0.0,3.0,0.0,3.0,3.0,0.0,0.0,0.0,3.0",0.1720873752146766,248.37378743559702,0.707106781187,0.7277458792107839,22291,Tree House 肉バル ジャックトマメノキ 上野店,https://tabelog.com/tokyo/A1311/A131101/13201447/,バル・バール、居酒屋、イタリアン,洋食・西洋料理,35.70811556,139.7721669,東京都台東区上野4-1-3仙家ビル1Ｆ
"0,1,0,1,0.5,0,0,1,0","0.0,3.0,0.0,3.0,3.0,0.0,0.0,0.0,3.0",0.16729773336943746,249.81067998916876,0.707106781187,0.726628193501017,66646,牛角 上野広小路店,https://tabelog.com/tokyo/A1311/A131101/13109227/,焼肉、韓国料理、ホルモン,焼肉・ホルモン・鍋,35.70790550907782,139.77209010798197,東京都文京区湯島3-39-11ライワビル6F
"0,1,0,1,0.5,0,0,1,0","0.0,3.0,0.0,3.0,3.0,0.0,0.0,0.0,3.0",0.16718864970069708,249.84340508979088,0.707106781187,0.7266030860027657,66068,無国籍バル KAIKYO 上野広小路店,https://tabelog.com/tokyo/A1311/A131101/13169889/,バル・バール、ピザ、居酒屋,バー・お酒,35.70790467582394,139.77208955251044,東京都文京区湯島3-39-11ライワビル1F
"0,1,0,1,0.5,0,0,1,0","0.0,3.0,0.0,3.0,0.0,0.0,0.0,0.0,3.0",0.28612371996459424,214.16288401062172,0.666666666667,0.7254731060286259,23313,海雲台,https://tabelog.com/tokyo/A1311/A131101/13163777/,韓国料理、冷麺、焼肉,アジア・エスニック、中華料理,35.70940694,139.7751553,東京都台東区東上野2-15-4
"0,1,0,1,0.5,0,0,1,0","0.0,3.0,0.0,3.0,3.0,0.0,0.0,0.0,3.0",0.15782078170903077,252.65376548729077,0.707106781187,0.7245049338267129,24246,Smoke&Cheese 上野HAZE,https://tabelog.com/tokyo/A1311/A131101/13182936/,ダイニングバー、居酒屋、イタリアン,洋食・西洋料理,35.70812694,139.7721217,東京都台東区上野4-1-3仙家ビルB2F
"0,1,0,1,0.5,0,0,1,0","0.0,3.0,0.0,3.0,3.0,0.0,0.0,0.0,3.0",0.15528743631832725,253.41376910450182,0.707106781187,0.7239573108121214,22619,ザ・ウォーリアーケルト,https://tabelog.com/tokyo/A1311/A131101/13016789/,ビアバー、バー・お酒（その他）、ダイニングバー,バー・お酒,35.70941167,139.7732764,東京都台東区上野6-9-22伊藤ビル　３Ｆ
"0,1,0,1,0.5,0,0,1,0","0.0,3.0,0.0,3.0,3.0,0.0,0.0,0.0,3.0",0.1345084476465223,259.6474657060433,0.707106781187,0.719786442278734,22849,ジンギスカン霧島 御徒町店,https://tabelog.com/tokyo/A1311/A131101/13150036/,焼肉、ジンギスカン、居酒屋・ダイニングバー（その他）,焼肉・ホルモン・鍋,35.70710972,139.7719756,東京都台東区上野3-27-3ハトヤビル3号館5F
"0,1,0,1,0.5,0,0,1,0","0.0,3.0,0.0,3.0,3.0,0.0,0.0,0.0,3.0",0.12077941675996272,263.7661749720112,0.707106781187,0.7173476615371914,65186,吟,https://tabelog.com/tokyo/A1311/A131101/13033235/,割烹・小料理、ダイニングバー,高級和食,35.70825908156008,139.77204370666746,東京都文京区湯島3-41-10コスモビル２Ｆ
"0,1,0,1,0.5,0,0,1,0","0.0,3.0,0.0,3.0,0.0,0.0,0.0,0.0,3.0",0.2645544007217286,220.63367978348143,0.666666666667,0.7172401797066847,24425,ソウル,https://tabelog.com/tokyo/A1311/A131101/13161314/,韓国料理、焼肉、居酒屋,焼肉・ホルモン・鍋,35.70942611,139.7754014,東京都台東区東上野2-15-2
"0,1,0,1,0.5,0,0,1,0","0.0,3.0,0.0,3.0,3.0,0.0,0.0,0.0,3.0",0.11887357596482274,264.3379272105532,0.707106781187,0.7170292372439666,23924,王さん私家菜,https://tabelog.com/tokyo/A1311/A131101/13192813/,四川料理、中国鍋・火鍋、居酒屋,アジア・エスニック、中華料理,35.70846222,139.7721339,東京都台東区上野4-2-82F
"0,1,0,1,0.5,0,0,1,0","0.0,3.0,0.0,3.0,3.0,0.0,0.0,0.0,3.0",0.11424038823796688,265.72788352860994,0.707106781187,0.7162756915495329,22036,食いしんぼう,https://tabelog.com/tokyo/A1311/A131101/13039886/,焼肉、ホルモン,焼肉・ホルモン・鍋,35.70985722,139.7753103,東京都台東区東上野2-19-1
"0,1,0,1,0.5,0,0,1,0","0.0,3.0,0.0,3.0,0.0,0.0,0.0,0.0,3.0",0.2600958722296744,221.97123833109768,0.666666666667,0.7156076489217814,22500,金魚,https://tabelog.com/tokyo/A1311/A131101/13032733/,居酒屋、焼酎バー,バー・お酒,35.707305,139.7723636,東京都台東区上野5-27-7
"0,1,0,1,0.5,0,0,1,0","0.0,3.0,0.0,3.0,3.0,0.0,0.0,0.0,3.0",0.10885338599483475,267.3439842015496,0.707106781187,0.7154362722441047,23020,磯べゑ,https://tabelog.com/tokyo/A1311/A131101/13035043/,居酒屋、魚介料理・海鮮料理、日本酒バー,高級和食,35.70979167,139.7739,東京都台東区上野6-7-9中川ビル　１Ｆ
"0,1,0,1,0.5,0,0,1,0","0.0,3.0,0.0,3.0,3.0,0.0,0.0,0.0,3.0",0.10169741612734033,269.4907751617979,0.707106781187,0.7143825056977372,21959,甘太郎 上野アメ横店,https://tabelog.com/tokyo/A1311/A131101/13051874/,居酒屋、焼肉、和食（その他）,Ｂ級和食,35.70846833,139.772075,東京都台東区上野4-2-6西田ビル　２Ｆ
"0,1,0,1,0.5,0,0,1,0","0.0,3.0,0.0,3.0,3.0,0.0,0.0,0.0,3.0",0.09328558481611936,272.0143245551642,0.707106781187,0.7132336225490814,23724,地鶏城　梵厨,https://tabelog.com/tokyo/A1311/A131101/13101679/,居酒屋、焼鳥、鳥料理,Ｂ級和食,35.70670469,139.7776491,東京都台東区台東4-20-11谷古宇ビル１階
"0,1,0,1,0.5,0,0,1,0","0.0,3.0,0.0,3.0,3.0,0.0,0.0,0.0,3.0",0.09198601952957498,272.4041941411275,0.707106781187,0.7130648131754191,24113,PizzaKingバンバール,https://tabelog.com/tokyo/A1311/A131101/13155069/,ピザ、パスタ、イタリアン,洋食・西洋料理,35.70667417,139.7776406,東京都台東区台東4-20-12本橋ビル1F
"0,1,0,1,0.5,0,0,1,0","0.0,3.0,0.0,3.0,3.0,0.0,0.0,0.0,3.0",0.08930322616891526,273.2090321493254,0.707106781187,0.712723695554018,65855,絵馬亭,https://tabelog.com/tokyo/A1311/A131101/13016778/,居酒屋、割烹・小料理、水炊き,高級和食,35.707391947634164,139.77178876776452,東京都文京区湯島3-39-3ユシマ栄ビル　２Ｆ
"0,1,0,1,0.5,0,0,1,0","0.0,3.0,0.0,3.0,3.0,0.0,0.0,0.0,3.0",0.08095436699369239,275.7136899018923,0.707106781187,0.711725796592585,22994,PINCHO,https://tabelog.com/tokyo/A1311/A131101/13174108/,スペイン料理、バル・バール、ダイニングバー,洋食・西洋料理,35.70758835,139.7717603,東京都台東区上野3-28-6
"0,1,0,1,0.5,0,0,1,0","0.0,3.0,0.0,3.0,3.0,0.0,0.0,0.0,3.0",0.0764584045202984,277.0624786439105,0.707106781187,0.711228435611084,24091,魚作 上野店,https://tabelog.com/tokyo/A1311/A131101/13150026/,居酒屋、魚介料理・海鮮料理、鍋（その他）,高級和食,35.70847667,139.7719883,東京都台東区上野4-2-6上野西田ビル5F
"0,1,0,1,0.5,0,0,1,0","0.0,3.0,0.0,3.0,3.0,0.0,0.0,0.0,3.0",0.06812287680288326,279.563136959135,0.707106781187,0.7103806911395473,24519,上野アメ横のひもの屋 上野アメ横店,https://tabelog.com/tokyo/A1311/A131101/13043938/,居酒屋、日本酒バー、魚介料理・海鮮料理,高級和食,35.70892722,139.7722608,東京都台東区上野4-6-9大徳ビルB1F
"0,1,0,1,0.5,0,0,1,0","0.0,3.0,0.0,3.0,3.0,0.0,0.0,0.0,3.0",0.06479230131464571,280.5623096056063,0.707106781187,0.7100690405232776,23942,テング酒場 上野店,https://tabelog.com/tokyo/A1311/A131101/13151158/,居酒屋、焼鳥、串焼き,居酒屋,35.70891608,139.7722381,東京都台東区上野4-6-9PASSAGEビル3F
"0,1,0,1,0.5,0,0,1,0","0.0,3.0,0.0,3.0,0.0,0.0,0.0,0.0,3.0",0.24414914769460505,226.7552556916185,0.666666666667,0.7099670772398158,24337,おかってや 東上野店,https://tabelog.com/tokyo/A1311/A131101/13035538/,居酒屋,居酒屋,35.70906667,139.7764111,東京都台東区東上野2-11-1Ｔ＆Ｋビル　１Ｆ
"0,1,0,1,0.5,0,0,1,0","0.0,3.0,0.0,3.0,3.0,0.0,0.0,0.0,3.0",0.06228606141992202,281.3141815740234,0.707106781187,0.70984473897269,22486,こがね屋  御徒町,https://tabelog.com/tokyo/A1311/A131101/13187730/,串焼き、居酒屋、ろばた焼き,Ｂ級和食,35.7062578,139.7720937,東京都台東区上野3-21-101F
"0,1,0,1,0.5,0,0,1,0","0.0,3.0,0.0,3.0,3.0,0.0,0.0,0.0,3.0",0.05525157309259707,283.4245280722209,0.707106781187,0.7092621069317088,66067,トントンびょうし,https://tabelog.com/tokyo/A1311/A131101/13119733/,焼きとん,Ｂ級和食,35.7079810502559,139.7717295788898,東京都文京区湯島3-39-9白石ビル1F
"0,1,0,1,0.5,0,0,1,0","0.0,3.0,0.0,3.0,0.0,0.0,0.0,0.0,3.0",0.24127039939043432,227.6188801828697,0.666666666667,0.7089822635767866,23238,中国料理 茶寮,https://tabelog.com/tokyo/A1311/A131101/13042386/,中華料理,アジア・エスニック、中華料理,35.70936694,139.7758422,東京都台東区東上野2-13-2猪田ビル1F・2F
"0,1,0,1,0.5,0,0,1,0","0.0,3.0,0.0,3.0,3.0,0.0,0.0,0.0,3.0",0.05034843608790216,284.89546917362935,0.707106781187,0.7088970059299853,23742,ワインの酒場。ディプント 上野御徒町店,https://tabelog.com/tokyo/A1311/A131101/13205295/,バル・バール、居酒屋、イタリアン,洋食・西洋料理,35.70648861,139.7719103,東京都台東区上野3-21-7福寿ビルB1F
"0,1,0,1,0.5,0,0,1,0","0.0,3.0,0.0,3.0,3.0,0.0,0.0,0.0,3.0",0.0462229042739538,286.13312871781386,0.707106781187,0.7086159445563719,21966,ホルモン専門店 焼肉 ホルモン番長,https://tabelog.com/tokyo/A1311/A131101/13113367/,焼肉、ホルモン、居酒屋,焼肉・ホルモン・鍋,35.70837639,139.7718322,東京都台東区上野4-2-5鈴木ビル1～4F
"0,1,0,1,0.5,0,0,1,0","0.0,3.0,0.0,3.0,3.0,0.0,0.0,0.0,3.0",0.04114278298636634,287.6571651040901,0.707106781187,0.7083027097165896,22971,Trattoria Candito,https://tabelog.com/tokyo/A1311/A131101/13044473/,イタリアン、居酒屋、パスタ,洋食・西洋料理,35.70755944,139.7779828,東京都台東区東上野1-6-4アツキビル1F
"0,1,0,1,0.5,0,0,1,0","0.0,3.0,0.0,3.0,3.0,0.0,0.0,0.0,3.0",0.04028857893852849,287.91342631844145,0.707106781187,0.7082536054217345,65220,SHO,https://tabelog.com/tokyo/A1311/A131101/13118155/,ダイニングバー、バー,バー・お酒,35.707969939406574,139.7716765282522,東京都文京区湯島3-39-9B1Ｆ
"0,1,0,1,0.5,0,0,1,0","0.0,3.0,0.0,3.0,3.0,0.0,0.0,0.0,3.0",0.039281968229879,288.2154095310363,0.707106781187,0.7081970580481208,22910,磯丸水産 上野御徒町店,https://tabelog.com/tokyo/A1311/A131101/13152249/,魚介料理・海鮮料理、居酒屋、和食（その他）,Ｂ級和食,35.70873557,139.7720048,東京都台東区上野4-6-6勉強堂ビル1F～2F
"0,1,0,1,0.5,0,0,1,0","0.0,3.0,0.0,3.0,3.0,0.0,0.0,0.0,3.0",0.0390263524658684,288.2920942602395,0.707106781187,0.7081829256532455,21798,COCKTAIL WORKS 上野,https://tabelog.com/tokyo/A1311/A131101/13184760/,イタリアン、バー、バル・バール,洋食・西洋料理,35.71001694,139.7740236,東京都台東区上野6-7-15隆陽堂ビル1F
"0,1,0,1,0.5,0,0,1,0","0.0,3.0,0.0,3.0,0.0,0.0,0.0,0.0,3.0",0.23352482947362177,229.94255115791347,0.666666666667,0.7063839539691771,66316,ファンタジスタ,https://tabelog.com/tokyo/A1311/A131101/13144473/,ピザ、イタリアン、居酒屋,洋食・西洋料理,35.707564715257696,139.77226538689382,東京都文京区湯島3-40-11オレンジビル1・2F
"0,1,0,1,0.5,0,0,1,0","0.0,3.0,0.0,3.0,0.0,0.0,0.0,0.0,3.0",0.23010548523998797,230.9683544280036,0.666666666667,0.7052609295728601,66180,極ダイニング,https://tabelog.com/tokyo/A1311/A131101/13101465/,居酒屋,居酒屋,35.70778135894584,139.77227648710826,東京都文京区湯島3-40-6アンビッションビル１Ｆ・Ｂ１
"0,1,0,1,0.5,0,0,1,0","0.0,3.0,0.0,3.0,0.0,0.0,0.0,0.0,3.0",0.19938797461695193,240.18360761491442,0.666666666667,0.6958448166554771,24339,居酒屋おんどる,https://tabelog.com/tokyo/A1311/A131101/13199496/,居酒屋,居酒屋,35.709235,139.7732211,東京都台東区上野6-9-23
"0,1,0,1,0.5,0,0,1,0","0.0,3.0,0.0,3.0,0.0,0.0,0.0,0.0,3.0",0.19199734268752414,242.40079719374276,0.666666666667,0.6937632334186606,24932,焼肉大門,https://tabelog.com/tokyo/A1311/A131101/13047885/,焼肉、韓国料理,焼肉・ホルモン・鍋,35.70966083,139.7751831,東京都台東区東上野2-15-6
"0,1,0,1,0.5,0,0,1,0","0.0,3.0,0.0,3.0,0.0,0.0,0.0,0.0,3.0",0.1872483802628501,243.82548592114497,0.666666666667,0.6924640065414991,23386,東京苑,https://tabelog.com/tokyo/A1311/A131101/13003624/,焼肉、ホルモン、韓国料理,焼肉・ホルモン・鍋,35.70965944,139.7752914,東京都台東区東上野2-15-7
"0,1,0,1,0.5,0,0,1,0","0.0,3.0,0.0,3.0,0.0,0.0,0.0,0.0,3.0",0.18207745058621147,245.37676482413656,0.666666666667,0.6910836725436499,23773,鳥番長 上野昭和通り店,https://tabelog.com/tokyo/A1311/A131101/13108712/,焼鳥、鳥料理、居酒屋,Ｂ級和食,35.70960747,139.7739908,東京都台東区上野6-7-18メッツビル1F
"0,1,0,1,0.5,0,0,1,0","0.0,3.0,0.0,3.0,0.0,0.0,0.0,0.0,3.0",0.17272093781222253,248.18371865633324,0.666666666667,0.6886776944283719,23656,上野市場 御徒町店,https://tabelog.com/tokyo/A1311/A131101/13034262/,居酒屋,居酒屋,35.70809889,139.7721633,東京都台東区上野4-1-3
"0,1,0,1,0.5,0,0,1,0","0.0,3.0,0.0,3.0,0.0,0.0,0.0,0.0,3.0",0.17220995025547522,248.33701492335743,0.666666666667,0.6885497160056329,22389,鶏百華 上野御徒町店,https://tabelog.com/tokyo/A1311/A131101/13155974/,居酒屋、焼鳥、もつ鍋,居酒屋,35.70811833,139.7721683,東京都台東区上野4-1-3仙家ビルB1F
"0,1,0,1,0.5,0,0,1,0","0.0,3.0,0.0,3.0,0.0,0.0,0.0,0.0,3.0",0.16981093826643293,249.05671852007012,0.666666666667,0.6879536315765552,24527,韓国家庭料理 韓屋,https://tabelog.com/tokyo/A1311/A131101/13051465/,韓国料理、韓国鍋,アジア・エスニック、中華料理,35.70761194,139.7720564,東京都台東区上野3-27-7２Ｆ
"0,1,0,1,0.5,0,0,1,0","0.0,3.0,0.0,3.0,0.0,0.0,0.0,0.0,3.0",0.16761905849160116,249.71428245251965,0.666666666667,0.6874158808276509,23326,磯べゑ,https://tabelog.com/tokyo/A1311/A131101/13122086/,居酒屋、和食（その他）、日本酒バー,Ｂ級和食,35.70952194,139.7735981,東京都台東区上野6-8-19泰和第2ビル1F
"0,1,0,1,0.5,0,0,1,0","0.0,3.0,0.0,3.0,0.0,0.0,0.0,0.0,3.0",0.16716902916337356,249.84929125098793,0.666666666667,0.6873062845310446,22124,千里香 上野店,https://tabelog.com/tokyo/A1311/A131101/13059510/,中華料理、韓国料理,アジア・エスニック、中華料理,35.70952361,139.7735989,東京都台東区上野6-8-19上野松島ビルＢ1F
"0,1,0,1,0.5,0,0,1,0","0.0,3.0,0.0,3.0,0.0,0.0,0.0,0.0,3.0",0.16150430044948233,251.5487098651553,0.666666666667,0.6859504963976053,22937,京城苑,https://tabelog.com/tokyo/A1311/A131101/13003583/,焼肉,焼肉・ホルモン・鍋,35.70972756,139.7753091,東京都台東区東上野2-15-7
"0,1,0,1,0.5,0,0,1,0","0.0,3.0,0.0,3.0,0.0,0.0,0.0,0.0,3.0",0.1538464964427423,253.8460510671773,0.666666666667,0.6841879777606087,22183,モツ兵衛 御徒町店,https://tabelog.com/tokyo/A1311/A131101/13050060/,もつ鍋、もつ焼き、居酒屋,居酒屋,35.70544139,139.7735761,東京都台東区上野5-15-15
"0,1,0,1,0.5,0,0,1,0","0.0,3.0,0.0,3.0,0.0,0.0,0.0,0.0,3.0",0.15220606284284352,254.33818114714694,0.666666666667,0.6838209780421803,21764,ととしぐれ 御徒町,https://tabelog.com/tokyo/A1311/A131101/13166774/,魚介料理・海鮮料理、居酒屋、串焼き,高級和食,35.70590607,139.7727828,東京都台東区上野5-19-6
"0,1,0,1,0.5,0,0,1,0","0.0,3.0,0.0,3.0,0.0,0.0,0.0,0.0,3.0",0.12624654708842759,262.1260358734717,0.666666666667,0.6785150220121843,21730,寿司幸,https://tabelog.com/tokyo/A1311/A131101/13025182/,寿司、魚介料理・海鮮料理,高級和食,35.70822278,139.7720481,東京都台東区上野4-2-11
"0,1,0,1,0.5,0,0,1,0","0.0,3.0,0.0,3.0,0.0,0.0,0.0,0.0,3.0",0.1257236040255583,262.2829187923325,0.666666666667,0.6784179162239303,25004,よし寿司 上野店,https://tabelog.com/tokyo/A1311/A131101/13158641/,寿司、懐石・会席料理,高級和食,35.70972639,139.7738378,東京都台東区上野6-7-8
"0,1,0,1,0.5,0,0,1,0","0.0,3.0,0.0,3.0,0.0,0.0,0.0,0.0,3.0",0.11423842060003532,265.7284738199894,0.666666666667,0.6763836641918808,23807,鳥よし,https://tabelog.com/tokyo/A1311/A131101/13034078/,居酒屋、焼鳥,居酒屋,35.70611111,139.7724111,東京都台東区上野5-20-4
"0,1,0,1,0.5,0,0,1,0","0.0,3.0,0.0,3.0,0.0,0.0,0.0,0.0,3.0",0.09771305565225172,270.6860833043245,0.666666666667,0.6737894965709575,23328,キリンシティ 上野店,https://tabelog.com/tokyo/A1311/A131101/13206993/,ビアホール・ビアレストラン、ビアガーデン、居酒屋,バー・お酒,35.709655,139.7734075,東京都台東区上野6-8-8上野POKKE１F
"0,1,0,1,0.5,0,0,1,0","0.0,3.0,0.0,3.0,0.0,0.0,0.0,0.0,3.0",0.08792791826705317,273.62162451988405,0.666666666667,0.672440155891379,23996,海鮮 昌屋,https://tabelog.com/tokyo/A1311/A131101/13028161/,懐石・会席料理、魚介料理・海鮮料理、居酒屋,高級和食,35.70980278,139.7758806,東京都台東区東上野2-21-3成宝ビル　Ｂ１Ｆ
"0,1,0,1,0.5,0,0,1,0","0.0,3.0,0.0,3.0,0.0,0.0,0.0,0.0,3.0",0.08321429324818193,275.0357120255454,0.666666666667,0.6718400576366661,23232,酒蔵 神田っ子,https://tabelog.com/tokyo/A1311/A131101/13046986/,居酒屋、焼鳥、魚介料理・海鮮料理,高級和食,35.70963864,139.7732725,東京都台東区上野6-9-20
"0,1,0,1,0.5,0,0,1,0","0.0,3.0,0.0,3.0,0.0,0.0,0.0,0.0,3.0",0.04350270126753685,286.94918961973895,0.666666666667,0.6680845226930624,24258,寿司源,https://tabelog.com/tokyo/A1311/A131101/13019966/,寿司,高級和食,35.70739,139.7716369,東京都台東区上野3-28-5
"0,1,0,1,0.5,0,0,1,0","0.0,3.0,0.0,3.0,0.0,0.0,0.0,0.0,3.0",0.009804601841045344,297.0586194476864,0.666666666667,0.6667387604314795,21860,むろ華,https://tabelog.com/tokyo/A1311/A131101/13016667/,居酒屋、焼酎バー,バー・お酒,35.71007389,139.77391,東京都台東区上野6-7-12Ｂ１Ｆ
"0,1,0,1,0.5,0,0,1,0","0.0,3.0,0.0,3.0,3.0,3.0,0.0,0.0,3.0",0.20156790750066458,239.52962774980062,0.57735026919,0.6115251055087843,22696,レストラン満奈多,https://tabelog.com/tokyo/A1311/A131101/13010516/,韓国料理,アジア・エスニック、中華料理,35.70960333,139.7753906,東京都台東区東上野2-15-8
"0,1,0,1,0.5,0,0,1,0","0.0,3.0,0.0,3.0,0.0,3.0,0.0,0.0,3.0",0.22378969577317293,232.86309126804812,0.471404520791,0.5218276057822847,66025,厳選洋食さくらい,https://tabelog.com/tokyo/A1311/A131101/13003638/,洋食、ハヤシライス、ハンバーグ,洋食・西洋料理,35.70793800907534,139.77228897885837,東京都文京区湯島3-40-7カスタムビル　７Ｆ・８Ｆ
"0,1,0,1,0.5,0,0,1,0","0.0,3.0,0.0,3.0,0.0,3.0,0.0,0.0,3.0",0.2144287553663337,235.6713733900999,0.471404520791,0.5178821423356642,23523,MKレストラン 御徒町店,https://tabelog.com/tokyo/A1311/A131101/13195694/,しゃぶしゃぶ、飲茶・点心、バイキング,焼肉・ホルモン・鍋,35.70716028,139.7722339,東京都台東区上野3-27-1十仁ビル4F
"0,1,0,1,0.5,0,0,1,0","0.0,3.0,0.0,3.0,0.0,3.0,0.0,0.0,3.0",0.15033374260560162,254.89987721831952,0.471404520791,0.4947953681958123,23028,山海楼 御徒町店,https://tabelog.com/tokyo/A1311/A131101/13156481/,中華料理、居酒屋、上海料理,アジア・エスニック、中華料理,35.70701028,139.7775575,東京都台東区台東4-28-2クラシコ新御徒町1F
"0,1,0,1,0.5,0,0,0,1","0.0,2.0,0.0,3.0,3.0,0.0,0.0,0.0,3.0",0.932839495679151,20.14815129625467,0.948683298051,1.3304846954019924,24849,御徒町 魚富,https://tabelog.com/tokyo/A1311/A131101/13205979/,居酒屋、魚介料理・海鮮料理、天ぷら,高級和食,35.70745083,139.77502,東京都台東区台東4-31-6松田ビル1F　
"0,1,0,1,0.5,0,0,0,1","0.0,3.0,0.0,3.0,3.0,0.0,0.0,0.0,3.0",0.8838483702831375,34.845488915058745,0.948683298051,1.2966063171418525,22608,クラルテ,https://tabelog.com/tokyo/A1311/A131101/13154926/,バー,バー・お酒,35.70781131,139.7748315,東京都台東区東上野1-14-14一光ビル1F
"0,1,0,1,0.5,0,0,0,1","0.0,3.0,0.0,3.0,3.0,0.0,0.0,0.0,3.0",0.8569959727966253,42.90120816101236,0.948683298051,1.27845300945699,24692,MEAT×WINE BISTRO DOMANNAKA,https://tabelog.com/tokyo/A1311/A131101/13210659/,ビストロ、ダイニングバー、ステーキ,洋食・西洋料理,35.7077525,139.7751619,東京都台東区東上野1-13-2成田第2ビル1F
"0,1,0,1,0.5,0,0,0,1","0.0,3.0,0.0,3.0,3.0,0.0,0.0,0.0,3.0",0.661148621042667,101.6554136871999,0.948683298051,1.1563379692402305,24949,バクロウ,https://tabelog.com/tokyo/A1311/A131101/13138118/,バル・バール、馬肉料理、ワインバー,バー・お酒,35.70841056,139.774905,東京都台東区東上野1-15-1
"0,1,0,1,0.5,0,0,0,1","0.0,3.0,0.0,3.0,0.0,0.0,0.0,0.0,3.0",0.6784464713398726,96.46605859803822,0.894427191,1.1226262131598053,24825,ラテン,https://tabelog.com/tokyo/A1311/A131101/13016720/,バー,バー・お酒,35.70669583,139.7743939,東京都台東区台東4-11-2紫光ビル　Ｂ１Ｆ
"0,1,0,1,0.5,0,0,0,1","0.0,3.0,0.0,3.0,3.0,0.0,0.0,0.0,3.0",0.5733492250312023,127.99523249063928,0.948683298051,1.1084806420699824,22394,多ら福,https://tabelog.com/tokyo/A1311/A131101/13112169/,居酒屋,居酒屋,35.70829222,139.7737792,東京都台東区上野6-1-6上野シックスロードビル　B1F
"0,1,0,1,0.5,0,0,0,1","0.0,3.0,0.0,3.0,3.0,0.0,0.0,0.0,3.0",0.5732066069102912,128.03801792691263,0.948683298051,1.1084068811612497,24981,ストーンズ,https://tabelog.com/tokyo/A1311/A131101/13104298/,バー、ワインバー、ダイニングバー,バー・お酒,35.70829278,139.7737792,東京都台東区上野6-1-6上野シックスロードビルB1F
"0,1,0,1,0.5,0,0,0,1","0.0,3.0,0.0,3.0,3.0,0.0,0.0,0.0,3.0",0.5557580148857258,133.27259553428226,0.948683298051,1.0994848662486094,23574,しゅん 御徒町店,https://tabelog.com/tokyo/A1311/A131101/13025086/,寿司,高級和食,35.70742139,139.7733353,東京都台東区上野5-25-8グランディールビル御徒町　１Ｆ
"0,1,0,1,0.5,0,0,0,1","0.0,3.0,0.0,3.0,3.0,0.0,0.0,0.0,3.0",0.5318003027888683,140.45990916333952,0.948683298051,1.0875714054931436,22511,Hitch×kakeru ヒチカケ,https://tabelog.com/tokyo/A1311/A131101/13194692/,ビアバー、アジア・エスニック料理（その他）、ダイニングバー,バー・お酒,35.70786167,139.7733183,東京都台東区上野6-2-2ライフビル2Fこのお店は「千代田区神田松永町17-3」から移転しています。※移転前の情報は最新のものとは異なります。移転前の店舗情報を見る
"0,1,0,1,0.5,0,0,0,1","0.0,3.0,0.0,3.0,3.0,0.0,0.0,0.0,3.0",0.5058966706478615,148.23099880564155,0.948683298051,1.075142521423365,24513,新割烹 嬉八,https://tabelog.com/tokyo/A1311/A131101/13016729/,割烹・小料理、魚介料理・海鮮料理,高級和食,35.70661444,139.7760336,東京都台東区台東4-18-8女井ビル　Ｂ１Ｆ
"0,1,0,1,0.5,0,0,0,1","0.0,3.0,0.0,3.0,3.0,0.0,0.0,0.0,3.0",0.5049221208275154,148.52336375174536,0.948683298051,1.0746843015978953,24428,魚旬 かねしょう,https://tabelog.com/tokyo/A1311/A131101/13205075/,魚介料理・海鮮料理、居酒屋・ダイニングバー（その他）、寿司,高級和食,35.7068475,139.7733706,東京都台東区上野5-25-17東成ビル1F
"0,1,0,1,0.5,0,0,0,1","0.0,3.0,0.0,3.0,3.0,0.0,0.0,0.0,3.0",0.4769276295974312,156.92171112077065,0.948683298051,1.061819176636693,24672,博多・下関　げんき家,https://tabelog.com/tokyo/A1311/A131101/13190501/,居酒屋、日本酒バー、創作料理,バー・お酒,35.70674278,139.7733389,東京都台東区上野5-25-1ニュー遠藤ビル2F
"0,1,0,1,0.5,0,0,0,1","0.0,3.0,0.0,3.0,3.0,0.0,0.0,0.0,3.0",0.4763129143389859,157.10612569830423,0.948683298051,1.0615432126701663,23826,丸鶏もと家 上野店,https://tabelog.com/tokyo/A1311/A131101/13181225/,韓国鍋、韓国料理、居酒屋,アジア・エスニック、中華料理,35.70809028,139.7763819,東京都台東区東上野1-11-10上野aビル1F
"0,1,0,1,0.5,0,0,0,1","0.0,3.0,0.0,3.0,0.0,0.0,0.0,0.0,3.0",0.5668003753471204,129.9598873958639,0.894427191,1.0588969097573362,24256,鳥焼肉 巻渕,https://tabelog.com/tokyo/A1311/A131101/13212161/,焼肉、居酒屋、鳥料理,焼肉・ホルモン・鍋,35.70789611,139.7734544,東京都台東区上野6-2-1JREビル2F
"0,1,0,1,0.5,0,0,0,1","0.0,3.0,0.0,3.0,3.0,0.0,0.0,0.0,3.0",0.452360076518369,164.2919770444893,0.948683298051,1.0510136244729202,22435,あんじゅ,https://tabelog.com/tokyo/A1311/A131101/13100457/,居酒屋、韓国料理、もつ鍋,アジア・エスニック、中華料理,35.70754889,139.7729906,東京都台東区上野5-26-8Ｂ１Ｆ
"0,1,0,1,0.5,0,0,0,1","0.0,3.0,0.0,3.0,3.0,0.0,0.0,0.0,3.0",0.4489096512686288,165.32710461941136,0.948683298051,1.0495331700342405,23642,串と酒 吉助,https://tabelog.com/tokyo/A1311/A131101/13188181/,居酒屋、焼鳥、魚介料理・海鮮料理,高級和食,35.70755444,139.7729794,東京都台東区上野5-26-8ロイヤルビルB1F
"0,1,0,1,0.5,0,0,0,1","0.0,3.0,0.0,3.0,3.0,0.0,0.0,0.0,3.0",0.4372879432148437,168.81361703554688,0.948683298051,1.044615118252205,23272,房家 上野六丁目店,https://tabelog.com/tokyo/A1311/A131101/13186440/,焼肉、居酒屋、ホルモン,焼肉・ホルモン・鍋,35.70882667,139.7738961,東京都台東区上野6-6-6小湊ビル1～2F
"0,1,0,1,0.5,0,0,0,1","0.0,3.0,0.0,3.0,3.0,0.0,0.0,0.0,3.0",0.4176478519842797,174.70564440471608,0.948683298051,1.036547021734703,22064,TOKYO 焼肉 ごぉ,https://tabelog.com/tokyo/A1311/A131101/13201243/,焼肉、ラーメン、居酒屋,焼肉・ホルモン・鍋,35.70656,139.7732544,東京都台東区上野5-22-8御徒町電子ビル2F
"0,1,0,1,0.5,0,0,0,1","0.0,3.0,0.0,3.0,0.0,0.0,0.0,0.0,3.0",0.5214695757173048,143.55912728480857,0.894427191,1.0353407740443654,23439,魚禅,https://tabelog.com/tokyo/A1311/A131101/13203554/,魚介料理・海鮮料理、居酒屋、寿司,高級和食,35.707415,139.7732219,東京都台東区上野5-25-8
"0,1,0,1,0.5,0,0,0,1","0.0,3.0,0.0,3.0,3.0,0.0,0.0,0.0,3.0",0.4084899714219337,177.45300857341988,0.948683298051,1.0328911156323748,23378,故郷味 上野店,https://tabelog.com/tokyo/A1311/A131101/13009787/,四川料理、上海料理、中華料理,アジア・エスニック、中華料理,35.70852111,139.7732978,東京都台東区上野6-2-7キングビル1F・2F・4F
